[
  {
    "name": "Lady G'Diver",
    "lat": 18.1813572,
    "lon": -76.4529264,
    "osm_id": 2998062638,
    "osm_type": "node",
    "depth": null,
    "site_type": "reef",
    "entry_type": null,
    "difficulty": null,
    "tags": {
      "name": "Lady G'Diver",
      "note": "PADI certified",
      "sport": "scuba_diving"
    }
  },
  {
    "name": "Chubb Reef (Dive Site)",
    "lat": 18.5265326,
    "lon": -77.8594637,
    "osm_id": 3092250389,
    "osm_type": "node",
    "depth": null,
    "site_type": "reef",
    "entry_type": null,
    "difficulty": null,
    "tags": {
      "name": "Chubb Reef (Dive Site)",
      "natural": "reef",
      "ref": "11",
      "wikidata": "Q637555",
      "wikipedia": "en:Montego Bay"
    }
  },
  {
    "name": "Bowden Reef",
    "lat": 17.8673967,
    "lon": -76.3179036,
    "osm_id": 3357015943,
    "osm_type": "node",
    "depth": null,
    "site_type": "reef",
    "entry_type": null,
    "difficulty": null,
    "tags": {
      "name": "Bowden Reef",
      "natural": "reef"
    }
  },
  {
    "name": "Dead Man's Bones",
    "lat": 17.8658813,
    "lon": -76.33223,
    "osm_id": 6978522058,
    "osm_type": "node",
    "depth": null,
    "site_type": "reef",
    "entry_type": null,
    "difficulty": null,
    "tags": {
      "name": "Dead Man's Bones",
      "natural": "reef",
      "wikidata": "Q27119118"
    }
  },
  {
    "name": "Bush Cay",
    "lat": 18.4922365,
    "lon": -77.6415289,
    "osm_id": 6983613967,
    "osm_type": "node",
    "depth": null,
    "site_type": "reef",
    "entry_type": null,
    "difficulty": null,
    "tags": {
      "name": "Bush Cay",
      "natural": "reef"
    }
  },
  {
    "name": "Fish Pond (Dive Site)",
    "lat": 18.5212169,
    "lon": -77.8976503,
    "osm_id": 13614819150,
    "osm_type": "node",
    "depth": null,
    "site_type": "reef",
    "entry_type": null,
    "difficulty": null,
    "tags": {
      "name": "Fish Pond (Dive Site)",
      "natural": "reef",
      "wikidata": "Q637555",
      "wikipedia": "en:Montego Bay"
    }
  },
  {
    "name": "Fish Pond Edge (Dive Site)",
    "lat": 18.5241047,
    "lon": -77.8982873,
    "osm_id": 13614819151,
    "osm_type": "node",
    "depth": null,
    "site_type": "reef",
    "entry_type": null,
    "difficulty": null,
    "tags": {
      "name": "Fish Pond Edge (Dive Site)",
      "natural": "reef",
      "wikidata": "Q637555",
      "wikipedia": "en:Montego Bay"
    }
  },
  {
    "name": "Stingray City (Dive Site)",
    "lat": 18.5263651,
    "lon": -77.8757479,
    "osm_id": 13614819152,
    "osm_type": "node",
    "depth": null,
    "site_type": "reef",
    "entry_type": null,
    "difficulty": null,
    "tags": {
      "name": "Stingray City (Dive Site)",
      "natural": "reef",
      "wikidata": "Q637555",
      "wikipedia": "en:Montego Bay"
    }
  },
  {
    "name": "Pelican Reef (Dive Site)",
    "lat": 18.5245786,
    "lon": -77.8848557,
    "osm_id": 13614819153,
    "osm_type": "node",
    "depth": null,
    "site_type": "reef",
    "entry_type": null,
    "difficulty": null,
    "tags": {
      "name": "Pelican Reef (Dive Site)",
      "natural": "reef",
      "wikidata": "Q637555",
      "wikipedia": "en:Montego Bay"
    }
  },
  {
    "name": "Gun Cay",
    "lat": 17.9303499,
    "lon": -76.8359005,
    "osm_id": 746173568,
    "osm_type": "way",
    "depth": null,
    "site_type": "reef",
    "entry_type": null,
    "difficulty": null,
    "tags": {
      "name": "Gun Cay",
      "natural": "reef"
    }
  },
  {
    "name": "Rackhmans Cay",
    "lat": 17.9240465,
    "lon": -76.8394787,
    "osm_id": 746173569,
    "osm_type": "way",
    "depth": null,
    "site_type": "reef",
    "entry_type": null,
    "difficulty": null,
    "tags": {
      "name": "Rackhmans Cay",
      "natural": "reef"
    }
  },
  {
    "name": "West Middle Shoal",
    "lat": 17.9227603,
    "lon": -76.847595,
    "osm_id": 746173570,
    "osm_type": "way",
    "depth": null,
    "site_type": "reef",
    "entry_type": null,
    "difficulty": null,
    "tags": {
      "name": "West Middle Shoal",
      "natural": "reef"
    }
  },
  {
    "name": "Drunkenmans Cay",
    "lat": 17.905824,
    "lon": -76.8455673,
    "osm_id": 746173573,
    "osm_type": "way",
    "depth": null,
    "site_type": "reef",
    "entry_type": null,
    "difficulty": null,
    "tags": {
      "name": "Drunkenmans Cay",
      "natural": "reef"
    }
  },
  {
    "name": "South East Cay",
    "lat": 17.9010358,
    "lon": -76.7977167,
    "osm_id": 746173575,
    "osm_type": "way",
    "depth": null,
    "site_type": "reef",
    "entry_type": null,
    "difficulty": null,
    "tags": {
      "name": "South East Cay",
      "natural": "reef"
    }
  },
  {
    "name": "Maiden Cay",
    "lat": 17.9112756,
    "lon": -76.8113208,
    "osm_id": 746173576,
    "osm_type": "way",
    "depth": null,
    "site_type": "reef",
    "entry_type": null,
    "difficulty": null,
    "tags": {
      "name": "Maiden Cay",
      "natural": "reef"
    }
  },
  {
    "name": "South Cay",
    "lat": 17.896043,
    "lon": -76.8232191,
    "osm_id": 746173577,
    "osm_type": "way",
    "depth": null,
    "site_type": "reef",
    "entry_type": null,
    "difficulty": null,
    "tags": {
      "name": "South Cay",
      "natural": "reef"
    }
  },
  {
    "name": "Bush Reef",
    "lat": 17.8944251,
    "lon": -76.8684358,
    "osm_id": 746173582,
    "osm_type": "way",
    "depth": null,
    "site_type": "reef",
    "entry_type": null,
    "difficulty": null,
    "tags": {
      "name": "Bush Reef",
      "natural": "reef",
      "wikidata": "Q27120334"
    }
  },
  {
    "name": "One Bush Cay",
    "lat": 18.4722112,
    "lon": -77.4175752,
    "osm_id": 746216190,
    "osm_type": "way",
    "depth": null,
    "site_type": "reef",
    "entry_type": null,
    "difficulty": null,
    "tags": {
      "name": "One Bush Cay",
      "natural": "reef"
    }
  },
  {
    "name": "Bare Bush Cay",
    "lat": 17.7509958,
    "lon": -77.0365405,
    "osm_id": 746501570,
    "osm_type": "way",
    "depth": null,
    "site_type": "reef",
    "entry_type": null,
    "difficulty": null,
    "tags": {
      "name": "Bare Bush Cay",
      "natural": "reef"
    }
  },
  {
    "name": "Careening Island",
    "lat": 17.8808609,
    "lon": -77.0841873,
    "osm_id": 746501571,
    "osm_type": "way",
    "depth": null,
    "site_type": "reef",
    "entry_type": null,
    "difficulty": null,
    "tags": {
      "name": "Careening Island",
      "natural": "reef"
    }
  },
  {
    "name": "Bucknors Reef",
    "lat": 18.4639175,
    "lon": -78.115089,
    "osm_id": 755769609,
    "osm_type": "way",
    "depth": null,
    "site_type": "reef",
    "entry_type": null,
    "difficulty": null,
    "tags": {
      "name": "Bucknors Reef",
      "natural": "reef"
    }
  }
]
