[
  {
    "name": "Curtiss C-46A-45-CU Commando",
    "lat": 24.5944614,
    "lon": -76.8097669,
    "osm_id": 948102800,
    "osm_type": "way",
    "depth": 20,
    "site_type": "wreck",
    "entry_type": "boat",
    "difficulty": "Intermediate",
    "tags": {
      "access": "yes",
      "aircraft:type": "transport",
      "damage": "destroyed",
      "damage:structure": "heavy",
      "historic": "wreck",
      "name": "Curtiss C-46A-45-CU Commando",
      "note": "Civil registration, N355BY, cancelled on 15 November 1980.",
      "seamark:type": "wreck",
      "sport": "scuba_diving",
      "tourism": "attraction",
      "wikidata": "Q1145708",
      "wikipedia": "en:Curtiss C-46 Commando",
      "wreck:date_sunk": "15 November 1980",
      "wreck:visible_at_high_tide": "no",
      "wreck:visible_at_low_tide": "yes",
      "year_of_construction": "1940-1945"
    }
  },
  {
    "name": "S.S. Sapona",
    "lat": 25.65066,
    "lon": -79.2933084,
    "osm_id": 952659147,
    "osm_type": "way",
    "depth": 20,
    "site_type": "wreck",
    "entry_type": "boat",
    "difficulty": "Intermediate",
    "tags": {
      "access": "yes",
      "building": "yes",
      "damage": "destroyed",
      "damage:structure": "heavy",
      "historic": "wreck",
      "name": "S.S. Sapona",
      "seamark:type": "wreck",
      "seamark:wreck:category": "hull_showing",
      "sport": "scuba_diving",
      "tourism": "attraction",
      "wikidata": "Q7394347",
      "wikipedia": "en:SS Sapona",
      "wreck:date_sunk": "1926",
      "wreck:visible_at_high_tide": "yes",
      "wreck:visible_at_low_tide": "yes"
    }
  },
  {
    "name": "Tiger Beach",
    "lat": 26.85,
    "lon": -79.0333,
    "osm_id": null,
    "osm_type": null,
    "depth": 12,
    "site_type": "reef",
    "entry_type": "boat",
    "difficulty": "Intermediate",
    "tags": {
      "source": "curated",
      "addedBy": "gap_fill"
    }
  },
  {
    "name": "Stuart Cove Wall",
    "lat": 25.0333,
    "lon": -77.4833,
    "osm_id": null,
    "osm_type": null,
    "depth": 25,
    "site_type": "wall",
    "entry_type": "boat",
    "difficulty": "Intermediate",
    "tags": {
      "source": "curated",
      "addedBy": "gap_fill"
    }
  },
  {
    "name": "Shark Arena Nassau",
    "lat": 25.0417,
    "lon": -77.5,
    "osm_id": null,
    "osm_type": null,
    "depth": 15,
    "site_type": "reef",
    "entry_type": "boat",
    "difficulty": "Intermediate",
    "tags": {
      "source": "curated",
      "addedBy": "gap_fill"
    }
  },
  {
    "name": "Thunderball Grotto",
    "lat": 24.2333,
    "lon": -76.3333,
    "osm_id": null,
    "osm_type": null,
    "depth": 10,
    "site_type": "cave",
    "entry_type": "boat",
    "difficulty": "Beginner",
    "tags": {
      "source": "curated",
      "addedBy": "gap_fill"
    }
  },
  {
    "name": "Dean's Blue Hole",
    "lat": 23.105,
    "lon": -75.0294,
    "osm_id": null,
    "osm_type": null,
    "depth": 60,
    "site_type": "cave",
    "entry_type": "shore",
    "difficulty": "Advanced",
    "tags": {
      "source": "curated",
      "addedBy": "gap_fill"
    }
  },
  {
    "name": "Current Cut Eleuthera",
    "lat": 25.4167,
    "lon": -76.7833,
    "osm_id": null,
    "osm_type": null,
    "depth": 15,
    "site_type": "reef",
    "entry_type": "boat",
    "difficulty": "Intermediate",
    "tags": {
      "source": "curated",
      "addedBy": "gap_fill"
    }
  },
  {
    "name": "Shark Wall New Providence",
    "lat": 25.025,
    "lon": -77.4917,
    "osm_id": null,
    "osm_type": null,
    "depth": 25,
    "site_type": "wall",
    "entry_type": "boat",
    "difficulty": "Intermediate",
    "tags": {
      "source": "curated",
      "addedBy": "gap_fill"
    }
  },
  {
    "name": "Lost Blue Hole Andros",
    "lat": 24.7,
    "lon": -77.7833,
    "osm_id": null,
    "osm_type": null,
    "depth": 40,
    "site_type": "cave",
    "entry_type": "boat",
    "difficulty": "Advanced",
    "tags": {
      "source": "curated",
      "addedBy": "gap_fill"
    }
  },
  {
    "name": "Willaurie Wreck Nassau",
    "lat": 25.0667,
    "lon": -77.4667,
    "osm_id": null,
    "osm_type": null,
    "depth": 14,
    "site_type": "wreck",
    "entry_type": "boat",
    "difficulty": "Beginner",
    "tags": {
      "source": "curated",
      "addedBy": "gap_fill"
    }
  },
  {
    "name": "Shark Rodeo Cat Island",
    "lat": 24.3833,
    "lon": -75.4333,
    "osm_id": null,
    "osm_type": null,
    "depth": 18,
    "site_type": "reef",
    "entry_type": "boat",
    "difficulty": "Intermediate",
    "tags": {
      "source": "curated",
      "addedBy": "gap_fill"
    }
  },
  {
    "name": "Conception Wall",
    "lat": 23.85,
    "lon": -75.1167,
    "osm_id": null,
    "osm_type": null,
    "depth": 30,
    "site_type": "wall",
    "entry_type": "boat",
    "difficulty": "Intermediate",
    "tags": {
      "source": "curated",
      "addedBy": "gap_fill"
    }
  },
  {
    "name": "Ray of Hope Nassau",
    "lat": 25.0583,
    "lon": -77.475,
    "osm_id": null,
    "osm_type": null,
    "depth": 12,
    "site_type": "wreck",
    "entry_type": "boat",
    "difficulty": "Beginner",
    "tags": {
      "source": "curated",
      "addedBy": "gap_fill"
    }
  }
]