[
  {
    "name": "Batu Kapal",
    "lat": -4.53,
    "lon": 129.88,
    "depth": 40,
    "site_type": "wall",
    "entry_type": "boat",
    "difficulty": "Advanced",
    "tags": {
      "source": "curated",
      "addedBy": "gap_fill"
    }
  },
  {
    "name": "Pulau Hatta",
    "lat": -4.58,
    "lon": 129.74,
    "depth": 35,
    "site_type": "wall",
    "entry_type": "boat",
    "difficulty": "Advanced",
    "tags": {
      "source": "curated",
      "addedBy": "gap_fill"
    }
  },
  {
    "name": "Pulau Ai",
    "lat": -4.53,
    "lon": 129.77,
    "depth": 30,
    "site_type": "wall",
    "entry_type": "boat",
    "difficulty": "Intermediate",
    "tags": {
      "source": "curated",
      "addedBy": "gap_fill"
    }
  },
  {
    "name": "Banda Neira Jetty",
    "lat": -4.525,
    "lon": 129.896,
    "depth": 15,
    "site_type": "muck",
    "entry_type": "shore",
    "difficulty": "Beginner",
    "tags": {
      "source": "curated",
      "addedBy": "gap_fill"
    }
  },
  {
    "name": "Lava Flow",
    "lat": -4.5,
    "lon": 129.87,
    "depth": 30,
    "site_type": "wall",
    "entry_type": "boat",
    "difficulty": "Intermediate",
    "tags": {
      "source": "curated",
      "addedBy": "gap_fill"
    }
  },
  {
    "name": "Gunung Api Wall",
    "lat": -4.49,
    "lon": 129.87,
    "depth": 40,
    "site_type": "wall",
    "entry_type": "boat",
    "difficulty": "Advanced",
    "tags": {
      "source": "curated",
      "addedBy": "gap_fill"
    }
  },
  {
    "name": "Mandarin City",
    "lat": -4.52,
    "lon": 129.9,
    "depth": 12,
    "site_type": "muck",
    "entry_type": "boat",
    "difficulty": "Beginner",
    "tags": {
      "source": "curated",
      "addedBy": "gap_fill"
    }
  },
  {
    "name": "Sonegat",
    "lat": -4.55,
    "lon": 129.92,
    "depth": 30,
    "site_type": "reef",
    "entry_type": "boat",
    "difficulty": "Intermediate",
    "tags": {
      "source": "curated",
      "addedBy": "gap_fill"
    }
  },
  {
    "name": "Pohon Miring",
    "lat": -4.56,
    "lon": 129.85,
    "depth": 25,
    "site_type": "reef",
    "entry_type": "boat",
    "difficulty": "Intermediate",
    "tags": {
      "source": "curated",
      "addedBy": "gap_fill"
    }
  },
  {
    "name": "Keraka",
    "lat": -4.6,
    "lon": 129.73,
    "depth": 35,
    "site_type": "wall",
    "entry_type": "boat",
    "difficulty": "Advanced",
    "tags": {
      "source": "curated",
      "addedBy": "gap_fill"
    }
  }
]