[
  {
    "name": "Montana",
    "lat": 32.362,
    "lon": -64.908,
    "osm_id": null,
    "osm_type": null,
    "depth": 9,
    "site_type": "wreck",
    "entry_type": "boat",
    "difficulty": "Beginner",
    "tags": {
      "source": "curated",
      "addedBy": "gap_fill",
      "last_qa_date": "2026-05-18"
    },
    "validated": true,
    "validation_source": "environment.bm,scubadiverlife.com,divemagazine.com,divebermuda.com,bermuda-attractions.com"
  },
  {
    "name": "Constellation",
    "lat": 32.362,
    "lon": -64.908,
    "osm_id": null,
    "osm_type": null,
    "depth": 9,
    "site_type": "wreck",
    "entry_type": "boat",
    "difficulty": "Beginner",
    "tags": {
      "source": "curated",
      "addedBy": "gap_fill",
      "last_qa_date": "2026-05-18"
    },
    "validated": true,
    "validation_source": "scubadiverlife.com,divemagazine.com,bermudascubasomerset.com,divebermuda.com,bermuda-attractions.com"
  },
  {
    "name": "Cristobal Colon",
    "lat": 32.4851,
    "lon": -64.72,
    "osm_id": null,
    "osm_type": null,
    "depth": 18,
    "site_type": "wreck",
    "entry_type": "boat",
    "difficulty": "Intermediate",
    "tags": {
      "source": "curated",
      "addedBy": "gap_fill",
      "last_qa_date": "2026-05-18"
    },
    "validated": true,
    "validation_source": "environment.bm,divemagazine.com,bermuda-attractions.com,bermudascubagrottobay.com,divebermuda.com"
  },
  {
    "name": "Hermes",
    "lat": 32.2452,
    "lon": -64.7994,
    "osm_id": null,
    "osm_type": null,
    "depth": 24,
    "site_type": "wreck",
    "entry_type": "boat",
    "difficulty": "Intermediate",
    "tags": {
      "source": "curated",
      "addedBy": "gap_fill",
      "last_qa_date": "2026-05-18"
    },
    "validated": true,
    "validation_source": "bermuda100.ucsd.edu,bermuda-attractions.com,divemagazine.com,bermudascubasomerset.com,divebermuda.com"
  },
  {
    "name": "King George",
    "lat": 32.3667,
    "lon": -64.7667,
    "osm_id": null,
    "osm_type": null,
    "depth": 18,
    "site_type": "wreck",
    "entry_type": "boat",
    "difficulty": "Intermediate",
    "tags": {
      "source": "curated",
      "addedBy": "gap_fill",
      "last_qa_date": "2026-05-18"
    },
    "validated": true,
    "validation_source": "bermudascubagrottobay.com,divemagazine.com,divebuddy.com,divebermuda.com,bermudascubasomerset.com"
  },
  {
    "name": "Taunton",
    "lat": 32.4925,
    "lon": -64.6752,
    "osm_id": null,
    "osm_type": null,
    "depth": 6,
    "site_type": "wreck",
    "entry_type": "boat",
    "difficulty": "Beginner",
    "tags": {
      "source": "curated",
      "addedBy": "gap_fill",
      "last_qa_date": "2026-05-18"
    },
    "validated": true,
    "validation_source": "bermudascubagrottobay.com,bermudascubasomerset.com,divebermuda.com,bermuda-attractions.com,divemagazine.com"
  },
  {
    "name": "North Carolina",
    "lat": 32.25,
    "lon": -64.9635,
    "osm_id": null,
    "osm_type": null,
    "depth": 14,
    "site_type": "wreck",
    "entry_type": "boat",
    "difficulty": "Intermediate",
    "tags": {
      "source": "curated",
      "addedBy": "gap_fill",
      "last_qa_date": "2026-05-18"
    },
    "validated": true,
    "validation_source": "bermuda100.ucsd.edu,divemagazine.com,bermuda-attractions.com,divebermuda.com,cambridge.org"
  },
  {
    "name": "Pelinaion",
    "lat": 32.3558,
    "lon": -64.6433,
    "osm_id": null,
    "osm_type": null,
    "depth": 20,
    "site_type": "wreck",
    "entry_type": "boat",
    "difficulty": "Intermediate",
    "tags": {
      "source": "curated",
      "addedBy": "gap_fill",
      "last_qa_date": "2026-05-18"
    },
    "validated": true,
    "validation_source": "environment.bm,bermudascubagrottobay.com,bermuda-attractions.com,divemagazine.com,divebermuda.com"
  },
  {
    "name": "Darlington",
    "lat": 32.2873,
    "lon": -64.9839,
    "osm_id": null,
    "osm_type": null,
    "depth": 6,
    "site_type": "wreck",
    "entry_type": "boat",
    "difficulty": "Beginner",
    "tags": {
      "source": "curated",
      "addedBy": "gap_fill",
      "last_qa_date": "2026-05-18"
    },
    "validated": true,
    "validation_source": "bermuda100.ucsd.edu,environment.bm,bermudascubasomerset.com,divemagazine.com,divebermuda.com"
  },
  {
    "name": "Mary Celestia",
    "lat": 32.2467,
    "lon": -64.8333,
    "osm_id": null,
    "osm_type": null,
    "depth": 17,
    "site_type": "wreck",
    "entry_type": "boat",
    "difficulty": "Intermediate",
    "tags": {
      "source": "curated",
      "addedBy": "gap_fill",
      "last_qa_date": "2026-05-18"
    },
    "validated": true,
    "validation_source": "environment.bm,bermuda100.ucsd.edu,bermudascubasomerset.com,scubadiverlife.com,divebermuda.com"
  },
  {
    "name": "Minnie Breslauer",
    "lat": 32.2446,
    "lon": -64.8086,
    "osm_id": null,
    "osm_type": null,
    "depth": 21,
    "site_type": "wreck",
    "entry_type": "boat",
    "difficulty": "Intermediate",
    "tags": {
      "source": "curated",
      "addedBy": "gap_fill",
      "last_qa_date": "2026-05-18"
    },
    "validated": true,
    "validation_source": "environment.bm,bermuda-attractions.com,bermudascubasomerset.com,divemagazine.com,divebermuda.com"
  },
  {
    "name": "Lartington",
    "lat": 32.3612,
    "lon": -64.9139,
    "osm_id": null,
    "osm_type": null,
    "depth": 10,
    "site_type": "wreck",
    "entry_type": "boat",
    "difficulty": "Beginner",
    "tags": {
      "source": "curated",
      "addedBy": "gap_fill",
      "last_qa_date": "2026-05-18"
    },
    "validated": true,
    "validation_source": "bermuda-attractions.com,bermudascubasomerset.com,divebermuda.com,bermuda100.ucsd.edu,divemagazine.com"
  },
  {
    "name": "Southwest Breaker",
    "lat": 32.2309,
    "lon": -64.8656,
    "osm_id": null,
    "osm_type": null,
    "depth": 9,
    "site_type": "reef",
    "entry_type": "boat",
    "difficulty": "Beginner",
    "tags": {
      "source": "curated",
      "addedBy": "gap_fill",
      "last_qa_date": "2026-05-18"
    },
    "validated": true,
    "validation_source": "bermuda-attractions.com,scubadiverlife.com,divebermuda.com,bermudascubasomerset.com,gotobermuda.com"
  },
  {
    "name": "Cathedral Bermuda",
    "lat": 32.3405,
    "lon": -64.6594,
    "osm_id": null,
    "osm_type": null,
    "depth": 17,
    "site_type": "cave",
    "entry_type": "boat",
    "difficulty": "Intermediate",
    "tags": {
      "source": "curated",
      "addedBy": "gap_fill",
      "last_qa_date": "2026-05-18"
    },
    "validated": true,
    "validation_source": "bermudascubagrottobay.com,bermuda-attractions.com,divebermuda.com,padi.com,gotobermuda.com"
  },
  {
    "name": "Tarpon Hole",
    "lat": 32.2688,
    "lon": -64.7756,
    "osm_id": null,
    "osm_type": null,
    "depth": 17,
    "site_type": "reef",
    "entry_type": "boat",
    "difficulty": "Beginner",
    "tags": {
      "source": "curated",
      "addedBy": "gap_fill",
      "last_qa_date": "2026-05-18"
    },
    "validated": true,
    "validation_source": "bermuda100.ucsd.edu,bermudascubasomerset.com,scubadiverlife.com,gotobermuda.com,bermuda-attractions.com"
  }
]
