[
  {
    "name": "Montana",
    "lat": 32.3625,
    "lon": -64.6478,
    "osm_id": null,
    "osm_type": null,
    "depth": 9,
    "site_type": "wreck",
    "entry_type": "boat",
    "difficulty": "Beginner",
    "tags": {
      "source": "curated",
      "addedBy": "gap_fill"
    },
    "validated": true,
    "validation_source": "DiveBuddy, Bermuda 100 Project, Scuba Diver Life"
  },
  {
    "name": "Constellation",
    "lat": 32.3622,
    "lon": -64.6481,
    "osm_id": null,
    "osm_type": null,
    "depth": 9,
    "site_type": "wreck",
    "entry_type": "boat",
    "difficulty": "Beginner",
    "tags": {
      "source": "curated",
      "addedBy": "gap_fill"
    },
    "validated": true,
    "validation_source": "Department of Environment and Natural Resources, DiveBuddy, Scuba Diver Life"
  },
  {
    "name": "Cristobal Colon",
    "lat": 32.45,
    "lon": -64.6333,
    "osm_id": null,
    "osm_type": null,
    "depth": 18,
    "site_type": "wreck",
    "entry_type": "boat",
    "difficulty": "Intermediate",
    "tags": {
      "source": "curated",
      "addedBy": "gap_fill"
    },
    "validated": true,
    "validation_source": "PADI, DiveBuddy, Bermuda 100 Project, DeeperBlue"
  },
  {
    "name": "Hermes",
    "lat": 32.35,
    "lon": -64.7833,
    "osm_id": null,
    "osm_type": null,
    "depth": 24,
    "site_type": "wreck",
    "entry_type": "boat",
    "difficulty": "Intermediate",
    "tags": {
      "source": "curated",
      "addedBy": "gap_fill"
    },
    "validated": true,
    "validation_source": "PADI, Sport Diver, Go To Bermuda, Bermuda 100 Project"
  },
  {
    "name": "King George",
    "lat": 32.3667,
    "lon": -64.7667,
    "osm_id": null,
    "osm_type": null,
    "depth": 18,
    "site_type": "wreck",
    "entry_type": "boat",
    "difficulty": "Intermediate",
    "tags": {
      "source": "curated",
      "addedBy": "gap_fill"
    },
    "validated": true,
    "validation_source": "DiveBuddy, Go To Bermuda, The Bermudian Magazine"
  },
  {
    "name": "Taunton",
    "lat": 32.355,
    "lon": -64.655,
    "osm_id": null,
    "osm_type": null,
    "depth": 6,
    "site_type": "wreck",
    "entry_type": "boat",
    "difficulty": "Beginner",
    "tags": {
      "source": "curated",
      "addedBy": "gap_fill"
    },
    "validated": true,
    "validation_source": "Go To Bermuda, DiveMagazine"
  },
  {
    "name": "North Carolina",
    "lat": 32.3533,
    "lon": -64.6467,
    "osm_id": null,
    "osm_type": null,
    "depth": 14,
    "site_type": "wreck",
    "entry_type": "boat",
    "difficulty": "Intermediate",
    "tags": {
      "source": "curated",
      "addedBy": "gap_fill"
    },
    "validated": true,
    "validation_source": "DiveBuddy, Bermuda 100 Project, Scuba Diving Magazine"
  },
  {
    "name": "Pelinaion",
    "lat": 32.3583,
    "lon": -64.6433,
    "osm_id": null,
    "osm_type": null,
    "depth": 20,
    "site_type": "wreck",
    "entry_type": "boat",
    "difficulty": "Intermediate",
    "tags": {
      "source": "curated",
      "addedBy": "gap_fill"
    },
    "validated": true,
    "validation_source": "Department of Environment and Natural Resources, PADI, Bermuda 100 Project"
  },
  {
    "name": "Darlington",
    "lat": 32.3567,
    "lon": -64.6517,
    "osm_id": null,
    "osm_type": null,
    "depth": 6,
    "site_type": "wreck",
    "entry_type": "boat",
    "difficulty": "Beginner",
    "tags": {
      "source": "curated",
      "addedBy": "gap_fill"
    },
    "validated": true,
    "validation_source": "Department of Environment and Natural Resources, DiveMagazine"
  },
  {
    "name": "Mary Celestia",
    "lat": 32.275,
    "lon": -64.8417,
    "osm_id": null,
    "osm_type": null,
    "depth": 17,
    "site_type": "wreck",
    "entry_type": "boat",
    "difficulty": "Intermediate",
    "tags": {
      "source": "curated",
      "addedBy": "gap_fill"
    },
    "validated": true,
    "validation_source": "PADI, Department of Environment and Natural Resources, Scuba Diver Life"
  },
  {
    "name": "Minnie Breslauer",
    "lat": 32.2833,
    "lon": -64.8333,
    "osm_id": null,
    "osm_type": null,
    "depth": 20,
    "site_type": "wreck",
    "entry_type": "boat",
    "difficulty": "Intermediate",
    "tags": {
      "source": "curated",
      "addedBy": "gap_fill"
    },
    "validated": true,
    "validation_source": "PADI, Bermuda Attractions, Shipwreck Expo"
  },
  {
    "name": "Lartington",
    "lat": 32.36,
    "lon": -64.65,
    "osm_id": null,
    "osm_type": null,
    "depth": 10,
    "site_type": "wreck",
    "entry_type": "boat",
    "difficulty": "Beginner",
    "tags": {
      "source": "curated",
      "addedBy": "gap_fill"
    },
    "validated": true,
    "validation_source": "PADI, Bermuda 100 Project, DiveBuddy"
  },
  {
    "name": "Southwest Breaker",
    "lat": 32.25,
    "lon": -64.8833,
    "osm_id": null,
    "osm_type": null,
    "depth": 9,
    "site_type": "reef",
    "entry_type": "boat",
    "difficulty": "Beginner",
    "tags": {
      "source": "curated",
      "addedBy": "gap_fill"
    },
    "validated": true,
    "validation_source": "PADI, Bermuda 100 Project, Bermuda Attractions"
  },
  {
    "name": "Cathedral Bermuda",
    "lat": 32.3475,
    "lon": -64.66,
    "osm_id": null,
    "osm_type": null,
    "depth": 18,
    "site_type": "cave",
    "entry_type": "boat",
    "difficulty": "Intermediate",
    "tags": {
      "source": "curated",
      "addedBy": "gap_fill"
    },
    "validated": true,
    "validation_source": "PADI, Bermuda 100 Project, Go To Bermuda"
  },
  {
    "name": "Tarpon Hole",
    "lat": 32.345,
    "lon": -64.665,
    "osm_id": null,
    "osm_type": null,
    "depth": 17,
    "site_type": "reef",
    "entry_type": "boat",
    "difficulty": "Beginner",
    "tags": {
      "source": "curated",
      "addedBy": "gap_fill"
    },
    "validated": true,
    "validation_source": "Bermuda 100 Project, Go To Bermuda"
  }
]