[
  {
    "name": "Montana",
    "lat": 32.362,
    "lon": -64.908,
    "osm_id": null,
    "osm_type": null,
    "depth": 9,
    "site_type": "wreck",
    "entry_type": "boat",
    "difficulty": "Beginner",
    "tags": {
      "source": "curated",
      "addedBy": "gap_fill"
    },
    "validated": true,
    "validation_source": "DiveBuddy, Bermuda 100 Project, Scuba Diver Life"
  },
  {
    "name": "Constellation",
    "lat": 32.362,
    "lon": -64.908,
    "osm_id": null,
    "osm_type": null,
    "depth": 9,
    "site_type": "wreck",
    "entry_type": "boat",
    "difficulty": "Beginner",
    "tags": {
      "source": "curated",
      "addedBy": "gap_fill"
    },
    "validated": true,
    "validation_source": "Department of Environment and Natural Resources, DiveBuddy, Scuba Diver Life"
  },
  {
    "name": "Cristobal Colon",
    "lat": 32.4851,
    "lon": -64.72,
    "osm_id": null,
    "osm_type": null,
    "depth": 18,
    "site_type": "wreck",
    "entry_type": "boat",
    "difficulty": "Intermediate",
    "tags": {
      "source": "curated",
      "addedBy": "gap_fill"
    },
    "validated": true,
    "validation_source": "PADI, DiveBuddy, Bermuda 100 Project, DeeperBlue"
  },
  {
    "name": "Hermes",
    "lat": 32.2452,
    "lon": -64.7994,
    "osm_id": null,
    "osm_type": null,
    "depth": 24,
    "site_type": "wreck",
    "entry_type": "boat",
    "difficulty": "Intermediate",
    "tags": {
      "source": "curated",
      "addedBy": "gap_fill"
    },
    "validated": true,
    "validation_source": "PADI, Sport Diver, Go To Bermuda, Bermuda 100 Project"
  },
  {
    "name": "King George",
    "lat": 32.3667,
    "lon": -64.7667,
    "osm_id": null,
    "osm_type": null,
    "depth": 18,
    "site_type": "wreck",
    "entry_type": "boat",
    "difficulty": "Intermediate",
    "tags": {
      "source": "curated",
      "addedBy": "gap_fill"
    },
    "validated": true,
    "validation_source": "DiveBuddy, Go To Bermuda, The Bermudian Magazine"
  },
  {
    "name": "Taunton",
    "lat": 32.4925,
    "lon": -64.6752,
    "osm_id": null,
    "osm_type": null,
    "depth": 6,
    "site_type": "wreck",
    "entry_type": "boat",
    "difficulty": "Beginner",
    "tags": {
      "source": "curated",
      "addedBy": "gap_fill"
    },
    "validated": true,
    "validation_source": "Go To Bermuda, DiveMagazine"
  },
  {
    "name": "North Carolina",
    "lat": 32.25,
    "lon": -64.9635,
    "osm_id": null,
    "osm_type": null,
    "depth": 14,
    "site_type": "wreck",
    "entry_type": "boat",
    "difficulty": "Intermediate",
    "tags": {
      "source": "curated",
      "addedBy": "gap_fill"
    },
    "validated": true,
    "validation_source": "DiveBuddy, Bermuda 100 Project, Scuba Diving Magazine"
  },
  {
    "name": "Pelinaion",
    "lat": 32.3558,
    "lon": -64.6433,
    "osm_id": null,
    "osm_type": null,
    "depth": 20,
    "site_type": "wreck",
    "entry_type": "boat",
    "difficulty": "Intermediate",
    "tags": {
      "source": "curated",
      "addedBy": "gap_fill"
    },
    "validated": true,
    "validation_source": "Department of Environment and Natural Resources, PADI, Bermuda 100 Project"
  },
  {
    "name": "Darlington",
    "lat": 32.2873,
    "lon": -64.9839,
    "osm_id": null,
    "osm_type": null,
    "depth": 6,
    "site_type": "wreck",
    "entry_type": "boat",
    "difficulty": "Beginner",
    "tags": {
      "source": "curated",
      "addedBy": "gap_fill"
    },
    "validated": true,
    "validation_source": "Department of Environment and Natural Resources, DiveMagazine"
  },
  {
    "name": "Mary Celestia",
    "lat": 32.2467,
    "lon": -64.8333,
    "osm_id": null,
    "osm_type": null,
    "depth": 17,
    "site_type": "wreck",
    "entry_type": "boat",
    "difficulty": "Intermediate",
    "tags": {
      "source": "curated",
      "addedBy": "gap_fill"
    },
    "validated": true,
    "validation_source": "PADI, Department of Environment and Natural Resources, Scuba Diver Life"
  },
  {
    "name": "Minnie Breslauer",
    "lat": 32.2446,
    "lon": -64.8086,
    "osm_id": null,
    "osm_type": null,
    "depth": 20,
    "site_type": "wreck",
    "entry_type": "boat",
    "difficulty": "Intermediate",
    "tags": {
      "source": "curated",
      "addedBy": "gap_fill"
    },
    "validated": true,
    "validation_source": "PADI, Bermuda Attractions, Shipwreck Expo"
  },
  {
    "name": "Lartington",
    "lat": 32.3612,
    "lon": -64.9139,
    "osm_id": null,
    "osm_type": null,
    "depth": 10,
    "site_type": "wreck",
    "entry_type": "boat",
    "difficulty": "Beginner",
    "tags": {
      "source": "curated",
      "addedBy": "gap_fill"
    },
    "validated": true,
    "validation_source": "PADI, Bermuda 100 Project, DiveBuddy"
  },
  {
    "name": "Southwest Breaker",
    "lat": 32.2309,
    "lon": -64.8656,
    "osm_id": null,
    "osm_type": null,
    "depth": 9,
    "site_type": "reef",
    "entry_type": "boat",
    "difficulty": "Beginner",
    "tags": {
      "source": "curated",
      "addedBy": "gap_fill"
    },
    "validated": true,
    "validation_source": "PADI, Bermuda 100 Project, Bermuda Attractions"
  },
  {
    "name": "Cathedral Bermuda",
    "lat": 32.3405,
    "lon": -64.6594,
    "osm_id": null,
    "osm_type": null,
    "depth": 18,
    "site_type": "cave",
    "entry_type": "boat",
    "difficulty": "Intermediate",
    "tags": {
      "source": "curated",
      "addedBy": "gap_fill"
    },
    "validated": true,
    "validation_source": "PADI, Bermuda 100 Project, Go To Bermuda"
  },
  {
    "name": "Tarpon Hole",
    "lat": 32.2688,
    "lon": -64.7756,
    "osm_id": null,
    "osm_type": null,
    "depth": 17,
    "site_type": "reef",
    "entry_type": "boat",
    "difficulty": "Beginner",
    "tags": {
      "source": "curated",
      "addedBy": "gap_fill"
    },
    "validated": true,
    "validation_source": "Bermuda 100 Project, Go To Bermuda"
  }
]