[
  {
    "name": "Tiger Rock",
    "lat": 9.28,
    "lon": -82.18,
    "depth": 42,
    "site_type": "pinnacle",
    "entry_type": "boat",
    "difficulty": "Advanced",
    "tags": {
      "source": "curated",
      "addedBy": "fill_new_destinations",
      "validated": "true",
      "validation_source": "scuba diving guides, dive operator resources"
    }
  },
  {
    "name": "Hospital Point",
    "lat": 9.34,
    "lon": -82.24,
    "depth": 7,
    "site_type": "reef",
    "entry_type": "boat",
    "difficulty": "Beginner",
    "tags": {
      "source": "curated",
      "addedBy": "fill_new_destinations",
      "validated": "true",
      "validation_source": "dive operator guides, snorkeling-report.com"
    }
  },
  {
    "name": "The Playground",
    "lat": 9.31,
    "lon": -82.2,
    "depth": 18,
    "site_type": "reef",
    "entry_type": "boat",
    "difficulty": "Beginner",
    "tags": {
      "source": "curated",
      "addedBy": "fill_new_destinations",
      "validated": "true",
      "validation_source": "dive operator guides"
    }
  },
  {
    "name": "Crawl Cay",
    "lat": 9.27,
    "lon": -82.15,
    "depth": 18,
    "site_type": "reef",
    "entry_type": "boat",
    "difficulty": "Intermediate",
    "tags": {
      "source": "curated",
      "addedBy": "fill_new_destinations",
      "validated": "true",
      "validation_source": "arrivalguides.com, dive operator guides"
    }
  },
  {
    "name": "Polo Beach Wall",
    "lat": 9.35,
    "lon": -82.26,
    "depth": 30,
    "site_type": "cavern",
    "entry_type": "boat",
    "difficulty": "Advanced",
    "tags": {
      "source": "curated",
      "addedBy": "fill_new_destinations",
      "validated": "true",
      "validation_source": "tribloo.com, dive operator guides"
    }
  },
  {
    "name": "Dark Wood Reef",
    "lat": 9.3,
    "lon": -82.19,
    "depth": 20,
    "site_type": "reef",
    "entry_type": "boat",
    "difficulty": "Intermediate",
    "tags": {
      "source": "curated",
      "addedBy": "fill_new_destinations",
      "validated": "true",
      "validation_source": "dive operator guides"
    }
  },
  {
    "name": "Cayo Coral",
    "lat": 9.25,
    "lon": -82.13,
    "depth": 8,
    "site_type": "reef",
    "entry_type": "shore",
    "difficulty": "Beginner",
    "tags": {
      "source": "curated",
      "addedBy": "fill_new_destinations",
      "validated": "true",
      "validation_source": "snorkeling-report.com"
    }
  },
  {
    "name": "Wreck Rock",
    "lat": 9.32,
    "lon": -82.22,
    "depth": 22,
    "site_type": "wreck",
    "entry_type": "boat",
    "difficulty": "Intermediate",
    "tags": {
      "source": "curated",
      "addedBy": "fill_new_destinations",
      "validated": "true",
      "validation_source": "dive operator guides"
    }
  },
  {
    "name": "Punta Juan",
    "lat": 9.29,
    "lon": -82.17,
    "depth": 16,
    "site_type": "reef",
    "entry_type": "boat",
    "difficulty": "Beginner",
    "tags": {
      "source": "curated",
      "addedBy": "fill_new_destinations",
      "validated": "true",
      "validation_source": "dive operator guides"
    }
  },
  {
    "name": "Zapatillas Reef",
    "lat": 9.26,
    "lon": -82.08,
    "depth": 14,
    "site_type": "reef",
    "entry_type": "boat",
    "difficulty": "Beginner",
    "tags": {
      "source": "curated",
      "addedBy": "fill_new_destinations",
      "validated": "true",
      "validation_source": "dive operator guides, snorkeling-report.com"
    }
  },
  {
    "name": "Dolphins Bay",
    "lat": 9.33,
    "lon": -82.23,
    "depth": 10,
    "site_type": "reef",
    "entry_type": "boat",
    "difficulty": "Beginner",
    "tags": {
      "source": "curated",
      "addedBy": "fill_new_destinations",
      "validated": "true",
      "validation_source": "tourismpanama.com, dive operator guides"
    }
  },
  {
    "name": "Long Cay Wall",
    "lat": 9.245,
    "lon": -82.12,
    "depth": 28,
    "site_type": "wall",
    "entry_type": "boat",
    "difficulty": "Advanced",
    "tags": {
      "source": "curated",
      "addedBy": "fill_new_destinations",
      "validated": "true",
      "validation_source": "dive operator guides"
    }
  },
  {
    "name": "Barco Hundido",
    "lat": 9.3308072,
    "lon": -82.2224984,
    "osm_id": 12639496075,
    "osm_type": "node",
    "depth": 17,
    "site_type": "wreck",
    "entry_type": "boat",
    "difficulty": "Intermediate",
    "tags": {
      "name": "Barco Hundido",
      "sport": "scuba_diving",
      "source": "osm_extended",
      "addedBy": "extended_overpass",
      "validated": "true",
      "validation_source": "dive operator guides, tribloo.com"
    }
  }
]
