[
  {
    "name": "Tiger Rock",
    "lat": 9.28,
    "lon": -82.18,
    "depth": 25,
    "site_type": "reef",
    "entry_type": "boat",
    "difficulty": "Intermediate",
    "tags": {
      "source": "curated",
      "addedBy": "fill_new_destinations"
    }
  },
  {
    "name": "Hospital Point",
    "lat": 9.34,
    "lon": -82.24,
    "depth": 15,
    "site_type": "reef",
    "entry_type": "boat",
    "difficulty": "Beginner",
    "tags": {
      "source": "curated",
      "addedBy": "fill_new_destinations"
    }
  },
  {
    "name": "The Playground",
    "lat": 9.31,
    "lon": -82.2,
    "depth": 18,
    "site_type": "reef",
    "entry_type": "boat",
    "difficulty": "Beginner",
    "tags": {
      "source": "curated",
      "addedBy": "fill_new_destinations"
    }
  },
  {
    "name": "Crawl Cay",
    "lat": 9.27,
    "lon": -82.15,
    "depth": 12,
    "site_type": "reef",
    "entry_type": "boat",
    "difficulty": "Beginner",
    "tags": {
      "source": "curated",
      "addedBy": "fill_new_destinations"
    }
  },
  {
    "name": "Polo Beach Wall",
    "lat": 9.35,
    "lon": -82.26,
    "depth": 30,
    "site_type": "wall",
    "entry_type": "boat",
    "difficulty": "Advanced",
    "tags": {
      "source": "curated",
      "addedBy": "fill_new_destinations"
    }
  },
  {
    "name": "Dark Wood Reef",
    "lat": 9.3,
    "lon": -82.19,
    "depth": 20,
    "site_type": "reef",
    "entry_type": "boat",
    "difficulty": "Intermediate",
    "tags": {
      "source": "curated",
      "addedBy": "fill_new_destinations"
    }
  },
  {
    "name": "Cayo Coral",
    "lat": 9.25,
    "lon": -82.13,
    "depth": 8,
    "site_type": "reef",
    "entry_type": "shore",
    "difficulty": "Beginner",
    "tags": {
      "source": "curated",
      "addedBy": "fill_new_destinations"
    }
  },
  {
    "name": "Wreck Rock",
    "lat": 9.32,
    "lon": -82.22,
    "depth": 22,
    "site_type": "wreck",
    "entry_type": "boat",
    "difficulty": "Intermediate",
    "tags": {
      "source": "curated",
      "addedBy": "fill_new_destinations"
    }
  },
  {
    "name": "Punta Juan",
    "lat": 9.29,
    "lon": -82.17,
    "depth": 16,
    "site_type": "reef",
    "entry_type": "boat",
    "difficulty": "Beginner",
    "tags": {
      "source": "curated",
      "addedBy": "fill_new_destinations"
    }
  },
  {
    "name": "Zapatillas Reef",
    "lat": 9.26,
    "lon": -82.08,
    "depth": 14,
    "site_type": "reef",
    "entry_type": "boat",
    "difficulty": "Beginner",
    "tags": {
      "source": "curated",
      "addedBy": "fill_new_destinations"
    }
  },
  {
    "name": "Dolphins Bay",
    "lat": 9.33,
    "lon": -82.23,
    "depth": 10,
    "site_type": "reef",
    "entry_type": "boat",
    "difficulty": "Beginner",
    "tags": {
      "source": "curated",
      "addedBy": "fill_new_destinations"
    }
  },
  {
    "name": "Long Cay Wall",
    "lat": 9.245,
    "lon": -82.12,
    "depth": 28,
    "site_type": "wall",
    "entry_type": "boat",
    "difficulty": "Advanced",
    "tags": {
      "source": "curated",
      "addedBy": "fill_new_destinations"
    }
  },
  {
    "name": "Bocas Diving Pirates",
    "lat": 9.3425207,
    "lon": -82.2411948,
    "osm_id": 3380292448,
    "osm_type": "node",
    "depth": null,
    "site_type": "reef",
    "entry_type": null,
    "difficulty": null,
    "tags": {
      "name": "Bocas Diving Pirates",
      "sport": "scuba_diving",
      "source": "osm_extended",
      "addedBy": "extended_overpass"
    }
  },
  {
    "name": "La Buga Dive & Surf",
    "lat": 9.3371182,
    "lon": -82.2405793,
    "osm_id": 3506370479,
    "osm_type": "node",
    "depth": null,
    "site_type": "reef",
    "entry_type": null,
    "difficulty": null,
    "tags": {
      "name": "La Buga Dive & Surf",
      "sport": "scuba_diving",
      "source": "osm_extended",
      "addedBy": "extended_overpass"
    }
  },
  {
    "name": "Scuba 6 Eco Diving",
    "lat": 9.3476977,
    "lon": -82.2115114,
    "osm_id": 6407783489,
    "osm_type": "node",
    "depth": null,
    "site_type": "reef",
    "entry_type": null,
    "difficulty": null,
    "tags": {
      "name": "Scuba 6 Eco Diving",
      "sport": "scuba_diving",
      "source": "osm_extended",
      "addedBy": "extended_overpass"
    }
  },
  {
    "name": "Casa Verde",
    "lat": 9.3219472,
    "lon": -82.2195889,
    "osm_id": 12601627187,
    "osm_type": "node",
    "depth": null,
    "site_type": "reef",
    "entry_type": null,
    "difficulty": null,
    "tags": {
      "name": "Casa Verde",
      "sport": "scuba_diving",
      "source": "osm_extended",
      "addedBy": "extended_overpass"
    }
  },
  {
    "name": "Barco Hundido",
    "lat": 9.3308072,
    "lon": -82.2224984,
    "osm_id": 12639496075,
    "osm_type": "node",
    "depth": null,
    "site_type": "reef",
    "entry_type": null,
    "difficulty": null,
    "tags": {
      "name": "Barco Hundido",
      "sport": "scuba_diving",
      "source": "osm_extended",
      "addedBy": "extended_overpass"
    }
  }
]
