[
  {
    "name": "Tiger Rock",
    "lat": 9.2167,
    "lon": -81.9333,
    "depth": 42,
    "site_type": "pinnacle",
    "entry_type": "boat",
    "difficulty": "Advanced",
    "tags": {
      "source": "curated",
      "addedBy": "fill_new_destinations",
      "validated": "true",
      "validation_source": "therealdealtours.com, tribloo.com, solbungalowsbocas.com",
      "last_qa_date": "2026-05-19"
    }
  },
  {
    "name": "Hospital Point",
    "lat": 9.3348,
    "lon": -82.2198,
    "depth": 16,
    "site_type": "wall",
    "entry_type": "boat",
    "difficulty": "Beginner",
    "tags": {
      "source": "curated",
      "addedBy": "fill_new_destinations",
      "validated": "true",
      "validation_source": "therealdealtours.com, padi.com, solbungalowsbocas.com",
      "last_qa_date": "2026-05-19"
    }
  },
  {
    "name": "The Playground",
    "lat": 9.3420,
    "lon": -82.2300,
    "depth": 18,
    "site_type": "reef",
    "entry_type": "boat",
    "difficulty": "Beginner",
    "tags": {
      "source": "curated",
      "addedBy": "fill_new_destinations",
      "validated": "true",
      "validation_source": "therealdealtours.com, tourismpanama.com, solbungalowsbocas.com",
      "last_qa_date": "2026-05-19"
    }
  },
  {
    "name": "Crawl Cay",
    "lat": 9.2440,
    "lon": -82.1440,
    "depth": 18,
    "site_type": "reef",
    "entry_type": "boat",
    "difficulty": "Intermediate",
    "tags": {
      "source": "curated",
      "addedBy": "fill_new_destinations",
      "validated": "true",
      "validation_source": "therealdealtours.com, arrivalguides.com, snorkeling-report.com",
      "last_qa_date": "2026-05-19"
    }
  },
  {
    "name": "Polo Beach Wall",
    "lat": 9.2920,
    "lon": -82.1580,
    "depth": 20,
    "site_type": "cavern",
    "entry_type": "boat",
    "difficulty": "Intermediate",
    "tags": {
      "source": "curated",
      "addedBy": "fill_new_destinations",
      "validated": "true",
      "validation_source": "therealdealtours.com, tribloo.com, solbungalowsbocas.com",
      "last_qa_date": "2026-05-19"
    }
  },
  {
    "name": "Dark Wood Reef",
    "lat": 9.3150,
    "lon": -82.2000,
    "depth": 20,
    "site_type": "reef",
    "entry_type": "boat",
    "difficulty": "Intermediate",
    "tags": {
      "source": "curated",
      "addedBy": "fill_new_destinations",
      "validated": "false",
      "validation_source": "no site-specific sources found across therealdealtours.com, labugapanama.com, solbungalowsbocas.com, tribloo.com, padi.com",
      "last_qa_date": "2026-05-19"
    }
  },
  {
    "name": "Cayo Coral",
    "lat": 9.2444,
    "lon": -82.1439,
    "depth": 8,
    "site_type": "reef",
    "entry_type": "shore",
    "difficulty": "Beginner",
    "tags": {
      "source": "curated",
      "addedBy": "fill_new_destinations",
      "validated": "true",
      "validation_source": "snorkeling-report.com, therealdealtours.com, tourismpanama.com",
      "last_qa_date": "2026-05-19"
    }
  },
  {
    "name": "Wreck Rock",
    "lat": 9.3220,
    "lon": -82.2500,
    "depth": 12,
    "site_type": "wreck",
    "entry_type": "boat",
    "difficulty": "Intermediate",
    "tags": {
      "source": "curated",
      "addedBy": "fill_new_destinations",
      "validated": "false",
      "validation_source": "no site-specific sources found confirming 'Wreck Rock' as a named site distinct from Barco Hundido; divescover.com, therealdealtours.com, labugapanama.com list the SW Isla Colon wreck as a single site",
      "last_qa_date": "2026-05-19"
    }
  },
  {
    "name": "Punta Juan",
    "lat": 9.3333,
    "lon": -82.2000,
    "depth": 16,
    "site_type": "reef",
    "entry_type": "boat",
    "difficulty": "Beginner",
    "tags": {
      "source": "curated",
      "addedBy": "fill_new_destinations",
      "validated": "false",
      "validation_source": "no site-specific sources found across therealdealtours.com, labugapanama.com, solbungalowsbocas.com, padi.com",
      "last_qa_date": "2026-05-19"
    }
  },
  {
    "name": "Zapatillas Reef",
    "lat": 9.2650,
    "lon": -82.0550,
    "depth": 14,
    "site_type": "reef",
    "entry_type": "boat",
    "difficulty": "Beginner",
    "tags": {
      "source": "curated",
      "addedBy": "fill_new_destinations",
      "validated": "true",
      "validation_source": "snorkeling-report.com, therealdealtours.com, go.bocasdeltoro.travel",
      "last_qa_date": "2026-05-19"
    }
  },
  {
    "name": "Dolphins Bay",
    "lat": 9.2400,
    "lon": -82.2550,
    "depth": 10,
    "site_type": "reef",
    "entry_type": "boat",
    "difficulty": "Beginner",
    "tags": {
      "source": "curated",
      "addedBy": "fill_new_destinations",
      "validated": "true",
      "validation_source": "bocastours.com, therealdealtours.com, tourismpanama.com",
      "last_qa_date": "2026-05-19"
    }
  },
  {
    "name": "Long Cay Wall",
    "lat": 9.2680,
    "lon": -82.1650,
    "depth": 28,
    "site_type": "wall",
    "entry_type": "boat",
    "difficulty": "Advanced",
    "tags": {
      "source": "curated",
      "addedBy": "fill_new_destinations",
      "validated": "false",
      "validation_source": "no site-specific sources found under this name; wall dives in Bocas confirmed at Manuel's Wall (Isla Solarte) but Long Cay Wall not named in therealdealtours.com, labugapanama.com, solbungalowsbocas.com, padi.com",
      "last_qa_date": "2026-05-19"
    }
  },
  {
    "name": "Barco Hundido",
    "lat": 9.3308072,
    "lon": -82.2224984,
    "osm_id": 12639496075,
    "osm_type": "node",
    "depth": 11,
    "site_type": "wreck",
    "entry_type": "boat",
    "difficulty": "Beginner",
    "tags": {
      "name": "Barco Hundido",
      "sport": "scuba_diving",
      "source": "osm_extended",
      "addedBy": "extended_overpass",
      "validated": "true",
      "validation_source": "divescover.com, thevisitorpanama.info, solbungalowsbocas.com",
      "last_qa_date": "2026-05-19"
    }
  }
]
