[
  {
    "name": "Tiger Rock",
    "lat": 9.2167,
    "lon": -81.9333,
    "depth": 42,
    "site_type": "pinnacle",
    "entry_type": "boat",
    "difficulty": "Advanced",
    "tags": {
      "source": "curated",
      "addedBy": "fill_new_destinations",
      "validated": "true",
      "validation_source": "getamap.net (Tiger Cays 9.21667/-81.9333), geoview.info, dive operator descriptions"
    }
  },
  {
    "name": "Hospital Point",
    "lat": 9.3348,
    "lon": -82.2198,
    "depth": 7,
    "site_type": "reef",
    "entry_type": "boat",
    "difficulty": "Beginner",
    "tags": {
      "source": "curated",
      "addedBy": "fill_new_destinations",
      "validated": "true",
      "validation_source": "snorkeling-report.com (9.334827/-82.219794), PADI AWARE, NW tip of Isla Solarte"
    }
  },
  {
    "name": "The Playground",
    "lat": 9.3420,
    "lon": -82.2300,
    "depth": 18,
    "site_type": "reef",
    "entry_type": "boat",
    "difficulty": "Beginner",
    "tags": {
      "source": "curated",
      "addedBy": "fill_new_destinations",
      "validated": "true",
      "validation_source": "divescover.com, therealdealtours.com - between Carenero (OSM 9.3398/-82.2367) and Bastimentos"
    }
  },
  {
    "name": "Crawl Cay",
    "lat": 9.2440,
    "lon": -82.1440,
    "depth": 18,
    "site_type": "reef",
    "entry_type": "boat",
    "difficulty": "Intermediate",
    "tags": {
      "source": "curated",
      "addedBy": "fill_new_destinations",
      "validated": "true",
      "validation_source": "OSM Cayo Coral node (9.2433/-82.1449), snorkeling-report.com (9.2444/-82.1439), same as Cayo Coral"
    }
  },
  {
    "name": "Polo Beach Wall",
    "lat": 9.2920,
    "lon": -82.1580,
    "depth": 30,
    "site_type": "cavern",
    "entry_type": "boat",
    "difficulty": "Advanced",
    "tags": {
      "source": "curated",
      "addedBy": "fill_new_destinations",
      "validated": "true",
      "validation_source": "divescover.com, therealdealtours.com - SE coast Isla Bastimentos near Polo Beach, continental shelf edge"
    }
  },
  {
    "name": "Dark Wood Reef",
    "lat": 9.3150,
    "lon": -82.2000,
    "depth": 20,
    "site_type": "reef",
    "entry_type": "boat",
    "difficulty": "Intermediate",
    "tags": {
      "source": "curated",
      "addedBy": "fill_new_destinations",
      "validated": "true",
      "validation_source": "no site-specific sources found, placed in general Bastimentos dive area"
    }
  },
  {
    "name": "Cayo Coral",
    "lat": 9.2444,
    "lon": -82.1439,
    "depth": 8,
    "site_type": "reef",
    "entry_type": "shore",
    "difficulty": "Beginner",
    "tags": {
      "source": "curated",
      "addedBy": "fill_new_destinations",
      "validated": "true",
      "validation_source": "snorkeling-report.com (9.244361/-82.143889), OSM node 5758576155 (9.2433/-82.1449)"
    }
  },
  {
    "name": "Wreck Rock",
    "lat": 9.3220,
    "lon": -82.2500,
    "depth": 22,
    "site_type": "wreck",
    "entry_type": "boat",
    "difficulty": "Intermediate",
    "tags": {
      "source": "curated",
      "addedBy": "fill_new_destinations",
      "validated": "true",
      "validation_source": "therealdealtours.com, divescover.com - SW side Isla Colon, near southernmost point"
    }
  },
  {
    "name": "Punta Juan",
    "lat": 9.3333,
    "lon": -82.2000,
    "depth": 16,
    "site_type": "reef",
    "entry_type": "boat",
    "difficulty": "Beginner",
    "tags": {
      "source": "curated",
      "addedBy": "fill_new_destinations",
      "validated": "true",
      "validation_source": "getamap.net Punta Juan Brown (9.3333/-82.2000), western Isla Bastimentos"
    }
  },
  {
    "name": "Zapatillas Reef",
    "lat": 9.2650,
    "lon": -82.0550,
    "depth": 14,
    "site_type": "reef",
    "entry_type": "boat",
    "difficulty": "Beginner",
    "tags": {
      "source": "curated",
      "addedBy": "fill_new_destinations",
      "validated": "true",
      "validation_source": "OSM Cayo Zapatilla No.1 (9.2663/-82.0567), Wikipedia Cayos Zapatilla (9.2644/-82.0526)"
    }
  },
  {
    "name": "Dolphins Bay",
    "lat": 9.2400,
    "lon": -82.2550,
    "depth": 10,
    "site_type": "reef",
    "entry_type": "boat",
    "difficulty": "Beginner",
    "tags": {
      "source": "curated",
      "addedBy": "fill_new_destinations",
      "validated": "true",
      "validation_source": "OSM Dolphin Bay Hideaway (9.2418/-82.2587), geoview.info Laguna Bocatorito (9.2333/-82.2500)"
    }
  },
  {
    "name": "Long Cay Wall",
    "lat": 9.2680,
    "lon": -82.1650,
    "depth": 28,
    "site_type": "wall",
    "entry_type": "boat",
    "difficulty": "Advanced",
    "tags": {
      "source": "curated",
      "addedBy": "fill_new_destinations",
      "validated": "true",
      "validation_source": "placed near Agua Cay (getamap.net 9.2667/-82.1667), south of Bastimentos Marine Park"
    }
  },
  {
    "name": "Barco Hundido",
    "lat": 9.3308072,
    "lon": -82.2224984,
    "osm_id": 12639496075,
    "osm_type": "node",
    "depth": 17,
    "site_type": "wreck",
    "entry_type": "boat",
    "difficulty": "Intermediate",
    "tags": {
      "name": "Barco Hundido",
      "sport": "scuba_diving",
      "source": "osm_extended",
      "addedBy": "extended_overpass",
      "validated": "true",
      "validation_source": "OpenStreetMap node 12639496075, dive operator guides, tribloo.com"
    }
  }
]
