[
  {
    "name": "Bari Reef",
    "lat": 12.1674719,
    "lon": -68.2872007,
    "osm_id": 313862678,
    "osm_type": "node",
    "depth": null,
    "site_type": "reef",
    "entry_type": null,
    "difficulty": null,
    "tags": {
      "name": "Bari Reef",
      "ref": "30",
      "sport": "scuba_diving",
      "source": "osm_extended",
      "addedBy": "extended_overpass"
    }
  },
  {
    "name": "1000 Steps",
    "lat": 12.2106695,
    "lon": -68.3217112,
    "osm_id": 313863131,
    "osm_type": "node",
    "depth": null,
    "site_type": "reef",
    "entry_type": null,
    "difficulty": null,
    "tags": {
      "name": "1000 Steps",
      "natural": "beach",
      "ref": "16",
      "sport": "scuba_diving",
      "source": "osm_extended",
      "addedBy": "extended_overpass"
    }
  },
  {
    "name": "Boy Scout",
    "lat": 12.1589381,
    "lon": -68.2810107,
    "osm_id": 635094192,
    "osm_type": "node",
    "depth": null,
    "site_type": "reef",
    "entry_type": null,
    "difficulty": null,
    "tags": {
      "name": "Boy Scout",
      "sport": "scuba_diving",
      "source": "osm_extended",
      "addedBy": "extended_overpass"
    }
  },
  {
    "name": "Buddy's Reef",
    "lat": 12.1710254,
    "lon": -68.288822,
    "osm_id": 635094204,
    "osm_type": "node",
    "depth": null,
    "site_type": "reef",
    "entry_type": null,
    "difficulty": null,
    "tags": {
      "name": "Buddy's Reef",
      "sport": "scuba_diving",
      "source": "osm_extended",
      "addedBy": "extended_overpass"
    }
  },
  {
    "name": "La Machaca",
    "lat": 12.171676,
    "lon": -68.2893863,
    "osm_id": 635094207,
    "osm_type": "node",
    "depth": 10,
    "site_type": "wreck",
    "entry_type": null,
    "difficulty": "Beginner",
    "tags": {
      "historic": "wreck",
      "name": "La Machaca",
      "seamark:type": "wreck",
      "sport": "scuba_diving",
      "wreck:depth": "10m",
      "source": "osm_extended",
      "addedBy": "extended_overpass"
    }
  },
  {
    "name": "English Garden",
    "lat": 12.0597582,
    "lon": -68.2822176,
    "osm_id": 635881767,
    "osm_type": "node",
    "depth": null,
    "site_type": "reef",
    "entry_type": null,
    "difficulty": null,
    "tags": {
      "name": "English Garden",
      "sport": "scuba_diving",
      "source": "osm_extended",
      "addedBy": "extended_overpass"
    }
  },
  {
    "name": "Alice in Wonderland",
    "lat": 12.0998035,
    "lon": -68.2852927,
    "osm_id": 635881804,
    "osm_type": "node",
    "depth": null,
    "site_type": "reef",
    "entry_type": null,
    "difficulty": null,
    "tags": {
      "name": "Alice in Wonderland",
      "sport": "scuba_diving",
      "source": "osm_extended",
      "addedBy": "extended_overpass"
    }
  },
  {
    "name": "Hilma Hooker",
    "lat": 12.1037524,
    "lon": -68.2901176,
    "osm_id": 635881808,
    "osm_type": "node",
    "depth": 30,
    "site_type": "wreck",
    "entry_type": null,
    "difficulty": "Intermediate",
    "tags": {
      "historic": "wreck",
      "name": "Hilma Hooker",
      "seamark:type": "wreck",
      "sport": "scuba_diving",
      "wikidata": "Q1618842",
      "wreck:date_commissioned": "1951",
      "wreck:date_sunk": "1984-09-12",
      "wreck:depth": "30m",
      "wreck:gross_tonnage": "1027",
      "wreck:length": "236",
      "source": "osm_extended",
      "addedBy": "extended_overpass"
    }
  },
  {
    "name": "Corporal Meiss",
    "lat": 12.1308642,
    "lon": -68.2846951,
    "osm_id": 635881836,
    "osm_type": "node",
    "depth": null,
    "site_type": "reef",
    "entry_type": "shore",
    "difficulty": null,
    "tags": {
      "alt_name": "North Belnem",
      "name": "Corporal Meiss",
      "scuba_diving:divespot": "yes",
      "scuba_diving:entry": "shore",
      "sport": "scuba_diving",
      "source": "osm_extended",
      "addedBy": "extended_overpass"
    }
  },
  {
    "name": "Something Special",
    "lat": 12.1613822,
    "lon": -68.2838525,
    "osm_id": 635942336,
    "osm_type": "node",
    "depth": null,
    "site_type": "reef",
    "entry_type": null,
    "difficulty": null,
    "tags": {
      "name": "Something Special",
      "sport": "scuba_diving",
      "source": "osm_extended",
      "addedBy": "extended_overpass"
    }
  },
  {
    "name": "Andrea II",
    "lat": 12.1913607,
    "lon": -68.2978203,
    "osm_id": 636400643,
    "osm_type": "node",
    "depth": null,
    "site_type": "reef",
    "entry_type": null,
    "difficulty": null,
    "tags": {
      "name": "Andrea II",
      "sport": "scuba_diving",
      "source": "osm_extended",
      "addedBy": "extended_overpass"
    }
  },
  {
    "name": "Jeff Davis Memorial",
    "lat": 12.2049583,
    "lon": -68.3140546,
    "osm_id": 636400684,
    "osm_type": "node",
    "depth": null,
    "site_type": "reef",
    "entry_type": null,
    "difficulty": null,
    "tags": {
      "name": "Jeff Davis Memorial",
      "sport": "scuba_diving",
      "source": "osm_extended",
      "addedBy": "extended_overpass"
    }
  },
  {
    "name": "Weber's Joy",
    "lat": 12.2065395,
    "lon": -68.3165738,
    "osm_id": 636400689,
    "osm_type": "node",
    "depth": null,
    "site_type": "reef",
    "entry_type": null,
    "difficulty": null,
    "tags": {
      "alt_name": "Witches Hut",
      "name": "Weber's Joy",
      "sport": "scuba_diving",
      "source": "osm_extended",
      "addedBy": "extended_overpass"
    }
  },
  {
    "name": "Willemstoren Lighthouse",
    "lat": 12.0276628,
    "lon": -68.2367651,
    "osm_id": 663869394,
    "osm_type": "node",
    "depth": null,
    "site_type": "reef",
    "entry_type": null,
    "difficulty": null,
    "tags": {
      "name": "Willemstoren Lighthouse",
      "source": "osm_extended",
      "sport": "scuba_diving",
      "addedBy": "extended_overpass"
    }
  },
  {
    "name": "Sweet Dreams",
    "lat": 12.0349171,
    "lon": -68.2627409,
    "osm_id": 663869395,
    "osm_type": "node",
    "depth": null,
    "site_type": "reef",
    "entry_type": null,
    "difficulty": null,
    "tags": {
      "name": "Sweet Dreams",
      "source": "osm_extended",
      "sport": "scuba_diving",
      "addedBy": "extended_overpass"
    }
  },
  {
    "name": "Vista Blue",
    "lat": 12.0386524,
    "lon": -68.2648116,
    "osm_id": 663869396,
    "osm_type": "node",
    "depth": null,
    "site_type": "reef",
    "entry_type": null,
    "difficulty": null,
    "tags": {
      "name": "Vista Blue",
      "source": "osm_extended",
      "sport": "scuba_diving",
      "addedBy": "extended_overpass"
    }
  },
  {
    "name": "Red Slave",
    "lat": 12.0260699,
    "lon": -68.2515176,
    "osm_id": 663869397,
    "osm_type": "node",
    "depth": null,
    "site_type": "wreck",
    "entry_type": null,
    "difficulty": null,
    "tags": {
      "historic": "wreck",
      "name": "Red Slave",
      "seamark:type": "wreck",
      "source": "osm_extended",
      "sport": "scuba_diving",
      "addedBy": "extended_overpass"
    }
  },
  {
    "name": "Lighthouse Point",
    "lat": 12.1139501,
    "lon": -68.2952067,
    "osm_id": 663869398,
    "osm_type": "node",
    "depth": null,
    "site_type": "reef",
    "entry_type": "shore",
    "difficulty": null,
    "tags": {
      "name": "Lighthouse Point",
      "scuba_diving:divespot": "yes",
      "scuba_diving:entry": "shore",
      "sport": "scuba_diving",
      "source": "osm_extended",
      "addedBy": "extended_overpass"
    }
  },
  {
    "name": "Punt Vierkant",
    "lat": 12.108785,
    "lon": -68.291505,
    "osm_id": 663869399,
    "osm_type": "node",
    "depth": null,
    "site_type": "reef",
    "entry_type": "shore",
    "difficulty": null,
    "tags": {
      "name": "Punt Vierkant",
      "scuba_diving:divespot": "yes",
      "scuba_diving:entry": "shore",
      "sport": "scuba_diving",
      "source": "osm_extended",
      "addedBy": "extended_overpass"
    }
  },
  {
    "name": "Margate Bay",
    "lat": 12.0513405,
    "lon": -68.2722056,
    "osm_id": 663869400,
    "osm_type": "node",
    "depth": null,
    "site_type": "reef",
    "entry_type": null,
    "difficulty": null,
    "tags": {
      "name": "Margate Bay",
      "source": "osm_extended",
      "sport": "scuba_diving",
      "addedBy": "extended_overpass"
    }
  },
  {
    "name": "Salt Pier",
    "lat": 12.0835942,
    "lon": -68.2819519,
    "osm_id": 663869401,
    "osm_type": "node",
    "depth": null,
    "site_type": "reef",
    "entry_type": null,
    "difficulty": null,
    "tags": {
      "name": "Salt Pier",
      "note": "Not allowed to access when there's a ship at the pier",
      "sport": "scuba_diving",
      "source": "osm_extended",
      "addedBy": "extended_overpass"
    }
  },
  {
    "name": "Invisibles",
    "lat": 12.077631,
    "lon": -68.2801815,
    "osm_id": 663869402,
    "osm_type": "node",
    "depth": null,
    "site_type": "reef",
    "entry_type": null,
    "difficulty": null,
    "tags": {
      "name": "Invisibles",
      "sport": "scuba_diving",
      "source": "osm_extended",
      "addedBy": "extended_overpass"
    }
  },
  {
    "name": "Salt City",
    "lat": 12.079695,
    "lon": -68.2806859,
    "osm_id": 663869403,
    "osm_type": "node",
    "depth": null,
    "site_type": "reef",
    "entry_type": null,
    "difficulty": null,
    "tags": {
      "name": "Salt City",
      "sport": "scuba_diving",
      "source": "osm_extended",
      "addedBy": "extended_overpass"
    }
  },
  {
    "name": "Pink Beach",
    "lat": 12.0628465,
    "lon": -68.2822351,
    "osm_id": 663869404,
    "osm_type": "node",
    "depth": null,
    "site_type": "reef",
    "entry_type": null,
    "difficulty": null,
    "tags": {
      "name": "Pink Beach",
      "source": "osm_extended",
      "sport": "scuba_diving",
      "addedBy": "extended_overpass"
    }
  },
  {
    "name": "Tori's Reef",
    "lat": 12.0701968,
    "lon": -68.2805412,
    "osm_id": 663869405,
    "osm_type": "node",
    "depth": null,
    "site_type": "reef",
    "entry_type": null,
    "difficulty": null,
    "tags": {
      "name": "Tori's Reef",
      "sport": "scuba_diving",
      "source": "osm_extended",
      "addedBy": "extended_overpass"
    }
  },
  {
    "name": "Atlantis",
    "lat": 12.0448994,
    "lon": -68.267482,
    "osm_id": 663869406,
    "osm_type": "node",
    "depth": null,
    "site_type": "reef",
    "entry_type": null,
    "difficulty": null,
    "tags": {
      "name": "Atlantis",
      "source": "osm_extended",
      "sport": "scuba_diving",
      "addedBy": "extended_overpass"
    }
  },
  {
    "name": "Red Beryl",
    "lat": 12.0466404,
    "lon": -68.2685291,
    "osm_id": 663869407,
    "osm_type": "node",
    "depth": null,
    "site_type": "reef",
    "entry_type": null,
    "difficulty": null,
    "tags": {
      "name": "Red Beryl",
      "source": "osm_extended",
      "sport": "scuba_diving",
      "addedBy": "extended_overpass"
    }
  },
  {
    "name": "White Slave",
    "lat": 12.0575572,
    "lon": -68.2812043,
    "osm_id": 663869408,
    "osm_type": "node",
    "depth": null,
    "site_type": "reef",
    "entry_type": "shore",
    "difficulty": null,
    "tags": {
      "name": "White Slave",
      "scuba_diving:divespot": "yes",
      "scuba_diving:entry": "shore",
      "sport": "scuba_diving",
      "source": "osm_extended",
      "addedBy": "extended_overpass"
    }
  },
  {
    "name": "Aquarius",
    "lat": 12.0983883,
    "lon": -68.284795,
    "osm_id": 663869409,
    "osm_type": "node",
    "depth": null,
    "site_type": "reef",
    "entry_type": null,
    "difficulty": null,
    "tags": {
      "name": "Aquarius",
      "sport": "scuba_diving",
      "source": "osm_extended",
      "addedBy": "extended_overpass"
    }
  },
  {
    "name": "Larry's Lair",
    "lat": 12.0952821,
    "lon": -68.2840519,
    "osm_id": 663869410,
    "osm_type": "node",
    "depth": null,
    "site_type": "reef",
    "entry_type": null,
    "difficulty": null,
    "tags": {
      "name": "Larry's Lair",
      "sport": "scuba_diving",
      "source": "osm_extended",
      "addedBy": "extended_overpass"
    }
  },
  {
    "name": "White Hole",
    "lat": 12.0940583,
    "lon": -68.2280778,
    "osm_id": 663869411,
    "osm_type": "node",
    "depth": null,
    "site_type": "reef",
    "entry_type": null,
    "difficulty": null,
    "tags": {
      "name": "White Hole",
      "scuba_diving:divespot": "yes",
      "sport": "scuba_diving",
      "source": "osm_extended",
      "addedBy": "extended_overpass"
    }
  },
  {
    "name": "Jeannie's Glory",
    "lat": 12.0867114,
    "lon": -68.282629,
    "osm_id": 663869412,
    "osm_type": "node",
    "depth": null,
    "site_type": "reef",
    "entry_type": null,
    "difficulty": null,
    "tags": {
      "name": "Jeannie's Glory",
      "sport": "scuba_diving",
      "source": "osm_extended",
      "addedBy": "extended_overpass"
    }
  },
  {
    "name": "Bachelor's Beach",
    "lat": 12.1255594,
    "lon": -68.2873207,
    "osm_id": 663869413,
    "osm_type": "node",
    "depth": null,
    "site_type": "reef",
    "entry_type": null,
    "difficulty": null,
    "tags": {
      "name": "Bachelor's Beach",
      "scuba_diving:divespot": "yes",
      "sport": "scuba_diving",
      "source": "osm_extended",
      "addedBy": "extended_overpass"
    }
  },
  {
    "name": "Angel City",
    "lat": 12.1033916,
    "lon": -68.2872133,
    "osm_id": 663869415,
    "osm_type": "node",
    "depth": null,
    "site_type": "reef",
    "entry_type": null,
    "difficulty": null,
    "tags": {
      "name": "Angel City",
      "sport": "scuba_diving",
      "source": "osm_extended",
      "addedBy": "extended_overpass"
    }
  },
  {
    "name": "Cai",
    "lat": 12.1032167,
    "lon": -68.2224528,
    "osm_id": 663869416,
    "osm_type": "node",
    "depth": null,
    "site_type": "reef",
    "entry_type": null,
    "difficulty": null,
    "tags": {
      "name": "Cai",
      "scuba_diving:divespot": "yes",
      "sport": "scuba_diving",
      "source": "osm_extended",
      "addedBy": "extended_overpass"
    }
  },
  {
    "name": "The Lake",
    "lat": 12.1071283,
    "lon": -68.29,
    "osm_id": 663869417,
    "osm_type": "node",
    "depth": null,
    "site_type": "reef",
    "entry_type": null,
    "difficulty": null,
    "tags": {
      "name": "The Lake",
      "sport": "scuba_diving",
      "source": "osm_extended",
      "addedBy": "extended_overpass"
    }
  },
  {
    "name": "Boka Slagbaai",
    "lat": 12.2646664,
    "lon": -68.4135635,
    "osm_id": 663869419,
    "osm_type": "node",
    "depth": null,
    "site_type": "reef",
    "entry_type": null,
    "difficulty": null,
    "tags": {
      "name": "Boka Slagbaai",
      "sport": "scuba_diving",
      "source": "osm_extended",
      "addedBy": "extended_overpass"
    }
  },
  {
    "name": "Playa Benge",
    "lat": 12.2902417,
    "lon": -68.4119809,
    "osm_id": 663869420,
    "osm_type": "node",
    "depth": null,
    "site_type": "reef",
    "entry_type": null,
    "difficulty": null,
    "tags": {
      "name": "Playa Benge",
      "scuba_diving:divespot": "yes",
      "sport": "scuba_diving",
      "source": "osm_extended",
      "addedBy": "extended_overpass"
    }
  },
  {
    "name": "Playa Funchi",
    "lat": 12.28223,
    "lon": -68.4140883,
    "osm_id": 663869421,
    "osm_type": "node",
    "depth": null,
    "site_type": "reef",
    "entry_type": null,
    "difficulty": null,
    "tags": {
      "name": "Playa Funchi",
      "sport": "scuba_diving",
      "source": "osm_extended",
      "addedBy": "extended_overpass"
    }
  },
  {
    "name": "Nukove",
    "lat": 12.2407008,
    "lon": -68.4128282,
    "osm_id": 663869422,
    "osm_type": "node",
    "depth": null,
    "site_type": "reef",
    "entry_type": "shore",
    "difficulty": null,
    "tags": {
      "alt_name": "Doblet",
      "name": "Nukove",
      "scuba_diving:divespot": "yes",
      "scuba_diving:entry": "shore",
      "sport": "scuba_diving",
      "source": "osm_extended",
      "addedBy": "extended_overpass"
    }
  },
  {
    "name": "Calabas Reef",
    "lat": 12.1444535,
    "lon": -68.276667,
    "osm_id": 663869423,
    "osm_type": "node",
    "depth": null,
    "site_type": "reef",
    "entry_type": "shore",
    "difficulty": null,
    "tags": {
      "name": "Calabas Reef",
      "natural": "reef",
      "scuba_diving:divespot": "yes",
      "scuba_diving:entry": "shore",
      "sport": "scuba_diving",
      "source": "osm_extended",
      "addedBy": "extended_overpass"
    }
  },
  {
    "name": "Oil Slick Leap",
    "lat": 12.2001711,
    "lon": -68.308717,
    "osm_id": 663869425,
    "osm_type": "node",
    "depth": null,
    "site_type": "reef",
    "entry_type": null,
    "difficulty": null,
    "tags": {
      "name": "Oil Slick Leap",
      "scuba_diving:divespot": "yes",
      "scuba_diving:entry": "ladder",
      "source": "osm_extended",
      "sport": "scuba_diving",
      "addedBy": "extended_overpass"
    }
  },
  {
    "name": "Boka di Tolo",
    "lat": 12.2152361,
    "lon": -68.3374389,
    "osm_id": 663869427,
    "osm_type": "node",
    "depth": null,
    "site_type": "reef",
    "entry_type": null,
    "difficulty": null,
    "tags": {
      "alt_name": "Ol' Blue",
      "name": "Boka di Tolo",
      "short_name": "Tolo",
      "sport": "scuba_diving",
      "source": "osm_extended",
      "addedBy": "extended_overpass"
    }
  },
  {
    "name": "Windsock",
    "lat": 12.1333083,
    "lon": -68.2816616,
    "osm_id": 663869430,
    "osm_type": "node",
    "depth": null,
    "site_type": "reef",
    "entry_type": null,
    "difficulty": null,
    "tags": {
      "name": "Windsock",
      "sport": "scuba_diving",
      "source": "osm_extended",
      "addedBy": "extended_overpass"
    }
  },
  {
    "name": "Cliff",
    "lat": 12.1743645,
    "lon": -68.2901782,
    "osm_id": 663869433,
    "osm_type": "node",
    "depth": null,
    "site_type": "reef",
    "entry_type": null,
    "difficulty": null,
    "tags": {
      "name": "Cliff",
      "sport": "scuba_diving",
      "source": "osm_extended",
      "addedBy": "extended_overpass"
    }
  },
  {
    "name": "Karpata",
    "lat": 12.2192934,
    "lon": -68.3521324,
    "osm_id": 663869440,
    "osm_type": "node",
    "depth": null,
    "site_type": "reef",
    "entry_type": null,
    "difficulty": null,
    "tags": {
      "name": "Karpata",
      "sport": "scuba_diving",
      "source": "osm_extended",
      "addedBy": "extended_overpass"
    }
  },
  {
    "name": "La Denia's Leap",
    "lat": 12.2181417,
    "lon": -68.3481483,
    "osm_id": 663869441,
    "osm_type": "node",
    "depth": null,
    "site_type": "reef",
    "entry_type": null,
    "difficulty": null,
    "tags": {
      "name": "La Denia's Leap",
      "scuba_diving:divespot": "yes",
      "sport": "scuba_diving",
      "source": "osm_extended",
      "addedBy": "extended_overpass"
    }
  },
  {
    "name": "Boka Bartol",
    "lat": 12.3048091,
    "lon": -68.3975477,
    "osm_id": 663869442,
    "osm_type": "node",
    "depth": null,
    "site_type": "reef",
    "entry_type": null,
    "difficulty": null,
    "tags": {
      "name": "Boka Bartol",
      "sport": "scuba_diving",
      "source": "osm_extended",
      "addedBy": "extended_overpass"
    }
  },
  {
    "name": "18th Palm",
    "lat": 12.138643,
    "lon": -68.2765096,
    "osm_id": 854130076,
    "osm_type": "node",
    "depth": null,
    "site_type": "reef",
    "entry_type": null,
    "difficulty": null,
    "tags": {
      "name": "18th Palm",
      "sport": "scuba_diving",
      "source": "osm_extended",
      "addedBy": "extended_overpass"
    }
  },
  {
    "name": "Carel's Vision",
    "lat": 12.230709,
    "lon": -68.4127451,
    "osm_id": 854130125,
    "osm_type": "node",
    "depth": null,
    "site_type": "reef",
    "entry_type": null,
    "difficulty": null,
    "tags": {
      "name": "Carel's Vision",
      "sport": "scuba_diving",
      "source": "osm_extended",
      "addedBy": "extended_overpass"
    }
  },
  {
    "name": "Taylor Made",
    "lat": 12.2230317,
    "lon": -68.4036763,
    "osm_id": 854130146,
    "osm_type": "node",
    "depth": null,
    "site_type": "reef",
    "entry_type": null,
    "difficulty": null,
    "tags": {
      "name": "Taylor Made",
      "sport": "scuba_diving",
      "source": "osm_extended",
      "addedBy": "extended_overpass"
    }
  },
  {
    "name": "Playa Frans",
    "lat": 12.245742,
    "lon": -68.4141402,
    "osm_id": 1420984806,
    "osm_type": "node",
    "depth": null,
    "site_type": "reef",
    "entry_type": null,
    "difficulty": null,
    "tags": {
      "name": "Playa Frans",
      "sport": "scuba_diving",
      "source": "osm_extended",
      "addedBy": "extended_overpass"
    }
  },
  {
    "name": "The Rock",
    "lat": 12.0760025,
    "lon": -68.2799587,
    "osm_id": 1420984809,
    "osm_type": "node",
    "depth": null,
    "site_type": "reef",
    "entry_type": null,
    "difficulty": null,
    "tags": {
      "name": "The Rock",
      "sport": "scuba_diving",
      "source": "osm_extended",
      "addedBy": "extended_overpass"
    }
  },
  {
    "name": "Windjammer",
    "lat": 12.2202758,
    "lon": -68.3753404,
    "osm_id": 2625769975,
    "osm_type": "node",
    "depth": null,
    "site_type": "reef",
    "entry_type": null,
    "difficulty": null,
    "tags": {
      "name": "Windjammer",
      "sport": "scuba_diving",
      "source": "osm_extended",
      "addedBy": "extended_overpass"
    }
  },
  {
    "name": "Chachacha Beach",
    "lat": 12.1460122,
    "lon": -68.276318,
    "osm_id": 4017913908,
    "osm_type": "node",
    "depth": null,
    "site_type": "reef",
    "entry_type": null,
    "difficulty": null,
    "tags": {
      "name": "Chachacha Beach",
      "natural": "beach",
      "sport": "scuba_diving",
      "source": "osm_extended",
      "addedBy": "extended_overpass"
    }
  },
  {
    "name": "Bisé Morto",
    "lat": 12.2935303,
    "lon": -68.4132212,
    "osm_id": 4200486589,
    "osm_type": "node",
    "depth": null,
    "site_type": "reef",
    "entry_type": null,
    "difficulty": null,
    "tags": {
      "name": "Bisé Morto",
      "source": "osm_extended",
      "sport": "scuba_diving",
      "addedBy": "extended_overpass"
    }
  },
  {
    "name": "Wayaka 2",
    "lat": 12.2696116,
    "lon": -68.4139081,
    "osm_id": 4437663289,
    "osm_type": "node",
    "depth": null,
    "site_type": "reef",
    "entry_type": null,
    "difficulty": null,
    "tags": {
      "name": "Wayaka 2",
      "sport": "scuba_diving",
      "source": "osm_extended",
      "addedBy": "extended_overpass"
    }
  },
  {
    "name": "Boka Katuna",
    "lat": 12.2997359,
    "lon": -68.4025266,
    "osm_id": 9523960359,
    "osm_type": "node",
    "depth": null,
    "site_type": "reef",
    "entry_type": null,
    "difficulty": null,
    "tags": {
      "name": "Boka Katuna",
      "sport": "scuba_diving",
      "source": "osm_extended",
      "addedBy": "extended_overpass"
    }
  },
  {
    "name": "Hidden Beach (unmarked site)",
    "lat": 12.0323197,
    "lon": -68.2581378,
    "osm_id": 11333668404,
    "osm_type": "node",
    "depth": null,
    "site_type": "reef",
    "entry_type": null,
    "difficulty": null,
    "tags": {
      "name": "Hidden Beach (unmarked site)",
      "sport": "scuba_diving",
      "source": "osm_extended",
      "addedBy": "extended_overpass"
    }
  },
  {
    "name": "Yellow Hut (unmarked site)",
    "lat": 12.0311599,
    "lon": -68.2562156,
    "osm_id": 11333668405,
    "osm_type": "node",
    "depth": null,
    "site_type": "reef",
    "entry_type": null,
    "difficulty": null,
    "tags": {
      "name": "Yellow Hut (unmarked site)",
      "sport": "scuba_diving",
      "source": "osm_extended",
      "addedBy": "extended_overpass"
    }
  },
  {
    "name": "Soft Coral Garden (unmarked site)",
    "lat": 12.0334365,
    "lon": -68.2604963,
    "osm_id": 11333668406,
    "osm_type": "node",
    "depth": null,
    "site_type": "reef",
    "entry_type": null,
    "difficulty": null,
    "tags": {
      "name": "Soft Coral Garden (unmarked site)",
      "sport": "scuba_diving",
      "source": "osm_extended",
      "addedBy": "extended_overpass"
    }
  }
]
