[
  {
    "name": "Faro Reef",
    "lat": 7.62,
    "lon": -81.72,
    "depth": 20,
    "site_type": "reef",
    "entry_type": "boat",
    "difficulty": "Intermediate",
    "tags": {
      "source": "curated",
      "addedBy": "fill_new_destinations"
    }
  },
  {
    "name": "Machete Point",
    "lat": 7.58,
    "lon": -81.75,
    "depth": 28,
    "site_type": "wall",
    "entry_type": "boat",
    "difficulty": "Advanced",
    "tags": {
      "source": "curated",
      "addedBy": "fill_new_destinations"
    }
  },
  {
    "name": "Granito de Oro",
    "lat": 7.55,
    "lon": -81.7,
    "depth": 15,
    "site_type": "reef",
    "entry_type": "boat",
    "difficulty": "Beginner",
    "tags": {
      "source": "curated",
      "addedBy": "fill_new_destinations"
    }
  },
  {
    "name": "Iglesia Point",
    "lat": 7.65,
    "lon": -81.68,
    "depth": 25,
    "site_type": "reef",
    "entry_type": "boat",
    "difficulty": "Intermediate",
    "tags": {
      "source": "curated",
      "addedBy": "fill_new_destinations"
    }
  },
  {
    "name": "Bahia Damas",
    "lat": 7.5,
    "lon": -81.78,
    "depth": 18,
    "site_type": "reef",
    "entry_type": "boat",
    "difficulty": "Intermediate",
    "tags": {
      "source": "curated",
      "addedBy": "fill_new_destinations"
    }
  },
  {
    "name": "Canales de Afuera",
    "lat": 7.4,
    "lon": -81.85,
    "depth": 35,
    "site_type": "wall",
    "entry_type": "boat",
    "difficulty": "Advanced",
    "tags": {
      "source": "curated",
      "addedBy": "fill_new_destinations"
    }
  },
  {
    "name": "Jicarita Island",
    "lat": 7.21,
    "lon": -81.8,
    "depth": 30,
    "site_type": "reef",
    "entry_type": "boat",
    "difficulty": "Advanced",
    "tags": {
      "source": "curated",
      "addedBy": "fill_new_destinations"
    }
  },
  {
    "name": "Santa Cruz",
    "lat": 7.68,
    "lon": -81.65,
    "depth": 12,
    "site_type": "reef",
    "entry_type": "boat",
    "difficulty": "Beginner",
    "tags": {
      "source": "curated",
      "addedBy": "fill_new_destinations"
    }
  },
  {
    "name": "Montaña Rusa",
    "lat": 7.45,
    "lon": -81.82,
    "depth": 22,
    "site_type": "reef",
    "entry_type": "boat",
    "difficulty": "Intermediate",
    "tags": {
      "source": "curated",
      "addedBy": "fill_new_destinations"
    }
  },
  {
    "name": "Shark Point Coiba",
    "lat": 7.53,
    "lon": -81.73,
    "depth": 30,
    "site_type": "reef",
    "entry_type": "boat",
    "difficulty": "Advanced",
    "tags": {
      "source": "curated",
      "addedBy": "fill_new_destinations"
    }
  }
]