[
  {
    "name": "Catalina Wall",
    "lat": 18.22,
    "lon": -68.95,
    "depth": 40,
    "site_type": "wall",
    "entry_type": "boat",
    "difficulty": "Intermediate",
    "validated": true,
    "validation_source": "PADI, Dressel Divers, ScubaCaribe",
    "tags": {
      "source": "curated",
      "addedBy": "fill_caribbean"
    }
  },
  {
    "name": "St. George Wreck",
    "lat": 18.47,
    "lon": -69.88,
    "depth": 44,
    "site_type": "wreck",
    "entry_type": "boat",
    "difficulty": "Advanced",
    "validated": true,
    "validation_source": "Dressel Divers, ScubaCaribe, Ultramarinedivers, DiveSSI",
    "tags": {
      "source": "curated",
      "addedBy": "fill_caribbean"
    }
  },
  {
    "name": "La Caleta Underwater Park",
    "lat": 18.43,
    "lon": -69.75,
    "depth": 30,
    "site_type": "wreck",
    "entry_type": "boat",
    "difficulty": "Intermediate",
    "validated": true,
    "validation_source": "TripAdvisor, Lonely Planet, Global National Parks",
    "tags": {
      "source": "curated",
      "addedBy": "fill_caribbean"
    }
  },
  {
    "name": "Padre Nuestro",
    "lat": 18.38,
    "lon": -68.83,
    "depth": 10,
    "site_type": "cave",
    "entry_type": "shore",
    "difficulty": "Beginner",
    "validated": true,
    "validation_source": "Dominican Divers, TripAdvisor, Scuba Diving Mag",
    "tags": {
      "source": "curated",
      "addedBy": "fill_caribbean"
    }
  },
  {
    "name": "Bayahibe Reef",
    "lat": 18.36,
    "lon": -68.85,
    "depth": 14,
    "site_type": "reef",
    "entry_type": "boat",
    "difficulty": "Beginner",
    "validated": true,
    "validation_source": "PADI, Scuba Diving Mag, Bayahibe operators",
    "tags": {
      "source": "curated",
      "addedBy": "fill_caribbean"
    }
  },
  {
    "name": "Saona Island",
    "lat": 18.15,
    "lon": -68.72,
    "depth": 12,
    "site_type": "reef",
    "entry_type": "boat",
    "difficulty": "Beginner",
    "validated": true,
    "validation_source": "PADI, Dressel Divers, Pro Dive International",
    "tags": {
      "source": "curated",
      "addedBy": "fill_caribbean"
    }
  },
  {
    "name": "Punta Cana Reef",
    "lat": 18.52,
    "lon": -68.37,
    "depth": 12,
    "site_type": "reef",
    "entry_type": "boat",
    "difficulty": "Beginner",
    "validated": true,
    "validation_source": "PADI, Grand Bay, Scuba Diving Mag",
    "tags": {
      "source": "curated",
      "addedBy": "fill_caribbean"
    }
  },
  {
    "name": "Las Terrenas Drop-Off",
    "lat": 19.32,
    "lon": -69.53,
    "depth": 30,
    "site_type": "wall",
    "entry_type": "boat",
    "difficulty": "Intermediate",
    "validated": true,
    "validation_source": "PADI Las Terrenas, TDA Las Terrenas",
    "tags": {
      "source": "curated",
      "addedBy": "fill_caribbean"
    }
  },
  {
    "name": "Sosua Bay",
    "lat": 19.76,
    "lon": -70.51,
    "depth": 20,
    "site_type": "reef",
    "entry_type": "shore",
    "difficulty": "Beginner",
    "validated": true,
    "validation_source": "PADI, Sosua Beach DR, Superior Dive Sosua",
    "tags": {
      "source": "curated",
      "addedBy": "fill_caribbean"
    }
  },
  {
    "name": "El Dudú Cenote",
    "lat": 19.69,
    "lon": -69.88,
    "depth": 20,
    "site_type": "cave",
    "entry_type": "shore",
    "difficulty": "Intermediate",
    "validated": true,
    "validation_source": "CaveAtlas, Cave-diving.do, Scuba Dominicana",
    "tags": {
      "source": "curated",
      "addedBy": "fill_caribbean"
    }
  },
  {
    "name": "Atlantic Princess Wreck",
    "lat": 18.45,
    "lon": -69.86,
    "depth": 12,
    "site_type": "wreck",
    "entry_type": "boat",
    "difficulty": "Beginner",
    "validated": true,
    "validation_source": "PADI, Wanderlog, Dominican Divers, Coral Point Diving",
    "tags": {
      "source": "curated",
      "addedBy": "fill_caribbean"
    }
  },
  {
    "name": "Zingara",
    "lat": 19.7888514,
    "lon": -70.4979794,
    "osm_id": 270997633,
    "osm_type": "node",
    "depth": 36,
    "site_type": "wreck",
    "entry_type": "boat",
    "difficulty": "Advanced",
    "validated": true,
    "validation_source": "Zentacle, Wannadive, Diwa Dominicana, Adrex",
    "tags": {
      "historic": "wreck",
      "name": "Zingara",
      "position:accuracy": "30m",
      "seamark:type": "wreck",
      "sport": "water_sports",
      "sport:scuba_diving": "yes",
      "wreck:depth": "35m",
      "source": "osm_extended",
      "addedBy": "extended_overpass"
    }
  },
  {
    "name": "Aquarium",
    "lat": 18.3644497,
    "lon": -69.0248231,
    "osm_id": 1561340043,
    "osm_type": "node",
    "depth": 12,
    "site_type": "reef",
    "entry_type": "boat",
    "difficulty": "Beginner",
    "validated": true,
    "validation_source": "Scuba Diving Mag, Bayahibe operators",
    "tags": {
      "name": "Aquarium",
      "scuba": "yes",
      "scuba_diving:depth": "12",
      "scuba_diving:divespot": "Aquarium",
      "scuba_diving:entry": "boat",
      "scuba_diving:type": "reef",
      "sport": "scuba_diving",
      "source": "osm_extended",
      "addedBy": "extended_overpass"
    }
  },
  {
    "name": "The Wall",
    "lat": 18.3708321,
    "lon": -69.0038486,
    "osm_id": 1561340047,
    "osm_type": "node",
    "depth": 40,
    "site_type": "wall",
    "entry_type": "boat",
    "difficulty": "Intermediate",
    "validated": true,
    "validation_source": "Scuba Diving Mag, Bayahibe operators",
    "tags": {
      "name": "The Wall",
      "scuba": "yes",
      "scuba_diving:depth": "20",
      "scuba_diving:divespot": "The Wall",
      "scuba_diving:entry": "boat",
      "scuba_diving:type": "wall",
      "sport": "scuba_diving",
      "source": "osm_extended",
      "addedBy": "extended_overpass"
    }
  },
  {
    "name": "Playita",
    "lat": 19.2944746,
    "lon": -69.2077604,
    "osm_id": 3348737500,
    "osm_type": "node",
    "depth": 9,
    "site_type": "reef",
    "entry_type": "boat",
    "difficulty": "Beginner",
    "validated": true,
    "validation_source": "Las Galeras Divers, Playita Scuba Diving center",
    "tags": {
      "name": "Playita",
      "sport": "scuba_diving",
      "source": "osm_extended",
      "addedBy": "extended_overpass"
    }
  },
  {
    "name": "Las Galeras Divers",
    "lat": 19.2911794,
    "lon": -69.1984232,
    "osm_id": 7243017306,
    "osm_type": "node",
    "depth": 15,
    "site_type": "reef",
    "entry_type": "boat",
    "difficulty": "Beginner",
    "validated": true,
    "validation_source": "Las Galeras Divers center, local operators",
    "tags": {
      "name": "Las Galeras Divers",
      "sport": "scuba_diving",
      "source": "osm_extended",
      "addedBy": "extended_overpass"
    }
  },
  {
    "name": "Astron",
    "lat": 18.7303783,
    "lon": -68.4538206,
    "osm_id": 170000345,
    "osm_type": "way",
    "depth": 16,
    "site_type": "wreck",
    "entry_type": "boat",
    "difficulty": "Beginner",
    "validated": true,
    "validation_source": "Wikipedia, DiveSSI, Divebooker, Dominican Divers",
    "tags": {
      "historic": "wreck",
      "name": "Astron",
      "seamark:type": "wreck",
      "sport": "scuba_diving",
      "source": "osm_extended",
      "addedBy": "extended_overpass"
    }
  }
]
