[
  {
    "name": "Champagne Reef",
    "lat": 15.2473,
    "lon": -61.3734,
    "depth": 12,
    "site_type": "reef",
    "entry_type": "shore",
    "difficulty": "Beginner",
    "tags": {
      "source": "curated",
      "addedBy": "fill_caribbean",
      "validated": true,
      "validation_source": "zentacle.com, divedominica.com, diveoclock.com, tripadvisor"
    }
  },
  {
    "name": "Scotts Head Pinnacle",
    "lat": 15.2156,
    "lon": -61.3771,
    "depth": 35,
    "site_type": "pinnacle",
    "entry_type": "boat",
    "difficulty": "Advanced",
    "tags": {
      "source": "curated",
      "addedBy": "fill_caribbean",
      "validated": true,
      "validation_source": "zentacle.com, divedominica.com, diveoclock.com, divessi.com",
      "notes": "Swim-through at 35ft, wall drops to 120ft+ on inside of volcanic crater"
    }
  },
  {
    "name": "Soufrière Pinnacle",
    "lat": 15.2310,
    "lon": -61.3621,
    "depth": 25,
    "site_type": "wall",
    "entry_type": "boat",
    "difficulty": "Intermediate",
    "tags": {
      "source": "curated",
      "addedBy": "fill_caribbean",
      "validated": true,
      "validation_source": "zentacle.com, divedominica.com, diveoclock.com"
    }
  },
  {
    "name": "Danglebens Pinnacles",
    "lat": 15.2371,
    "lon": -61.3728,
    "depth": 40,
    "site_type": "pinnacle",
    "entry_type": "boat",
    "difficulty": "Intermediate",
    "tags": {
      "source": "curated",
      "addedBy": "fill_caribbean",
      "validated": true,
      "validation_source": "zentacle.com, divedominica.com, scubadiving.com",
      "notes": "5 pinnacles with sandy bottoms, 30-40m, barrel sponges and reef sharks"
    }
  },
  {
    "name": "Coral Gardens",
    "lat": 15.2381,
    "lon": -61.3711,
    "depth": 10,
    "site_type": "reef",
    "entry_type": "shore",
    "difficulty": "Beginner",
    "tags": {
      "source": "curated",
      "addedBy": "fill_caribbean",
      "validated": true,
      "validation_source": "zentacle.com, ssmrdominica.com"
    }
  },
  {
    "name": "L'Abym",
    "lat": 15.2345,
    "lon": -61.3661,
    "depth": 30,
    "site_type": "wall",
    "entry_type": "boat",
    "difficulty": "Advanced",
    "tags": {
      "source": "curated",
      "addedBy": "fill_caribbean",
      "validated": true,
      "validation_source": "zentacle.com, divedominica.com, discoverdominica.com, noxoma.com",
      "notes": "1500ft vertical wall, seahorses sighted, macro-rich location"
    }
  },
  {
    "name": "Toucari Bay",
    "lat": 15.6107,
    "lon": -61.4672,
    "depth": 33,
    "site_type": "reef",
    "entry_type": "shore",
    "difficulty": "Intermediate",
    "tags": {
      "source": "curated",
      "addedBy": "fill_caribbean",
      "validated": true,
      "validation_source": "padi.com, cabritsdive.com, scubadiving.com",
      "notes": "Tunnel system (25-45ft), drops to 110ft with mahogany snapper, frogfish, octopus"
    }
  },
  {
    "name": "Cabrits Drop",
    "lat": 15.5863,
    "lon": -61.4742,
    "depth": 40,
    "site_type": "wall",
    "entry_type": "boat",
    "difficulty": "Advanced",
    "tags": {
      "source": "curated",
      "addedBy": "fill_caribbean",
      "validated": true,
      "validation_source": "cabritsdive.com, scubadiving.com, latitude.to"
    }
  },
  {
    "name": "Point Guignard",
    "lat": 15.2409,
    "lon": -61.3730,
    "depth": 25,
    "site_type": "wall",
    "entry_type": "boat",
    "difficulty": "Beginner",
    "tags": {
      "source": "curated",
      "addedBy": "fill_caribbean",
      "validated": true,
      "validation_source": "zentacle.com, scubadiving.com",
      "notes": "Slowly sloping wall, easy dive for all levels, macro life (seahorses, nudibranches)"
    }
  },
  {
    "name": "Nose Reef",
    "lat": 15.4330,
    "lon": -61.4680,
    "depth": 25,
    "site_type": "reef",
    "entry_type": "boat",
    "difficulty": "Intermediate",
    "tags": {
      "source": "curated",
      "addedBy": "fill_caribbean",
      "validated": true,
      "validation_source": "discoverdominica.com, scubadiving.com, ewdr.com",
      "notes": "Three nose-shaped ledges extending into the blue, off Grand Savanne central coast, 24m depth"
    }
  },
  {
    "name": "Five Finger Rock",
    "lat": 15.5908,
    "lon": -61.4756,
    "depth": 30,
    "site_type": "reef",
    "entry_type": "boat",
    "difficulty": "Intermediate",
    "tags": {
      "source": "curated",
      "addedBy": "fill_caribbean",
      "validated": true,
      "validation_source": "padi.com, cabritsdive.com, scubadiving.com"
    }
  },
  {
    "name": "Rodney's Rock",
    "lat": 15.3796,
    "lon": -61.4120,
    "depth": 15,
    "site_type": "reef",
    "entry_type": "boat",
    "difficulty": "Beginner",
    "tags": {
      "source": "curated",
      "addedBy": "fill_caribbean",
      "validated": true,
      "validation_source": "zentacle.com, scubadiving.com, tripadvisor",
      "notes": "Shallow max 50ft, critter dive (spiny/slipper lobster, morays, seahorses - record 11 in one dive), near Jimmit/Tarou Point"
    }
  }
]
