[
  {
    "name": "Cousteau Reserve - Pigeon Island",
    "lat": 16.168,
    "lon": -61.79,
    "depth": 20,
    "site_type": "reef",
    "entry_type": "boat",
    "difficulty": "Intermediate",
    "tags": {
      "source": "curated",
      "addedBy": "fill_caribbean"
    }
  },
  {
    "name": "Aquarium",
    "lat": 16.17,
    "lon": -61.785,
    "depth": 8,
    "site_type": "reef",
    "entry_type": "boat",
    "difficulty": "Beginner",
    "tags": {
      "source": "curated",
      "addedBy": "fill_caribbean"
    }
  },
  {
    "name": "Jardin de Corail",
    "lat": 16.165,
    "lon": -61.792,
    "depth": 12,
    "site_type": "reef",
    "entry_type": "boat",
    "difficulty": "Beginner",
    "tags": {
      "source": "curated",
      "addedBy": "fill_caribbean"
    }
  },
  {
    "name": "Piscine",
    "lat": 16.172,
    "lon": -61.788,
    "depth": 6,
    "site_type": "reef",
    "entry_type": "boat",
    "difficulty": "Beginner",
    "tags": {
      "source": "curated",
      "addedBy": "fill_caribbean"
    }
  },
  {
    "name": "Les Sources d'Eau Chaude",
    "lat": 16.16,
    "lon": -61.795,
    "depth": 15,
    "site_type": "reef",
    "entry_type": "boat",
    "difficulty": "Intermediate",
    "tags": {
      "source": "curated",
      "addedBy": "fill_caribbean"
    }
  },
  {
    "name": "Pointe Malendure",
    "lat": 16.175,
    "lon": -61.78,
    "depth": 18,
    "site_type": "reef",
    "entry_type": "shore",
    "difficulty": "Intermediate",
    "tags": {
      "source": "curated",
      "addedBy": "fill_caribbean"
    }
  },
  {
    "name": "La Caye",
    "lat": 16.155,
    "lon": -61.798,
    "depth": 25,
    "site_type": "reef",
    "entry_type": "boat",
    "difficulty": "Intermediate",
    "tags": {
      "source": "curated",
      "addedBy": "fill_caribbean"
    }
  },
  {
    "name": "Augustin Fresnel Wreck",
    "lat": 16.25,
    "lon": -61.53,
    "depth": 28,
    "site_type": "wreck",
    "entry_type": "boat",
    "difficulty": "Advanced",
    "tags": {
      "source": "curated",
      "addedBy": "fill_caribbean"
    }
  },
  {
    "name": "Pointe à Lézard",
    "lat": 16.18,
    "lon": -61.775,
    "depth": 22,
    "site_type": "wall",
    "entry_type": "boat",
    "difficulty": "Intermediate",
    "tags": {
      "source": "curated",
      "addedBy": "fill_caribbean"
    }
  },
  {
    "name": "Sec Pâté",
    "lat": 16.15,
    "lon": -61.8,
    "depth": 30,
    "site_type": "reef",
    "entry_type": "boat",
    "difficulty": "Advanced",
    "tags": {
      "source": "curated",
      "addedBy": "fill_caribbean"
    }
  },
  {
    "name": "Anse Caraïbe",
    "lat": 16.19,
    "lon": -61.77,
    "depth": 10,
    "site_type": "reef",
    "entry_type": "shore",
    "difficulty": "Beginner",
    "tags": {
      "source": "curated",
      "addedBy": "fill_caribbean"
    }
  },
  {
    "name": "Les Saintes - Pain de Sucre",
    "lat": 15.87,
    "lon": -61.62,
    "depth": 20,
    "site_type": "reef",
    "entry_type": "boat",
    "difficulty": "Intermediate",
    "tags": {
      "source": "curated",
      "addedBy": "fill_caribbean"
    }
  },
  {
    "name": "La Broumine",
    "lat": 15.8766667,
    "lon": -61.5775,
    "osm_id": 7103821781,
    "osm_type": "node",
    "depth": null,
    "site_type": "wreck",
    "entry_type": null,
    "difficulty": null,
    "tags": {
      "seamark:name": "La Broumine",
      "seamark:type": "wreck",
      "seamark:wreck:category": "mast_showing",
      "source": "osm_extended",
      "addedBy": "extended_overpass"
    }
  },
  {
    "name": "Epave de l'Îlet Fortune",
    "lat": 16.1598393,
    "lon": -61.5445404,
    "osm_id": 9178187671,
    "osm_type": "node",
    "depth": null,
    "site_type": "wreck",
    "entry_type": null,
    "difficulty": null,
    "tags": {
      "access": "yes",
      "ele": "0",
      "historic": "wreck",
      "name": "Epave de l'Îlet Fortune",
      "seamark:type": "wreck",
      "source": "osm_extended",
      "wreck:visible_at_high_tide": "yes",
      "wreck:visible_at_low_tide": "yes",
      "addedBy": "extended_overpass"
    }
  },
  {
    "name": "Épave de Caret",
    "lat": 16.3617054,
    "lon": -61.6482558,
    "osm_id": 9178392808,
    "osm_type": "node",
    "depth": null,
    "site_type": "wreck",
    "entry_type": null,
    "difficulty": null,
    "tags": {
      "historic": "wreck",
      "name": "Épave de Caret",
      "seamark:type": "wreck",
      "source": "osm_extended",
      "addedBy": "extended_overpass"
    }
  },
  {
    "name": "Pointe à Cabrit",
    "lat": 15.8775259,
    "lon": -61.601923,
    "osm_id": 9383506615,
    "osm_type": "node",
    "depth": null,
    "site_type": "reef",
    "entry_type": null,
    "difficulty": null,
    "tags": {
      "name": "Pointe à Cabrit",
      "natural": "cape",
      "scuba_diving:type": "wall",
      "scuba_diving:type:wall": "yes",
      "sport": "scuba_diving",
      "source": "osm_extended",
      "addedBy": "extended_overpass"
    }
  },
  {
    "name": "Le Sec Pâté",
    "lat": 15.9010173,
    "lon": -61.6555095,
    "osm_id": 9383533417,
    "osm_type": "node",
    "depth": null,
    "site_type": "reef",
    "entry_type": null,
    "difficulty": null,
    "tags": {
      "name": "Le Sec Pâté",
      "scuba_diving:type": "wall",
      "scuba_diving:type:wall": "yes",
      "sport": "scuba_diving",
      "source": "osm_extended",
      "addedBy": "extended_overpass"
    }
  },
  {
    "name": "La Baleine",
    "lat": 15.8800649,
    "lon": -61.5870059,
    "osm_id": 9383533418,
    "osm_type": "node",
    "depth": null,
    "site_type": "reef",
    "entry_type": null,
    "difficulty": null,
    "tags": {
      "name": "La Baleine",
      "scuba_diving:type": "wall",
      "scuba_diving:type:wall": "yes",
      "sport": "scuba_diving",
      "source": "osm_extended",
      "addedBy": "extended_overpass"
    }
  },
  {
    "name": "Pointe du Gouvernail",
    "lat": 15.8614736,
    "lon": -61.646976,
    "osm_id": 9383584501,
    "osm_type": "node",
    "depth": null,
    "site_type": "reef",
    "entry_type": null,
    "difficulty": null,
    "tags": {
      "name": "Pointe du Gouvernail",
      "scuba_diving:type": "wall",
      "scuba_diving:type:wall": "yes",
      "sport": "scuba_diving",
      "source": "osm_extended",
      "addedBy": "extended_overpass"
    }
  },
  {
    "name": "L'Aquarium",
    "lat": 15.850237,
    "lon": -61.5916944,
    "osm_id": 9383584506,
    "osm_type": "node",
    "depth": null,
    "site_type": "reef",
    "entry_type": null,
    "difficulty": null,
    "tags": {
      "name": "L'Aquarium",
      "scuba_diving:type": "wall",
      "scuba_diving:type:wall": "yes",
      "sport": "scuba_diving",
      "source": "osm_extended",
      "addedBy": "extended_overpass"
    }
  },
  {
    "name": "Le Gustavia",
    "lat": 16.1658403,
    "lon": -61.7862524,
    "osm_id": 11564342990,
    "osm_type": "node",
    "depth": null,
    "site_type": "wreck",
    "entry_type": null,
    "difficulty": null,
    "tags": {
      "access": "yes",
      "historic": "wreck",
      "name": "Le Gustavia",
      "seamark:type": "wreck",
      "seamark:wreck:category": "non-dangerous",
      "seamark:wreck:water_level": "36",
      "wreck:date_sunk": "1991",
      "wreck:visible_at_high_tide": "no",
      "wreck:visible_at_low_tide": "no",
      "source": "osm_extended",
      "addedBy": "extended_overpass"
    }
  },
  {
    "name": "Le Franjack",
    "lat": 16.1656996,
    "lon": -61.7804476,
    "osm_id": 11564342991,
    "osm_type": "node",
    "depth": null,
    "site_type": "wreck",
    "entry_type": null,
    "difficulty": null,
    "tags": {
      "access": "yes",
      "historic": "wreck",
      "name": "Le Franjack",
      "seamark:type": "wreck",
      "seamark:wreck:category": "non-dangerous",
      "seamark:wreck:water_level": "23",
      "wreck:date_sunk": "1996",
      "wreck:visible_at_high_tide": "no",
      "wreck:visible_at_low_tide": "no",
      "source": "osm_extended",
      "addedBy": "extended_overpass"
    }
  },
  {
    "name": "L’Augustin Fresnel II",
    "lat": 16.1026954,
    "lon": -61.7771092,
    "osm_id": 11564342992,
    "osm_type": "node",
    "depth": null,
    "site_type": "wreck",
    "entry_type": null,
    "difficulty": null,
    "tags": {
      "access": "yes",
      "historic": "wreck",
      "name": "L’Augustin Fresnel II",
      "seamark:type": "wreck",
      "seamark:wreck:category": "non-dangerous",
      "seamark:wreck:water_level": "33",
      "wreck:date_sunk": "2003",
      "wreck:visible_at_high_tide": "no",
      "wreck:visible_at_low_tide": "no",
      "source": "osm_extended",
      "addedBy": "extended_overpass"
    }
  },
  {
    "name": "Frégate-de-Haut",
    "lat": 16.1912892,
    "lon": -61.5520796,
    "osm_id": 11819353254,
    "osm_type": "node",
    "depth": null,
    "site_type": "reef",
    "entry_type": null,
    "difficulty": null,
    "tags": {
      "description": "Les îlets à Frégate (Petit Cul-de-Sac Marin) ont disparu (semble-t-il après le passage du cyclone de 1928) et sont désormais des récifs connus sous le nom Frégate de Haut et Frégate de Bas.",
      "name": "Frégate-de-Haut",
      "natural": "reef",
      "source": "osm_extended",
      "addedBy": "extended_overpass"
    }
  },
  {
    "name": "Frégate-de-Bas",
    "lat": 16.1962489,
    "lon": -61.5559422,
    "osm_id": 11819353255,
    "osm_type": "node",
    "depth": null,
    "site_type": "reef",
    "entry_type": null,
    "difficulty": null,
    "tags": {
      "description": "Les îlets à Frégate (Petit Cul-de-Sac Marin) ont disparu (semble-t-il après le passage du cyclone de 1928) et sont désormais des récifs connus sous le nom Frégate de Haut et Frégate de Bas.",
      "name": "Frégate-de-Bas",
      "natural": "reef",
      "source": "osm_extended",
      "addedBy": "extended_overpass"
    }
  },
  {
    "name": "Caye Fortune",
    "lat": 16.1512402,
    "lon": -61.5632265,
    "osm_id": 12236385570,
    "osm_type": "node",
    "depth": null,
    "site_type": "reef",
    "entry_type": null,
    "difficulty": null,
    "tags": {
      "name": "Caye Fortune",
      "natural": "reef",
      "source": "osm_extended",
      "addedBy": "extended_overpass"
    }
  },
  {
    "name": "Caye Martinique",
    "lat": 16.1402623,
    "lon": -61.5594295,
    "osm_id": 12236385885,
    "osm_type": "node",
    "depth": null,
    "site_type": "reef",
    "entry_type": null,
    "difficulty": null,
    "tags": {
      "name": "Caye Martinique",
      "natural": "reef",
      "source": "osm_extended",
      "addedBy": "extended_overpass"
    }
  },
  {
    "name": "Caye Tome",
    "lat": 16.1513425,
    "lon": -61.5717816,
    "osm_id": 12236385927,
    "osm_type": "node",
    "depth": null,
    "site_type": "reef",
    "entry_type": null,
    "difficulty": null,
    "tags": {
      "name": "Caye Tome",
      "natural": "reef",
      "source": "osm_extended",
      "addedBy": "extended_overpass"
    }
  },
  {
    "name": "Lynndy",
    "lat": 15.8710183,
    "lon": -61.5844046,
    "osm_id": 760445665,
    "osm_type": "way",
    "depth": null,
    "site_type": "wreck",
    "entry_type": null,
    "difficulty": null,
    "tags": {
      "seamark:name": "Lynndy",
      "seamark:type": "wreck",
      "seamark:wreck:category": "dangerous",
      "source": "osm_extended",
      "addedBy": "extended_overpass"
    }
  },
  {
    "name": "Caye à l'Anglais",
    "lat": 16.2096137,
    "lon": -61.5684835,
    "osm_id": 1272054415,
    "osm_type": "way",
    "depth": null,
    "site_type": "reef",
    "entry_type": null,
    "difficulty": null,
    "tags": {
      "name": "Caye à l'Anglais",
      "natural": "reef",
      "source": "osm_extended",
      "addedBy": "extended_overpass"
    }
  },
  {
    "name": "Caye Gros Loup",
    "lat": 16.2130125,
    "lon": -61.5536673,
    "osm_id": 1272054416,
    "osm_type": "way",
    "depth": null,
    "site_type": "reef",
    "entry_type": null,
    "difficulty": null,
    "tags": {
      "name": "Caye Gros Loup",
      "natural": "reef",
      "source": "osm_extended",
      "addedBy": "extended_overpass"
    }
  }
]
