[
  {
    "name": "USS PT-371",
    "lat": 2.0917,
    "lon": 127.8305,
    "depth": 15,
    "site_type": "wreck",
    "entry_type": "boat",
    "difficulty": "Intermediate",
    "osm_id": 2144506344,
    "tags": {
      "source": "osm_extended",
      "historic": "wreck",
      "validation_source": "ibiblio.org/hyperwar, history.navy.mil, pacificwrecks.com",
      "validated": "true",
      "last_qa_date": "2026-06-08"
    }
  },
  {
    "name": "Tosei Maru",
    "lat": 1.1452,
    "lon": 127.8332,
    "depth": 20,
    "site_type": "wreck",
    "entry_type": "boat",
    "difficulty": "Intermediate",
    "osm_id": 20315906,
    "tags": {
      "source": "osm_extended",
      "historic": "wreck",
      "wreck:date_sunk": "1943-12-12",
      "validation_source": "wikipedia.org/USS_Tuna, uboat.net, ibiblio.org/hyperwar",
      "validated": "true",
      "last_qa_date": "2026-06-08",
      "notes": "QA 2026-06-08: validation_source cites USS Tuna Wikipedia (the submarine that sank it), uboat.net, and ibiblio.org. Wreck history confirmed: 5,484-GRT Japanese cargo ship, sunk 12 Dec 1943 by USS Tuna SS-203. OSM-recorded sinking date 1941-12-12 was incorrect (now noted). No independent dive site review found beyond the wreck identification sources. Dive site details (depth 20m, boat entry) come from OSM coordinates only."
    }
  },
  {
    "name": "Biatabang",
    "lat": 0.76,
    "lon": 127.37,
    "depth": 30,
    "site_type": "wall",
    "entry_type": "boat",
    "difficulty": "Advanced",
    "tags": {
      "source": "curated",
      "addedBy": "gap_fill",
      "validation_source": "padi.com/dive-site/indonesia/biatabang, zubludiving.com, liveaboardindonesia.com",
      "validated": "true",
      "last_qa_date": "2026-06-08"
    }
  },
  {
    "name": "Taman Nukila Wreck",
    "lat": 0.782,
    "lon": 127.374,
    "depth": 23,
    "site_type": "wreck",
    "entry_type": "shore",
    "difficulty": "Beginner",
    "tags": {
      "source": "curated",
      "addedBy": "gap_fill",
      "validation_source": "getlost.id, wonderful.ternatekota.go.id, scubago.com",
      "validated": "true",
      "last_qa_date": "2026-06-08"
    }
  },
  {
    "name": "Pulau Tifore",
    "lat": 0.9708,
    "lon": 126.1445,
    "depth": 30,
    "site_type": "reef",
    "entry_type": "boat",
    "difficulty": "Intermediate",
    "tags": {
      "source": "curated",
      "addedBy": "gap_fill",
      "validation_source": "mermaid-liveaboards.com/dive_spots/pulau-tifore, indopacificimages.com, liveaboardindonesia.com",
      "validated": "true",
      "last_qa_date": "2026-06-08"
    }
  },
  {
    "name": "Reenie's Rock",
    "lat": -0.0233,
    "lon": 127.222,
    "depth": 40,
    "site_type": "reef",
    "entry_type": "boat",
    "difficulty": "Intermediate",
    "tags": {
      "source": "curated",
      "addedBy": "gap_fill",
      "validation_source": "indopacificimages.com, cruisingindonesia.com, liveaboardindonesia.com",
      "validated": "true",
      "last_qa_date": "2026-06-08"
    }
  },
  {
    "name": "Batu Mandi",
    "lat": -0.0271,
    "lon": 127.207,
    "depth": 30,
    "site_type": "wall",
    "entry_type": "boat",
    "difficulty": "Intermediate",
    "tags": {
      "source": "curated",
      "addedBy": "gap_fill",
      "validation_source": "konjocruisingindonesia.com, padi.com/dive-site/indonesia/batu-mandi, indopacificimages.com",
      "validated": "true",
      "last_qa_date": "2026-06-08",
      "depth_note": "Wall descends to 30m recreational limit; deeper sections exist beyond 30m"
    }
  },
  {
    "name": "Terumbu Gora",
    "lat": -0.0292,
    "lon": 127.224,
    "depth": 35,
    "site_type": "pinnacle",
    "entry_type": "boat",
    "difficulty": "Intermediate",
    "tags": {
      "source": "curated",
      "addedBy": "gap_fill",
      "validation_source": "mermaid-liveaboards.com/dive_spots/terumbu-gora, cruisingindonesia.com, liveaboardindonesia.com",
      "validated": "true",
      "last_qa_date": "2026-06-08"
    }
  },
  {
    "name": "Proco Channel",
    "lat": -0.4078,
    "lon": 127.7278,
    "depth": 30,
    "site_type": "drift",
    "entry_type": "boat",
    "difficulty": "Advanced",
    "tags": {
      "source": "curated",
      "addedBy": "gap_fill",
      "validation_source": "indopacificimages.com, neptuneliveaboards.com/blog/halmahera-diving, bluewaterdivetravel.com",
      "validated": "true",
      "last_qa_date": "2026-06-08"
    }
  },
  {
    "name": "Batu Jabu",
    "lat": -0.3995,
    "lon": 127.735,
    "depth": 35,
    "site_type": "reef",
    "entry_type": "boat",
    "difficulty": "Intermediate",
    "tags": {
      "source": "curated",
      "addedBy": "gap_fill",
      "validation_source": "indopacificimages.com, neptuneliveaboards.com/blog/halmahera-diving, liveaboardindonesia.com",
      "validated": "true",
      "last_qa_date": "2026-06-08",
      "depth_note": "IndoPacific Images confirms pinnacle to 35m with mini-wall at 15m"
    }
  },
  {
    "name": "Foya Wreck",
    "lat": 0.32,
    "lon": 127.88,
    "depth": 30,
    "site_type": "wreck",
    "entry_type": "boat",
    "difficulty": "Intermediate",
    "tags": {
      "source": "curated",
      "addedBy": "gap_fill",
      "validation_source": "wedaresort.com/dive-sites-halmahera, zubludiving.com, liveaboardindonesia.com",
      "validated": "true",
      "last_qa_date": "2026-06-08"
    }
  },
  {
    "name": "Shark Mountain",
    "lat": 0.38,
    "lon": 128.01,
    "depth": 40,
    "site_type": "pinnacle",
    "entry_type": "boat",
    "difficulty": "Advanced",
    "tags": {
      "source": "curated",
      "addedBy": "gap_fill",
      "validation_source": "wedaresort.com/dive-sites-halmahera, zubludiving.com, scubaboard.com/trip-report-weda-resort-2019",
      "validated": "true",
      "last_qa_date": "2026-06-08"
    }
  },
  {
    "name": "Pulau Pisang",
    "lat": -1.401,
    "lon": 128.9207,
    "depth": 35,
    "site_type": "pinnacle",
    "entry_type": "boat",
    "difficulty": "Intermediate",
    "tags": {
      "source": "curated",
      "addedBy": "gap_fill",
      "validation_source": "jakare-liveaboard.com/halmahera-hidden-dive-gem, xray-mag.com/content/halmahera-0, liveaboardindonesia.com",
      "validated": "true",
      "last_qa_date": "2026-06-08"
    }
  },
  {
    "name": "Bristol Plane Wreck",
    "lat": 2.18,
    "lon": 128.28,
    "depth": 50,
    "site_type": "wreck",
    "entry_type": "boat",
    "difficulty": "Advanced",
    "tags": {
      "source": "curated",
      "addedBy": "gap_fill",
      "validation_source": "pacificwrecks.com/aircraft/beaufort, zubludiving.com, liveaboardindonesia.com",
      "validated": "true",
      "last_qa_date": "2026-06-08"
    }
  },
  {
    "name": "Womow Reef",
    "lat": 1.78,
    "lon": 128.05,
    "depth": 35,
    "site_type": "pinnacle",
    "entry_type": "boat",
    "difficulty": "Intermediate",
    "tags": {
      "source": "curated",
      "addedBy": "gap_fill",
      "validation_source": "liveaboardindonesia.com, zubludiving.com, neptuneliveaboards.com/blog/halmahera-diving",
      "validated": "true",
      "last_qa_date": "2026-06-08"
    }
  },
  {
    "name": "Makian Black Sand",
    "lat": 0.32,
    "lon": 127.395,
    "depth": 20,
    "site_type": "muck",
    "entry_type": "boat",
    "difficulty": "Beginner",
    "tags": {
      "source": "curated",
      "addedBy": "gap_fill",
      "validation_source": "cruisingindonesia.com, liveaboardindonesia.com, wikipedia.org/Hemiscyllium_halmahera",
      "validated": "true",
      "last_qa_date": "2026-06-08"
    }
  }
]