[
  {
    "name": "ALMOG B",
    "lat": 29.509708,
    "lon": 34.922121,
    "depth": 20,
    "site_type": "reef",
    "entry_type": "shore",
    "difficulty": "Beginner",
    "tags": {
      "source": "community_contribution",
      "addedBy": "JaiBar",
      "contribution_ref": "github_issue_52",
      "validated": "true",
      "validation_source": "israelbylocals.com,eilat.city,scubadiving.guide",
      "last_qa_date": "2026-06-08"
    }
  },
  {
    "name": "ARDAG",
    "lat": 29.553445,
    "lon": 34.970301,
    "depth": 15,
    "site_type": "reef",
    "entry_type": "shore",
    "difficulty": "Beginner",
    "tags": {
      "source": "community_contribution",
      "addedBy": "JaiBar",
      "contribution_ref": "github_issue_52",
      "validated": "true",
      "validation_source": "eilat.city,divezone.net,scubadiving.guide",
      "last_qa_date": "2026-06-08"
    }
  },
  {
    "name": "BRIDGE N",
    "lat": 29.495246,
    "lon": 34.907867,
    "depth": 25,
    "site_type": "reef",
    "entry_type": "shore",
    "difficulty": "Beginner",
    "tags": {
      "source": "community_contribution",
      "addedBy": "JaiBar",
      "contribution_ref": "github_issue_52",
      "validated": "true",
      "validation_source": "israelbylocals.com,shulamit-diving.com,scubadiving.guide",
      "last_qa_date": "2026-06-08"
    }
  },
  {
    "name": "CORALSEA",
    "lat": 29.515699,
    "lon": 34.924405,
    "depth": 20,
    "site_type": "reef",
    "entry_type": "shore",
    "difficulty": "Beginner",
    "tags": {
      "source": "community_contribution",
      "addedBy": "JaiBar",
      "contribution_ref": "github_issue_52",
      "validated": "true",
      "validation_source": "en.parks.org.il,eilat.city,divezone.net",
      "last_qa_date": "2026-06-08"
    }
  },
  {
    "name": "DAGSUF",
    "lat": 29.544588,
    "lon": 34.97346,
    "depth": 12,
    "site_type": "reef",
    "entry_type": "shore",
    "difficulty": "Beginner",
    "tags": {
      "source": "community_contribution",
      "addedBy": "JaiBar",
      "contribution_ref": "github_issue_52",
      "validated": "true",
      "validation_source": "eilat.city,divezone.net,scubadiving.guide",
      "last_qa_date": "2026-06-08"
    }
  },
  {
    "name": "DOLPHIN",
    "lat": 29.526975,
    "lon": 34.935478,
    "depth": 20,
    "site_type": "reef",
    "entry_type": "shore",
    "difficulty": "Beginner",
    "tags": {
      "source": "community_contribution",
      "addedBy": "JaiBar",
      "contribution_ref": "github_issue_52",
      "validated": "true",
      "validation_source": "ahla-dive.com,scubadiving.guide,israelbylocals.com",
      "last_qa_date": "2026-06-08"
    }
  },
  {
    "name": "FishHaven (Pyramid??)",
    "lat": 29.54391,
    "lon": 34.956436,
    "depth": 32,
    "site_type": "reef",
    "entry_type": "shore",
    "difficulty": "Intermediate",
    "tags": {
      "source": "community_contribution",
      "addedBy": "JaiBar",
      "contribution_ref": "github_issue_52",
      "validated": "true",
      "validation_source": "eilatredsea.com,zentacle.com,aqua-sport.com",
      "last_qa_date": "2026-06-08"
    }
  },
  {
    "name": "Japanese Gardens",
    "lat": 29.505683,
    "lon": 34.91912,
    "depth": 60,
    "site_type": "reef",
    "entry_type": "boat",
    "difficulty": "Intermediate",
    "tags": {
      "source": "community_contribution",
      "addedBy": "JaiBar",
      "contribution_ref": "github_issue_52",
      "validated": "true",
      "validation_source": "israelbylocals.com,shulamit-diving.com,divezone.net,eilat.city",
      "last_qa_date": "2026-06-08"
    }
  },
  {
    "name": "LightHouse",
    "lat": 29.499155,
    "lon": 34.914093,
    "depth": 30,
    "site_type": "reef",
    "entry_type": "shore",
    "difficulty": "Beginner",
    "tags": {
      "source": "community_contribution",
      "addedBy": "JaiBar",
      "contribution_ref": "github_issue_52",
      "validated": "true",
      "validation_source": "eilat.city,shulamit-diving.com,scubadiving.guide",
      "last_qa_date": "2026-06-08"
    }
  },
  {
    "name": "אילת - סאן בואט ורכבים אמפיביים",
    "lat": 29.5432268,
    "lon": 34.968307,
    "depth": 15,
    "site_type": "wreck",
    "entry_type": "shore",
    "difficulty": "Beginner",
    "tags": {
      "source": "community_contribution",
      "addedBy": "JaiBar",
      "contribution_ref": "github_issue_52",
      "validated": "true",
      "validation_source": "aqua-sport.com,eilat.city,shulamit-diving.com",
      "last_qa_date": "2026-06-08"
    }
  },
  {
    "name": "ספינת הזכוכית‎",
    "lat": 29.5140418,
    "lon": 34.9303394,
    "depth": 55,
    "site_type": "wreck",
    "entry_type": "boat",
    "difficulty": "Advanced",
    "tags": {
      "source": "community_contribution",
      "addedBy": "JaiBar",
      "contribution_ref": "github_issue_52",
      "validated": "true",
      "validation_source": "eilat.city,shulamit-diving.com,divezone.net",
      "last_qa_date": "2026-06-08"
    }
  },
  {
    "name": "אילת - עתליה - ספינת הזכוכית‎",
    "lat": 29.5189671,
    "lon": 34.9386951,
    "depth": 55,
    "site_type": "wreck",
    "entry_type": "boat",
    "difficulty": "Advanced",
    "tags": {
      "source": "community_contribution",
      "addedBy": "JaiBar",
      "contribution_ref": "github_issue_52",
      "validated": "true",
      "validation_source": "eilat.city,shulamit-diving.com,divezone.net",
      "last_qa_date": "2026-06-08"
    }
  },
  {
    "name": "אילת - אופירה‎",
    "lat": 29.5022267,
    "lon": 34.9251435,
    "depth": 25,
    "site_type": "reef",
    "entry_type": "shore",
    "difficulty": "Beginner",
    "tags": {
      "source": "community_contribution",
      "addedBy": "JaiBar",
      "contribution_ref": "github_issue_52",
      "validated": "true",
      "validation_source": "eilat.city,en.parks.org.il,scubadiving.guide",
      "last_qa_date": "2026-06-08"
    }
  },
  {
    "name": "CAVE",
    "lat": 33.042412,
    "lon": 35.098755,
    "depth": 12,
    "site_type": "cave",
    "entry_type": "boat",
    "difficulty": "Advanced",
    "tags": {
      "source": "community_contribution",
      "addedBy": "JaiBar",
      "contribution_ref": "github_issue_52",
      "validated": "false",
      "last_qa_date": "2026-06-08",
      "qa_note": "No specific source found for this site. Cannot validate — no published dive description located."
    }
  },
  {
    "name": "CHANNEL",
    "lat": 32.679832,
    "lon": 34.926535,
    "depth": null,
    "site_type": "reef",
    "entry_type": "shore",
    "difficulty": "Intermediate",
    "tags": {
      "source": "community_contribution",
      "addedBy": "JaiBar",
      "contribution_ref": "github_issue_52",
      "last_qa_date": "2026-06-08",
      "qa_note": "No validation source found. Name only, no published dive description."
    }
  },
  {
    "name": "Dangerous Rock",
    "lat": 32.284012,
    "lon": 34.832153,
    "depth": 15,
    "site_type": "reef",
    "entry_type": "boat",
    "difficulty": "Intermediate",
    "tags": {
      "source": "community_contribution",
      "addedBy": "JaiBar",
      "contribution_ref": "github_issue_52",
      "validated": "false",
      "last_qa_date": "2026-06-08",
      "qa_note": "Previous 'geographic_analysis' tag was not a real external source. Downgraded to false — no published dive description found."
    }
  },
  {
    "name": "Lookout near pole#8",
    "lat": 33.083084,
    "lon": 35.106498,
    "depth": null,
    "site_type": "reef",
    "entry_type": "boat",
    "difficulty": "Intermediate",
    "tags": {
      "source": "community_contribution",
      "addedBy": "JaiBar",
      "contribution_ref": "github_issue_52",
      "last_qa_date": "2026-06-08",
      "qa_note": "No validation source found. Cannot validate."
    }
  },
  {
    "name": "MarineFarm",
    "lat": 32.412415,
    "lon": 34.844513,
    "depth": 15,
    "site_type": "reef",
    "entry_type": "boat",
    "difficulty": "Intermediate",
    "tags": {
      "source": "community_contribution",
      "addedBy": "JaiBar",
      "contribution_ref": "github_issue_52",
      "validated": "false",
      "last_qa_date": "2026-06-08",
      "qa_note": "Previous 'geographic_analysis' tag was not a real external source. Downgraded to false — no published dive description found."
    }
  },
  {
    "name": "MvHatzvi",
    "lat": 32.120247,
    "lon": 34.685726,
    "depth": 25,
    "site_type": "wreck",
    "entry_type": "boat",
    "difficulty": "Intermediate",
    "tags": {
      "source": "community_contribution",
      "addedBy": "JaiBar",
      "contribution_ref": "github_issue_52",
      "validated": "false",
      "last_qa_date": "2026-06-08",
      "qa_note": "Previous 'geographic_analysis' tag was not a real external source. Downgraded to false — no published dive description found."
    }
  },
  {
    "name": "PUTSKER",
    "lat": 33.012902,
    "lon": 35.089919,
    "depth": 15,
    "site_type": "reef",
    "entry_type": "shore",
    "difficulty": "Beginner",
    "tags": {
      "source": "community_contribution",
      "addedBy": "JaiBar",
      "contribution_ref": "github_issue_52",
      "validated": "true",
      "validation_source": "putsker.co.il,indigo-club.co.il,scubadiving.guide",
      "last_qa_date": "2026-06-08"
    }
  },
  {
    "name": "Sparta Canyon",
    "lat": 32.85237,
    "lon": 34.95456,
    "depth": 20,
    "site_type": "wall",
    "entry_type": "boat",
    "difficulty": "Intermediate",
    "tags": {
      "source": "community_contribution",
      "addedBy": "JaiBar",
      "contribution_ref": "github_issue_52",
      "validated": "false",
      "validation_source": "amirgur.com",
      "last_qa_date": "2026-06-08",
      "qa_note": "Only one source found. Cannot reach 3-source threshold."
    }
  },
  {
    "name": "Water Line Shikmona",
    "lat": 32.825776,
    "lon": 34.955824,
    "depth": 5,
    "site_type": "reef",
    "entry_type": "shore",
    "difficulty": "Beginner",
    "tags": {
      "source": "community_contribution",
      "addedBy": "JaiBar",
      "contribution_ref": "github_issue_52",
      "last_qa_date": "2026-06-08",
      "qa_note": "No validation source found."
    }
  },
  {
    "name": "WRECK",
    "lat": 33.040352,
    "lon": 35.077457,
    "depth": null,
    "site_type": "wreck",
    "entry_type": "boat",
    "difficulty": "Intermediate",
    "tags": {
      "source": "community_contribution",
      "addedBy": "JaiBar",
      "contribution_ref": "github_issue_52",
      "last_qa_date": "2026-06-08",
      "qa_note": "Generic name 'WRECK' with no identifying information. Cannot validate."
    }
  },
  {
    "name": "Wreck Annette",
    "lat": 31.832222,
    "lon": 34.633056,
    "depth": 25,
    "site_type": "wreck",
    "entry_type": "boat",
    "difficulty": "Intermediate",
    "tags": {
      "source": "community_contribution",
      "addedBy": "JaiBar",
      "contribution_ref": "github_issue_52",
      "validated": "false",
      "last_qa_date": "2026-06-08",
      "qa_note": "Previous 'nautical_chart_annotation' is not an external published source. Downgraded to false — no published dive description found."
    }
  },
  {
    "name": "Wreck Antilean \"Rocky\"",
    "lat": 31.802383,
    "lon": 34.629483,
    "depth": 25,
    "site_type": "wreck",
    "entry_type": "boat",
    "difficulty": "Intermediate",
    "tags": {
      "source": "community_contribution",
      "addedBy": "JaiBar",
      "contribution_ref": "github_issue_52",
      "validated": "false",
      "last_qa_date": "2026-06-08",
      "qa_note": "Previous 'nautical_chart_annotation' is not an external published source. Downgraded to false — no published dive description found."
    }
  },
  {
    "name": "Wreck Arlozorov",
    "lat": 32.836976,
    "lon": 34.981799,
    "depth": 7,
    "site_type": "wreck",
    "entry_type": "shore",
    "difficulty": "Beginner",
    "tags": {
      "source": "community_contribution",
      "addedBy": "JaiBar",
      "contribution_ref": "github_issue_52",
      "validated": "true",
      "validation_source": "haipo.co.il,justgottadive.com,jfc.org.il",
      "last_qa_date": "2026-06-08"
    }
  },
  {
    "name": "Wreck Dovra Gdola",
    "lat": 32.797623,
    "lon": 34.926739,
    "depth": 36,
    "site_type": "wreck",
    "entry_type": "boat",
    "difficulty": "Advanced",
    "tags": {
      "source": "community_contribution",
      "addedBy": "JaiBar",
      "contribution_ref": "github_issue_52",
      "validated": "true",
      "validation_source": "indigo-club.co.il,diver.co.il,scubadiving.guide",
      "last_qa_date": "2026-06-08"
    }
  },
  {
    "name": "Wreck Dovra unk",
    "lat": 32.826056,
    "lon": 34.940611,
    "depth": 20,
    "site_type": "wreck",
    "entry_type": "boat",
    "difficulty": "Intermediate",
    "tags": {
      "source": "community_contribution",
      "addedBy": "JaiBar",
      "contribution_ref": "github_issue_52",
      "validated": "false",
      "last_qa_date": "2026-06-08",
      "qa_note": "Name 'unk' indicates unknown identity. Geographic_analysis is not a real source. Cannot validate."
    }
  },
  {
    "name": "Wreck German Wreck",
    "lat": 32.631667,
    "lon": 34.916389,
    "depth": 18,
    "site_type": "wreck",
    "entry_type": "boat",
    "difficulty": "Intermediate",
    "tags": {
      "source": "community_contribution",
      "addedBy": "JaiBar",
      "contribution_ref": "github_issue_52",
      "validated": "false",
      "last_qa_date": "2026-06-08",
      "qa_note": "Geographic_analysis is not a real source. No published dive description found for this site."
    }
  },
  {
    "name": "Wreck Jaffo",
    "lat": 32.061417,
    "lon": 34.728889,
    "depth": 10,
    "site_type": "wreck",
    "entry_type": "boat",
    "difficulty": "Intermediate",
    "tags": {
      "source": "community_contribution",
      "addedBy": "JaiBar",
      "contribution_ref": "github_issue_52",
      "validated": "false",
      "last_qa_date": "2026-06-08",
      "qa_note": "Previous 'osm' is not an external dive source. No published dive description found."
    }
  },
  {
    "name": "Wreck Kidon",
    "lat": 33.004028,
    "lon": 35.048417,
    "depth": 26,
    "site_type": "wreck",
    "entry_type": "boat",
    "difficulty": "Intermediate",
    "tags": {
      "source": "community_contribution",
      "addedBy": "JaiBar",
      "contribution_ref": "github_issue_52",
      "validated": "true",
      "validation_source": "putsker.co.il,indigo-club.co.il,justgottadive.com,ynetnews.com",
      "last_qa_date": "2026-06-08"
    }
  },
  {
    "name": "Wreck l. dovra",
    "lat": 32.817778,
    "lon": 34.901667,
    "depth": 15,
    "site_type": "wreck",
    "entry_type": "boat",
    "difficulty": "Beginner",
    "tags": {
      "source": "community_contribution",
      "addedBy": "JaiBar",
      "contribution_ref": "github_issue_52",
      "validated": "false",
      "last_qa_date": "2026-06-08",
      "qa_note": "Geographic_analysis is not a real source. No published dive description found."
    }
  },
  {
    "name": "Wreck Leonid",
    "lat": 32.869752,
    "lon": 34.954043,
    "depth": 22,
    "site_type": "wreck",
    "entry_type": "boat",
    "difficulty": "Intermediate",
    "tags": {
      "source": "community_contribution",
      "addedBy": "JaiBar",
      "contribution_ref": "github_issue_52",
      "validated": "false",
      "last_qa_date": "2026-06-08",
      "qa_note": "Geographic_analysis is not a real source. No published dive description found."
    }
  },
  {
    "name": "Wreck Luna",
    "lat": 32.800139,
    "lon": 34.88425,
    "depth": 20,
    "site_type": "wreck",
    "entry_type": "boat",
    "difficulty": "Intermediate",
    "tags": {
      "source": "community_contribution",
      "addedBy": "JaiBar",
      "contribution_ref": "github_issue_52",
      "validated": "false",
      "last_qa_date": "2026-06-08",
      "qa_note": "Geographic_analysis is not a real source. No published dive description found."
    }
  },
  {
    "name": "Wreck Maapilim",
    "lat": 32.812778,
    "lon": 34.899167,
    "depth": 15,
    "site_type": "wreck",
    "entry_type": "boat",
    "difficulty": "Intermediate",
    "tags": {
      "source": "community_contribution",
      "addedBy": "JaiBar",
      "contribution_ref": "github_issue_52",
      "validated": "false",
      "last_qa_date": "2026-06-08",
      "qa_note": "Geographic_analysis is not a real source. No published dive description found."
    }
  },
  {
    "name": "Wreck Mema_SS",
    "lat": 32.607222,
    "lon": 34.891667,
    "depth": 15,
    "site_type": "wreck",
    "entry_type": "boat",
    "difficulty": "Intermediate",
    "tags": {
      "source": "community_contribution",
      "addedBy": "JaiBar",
      "contribution_ref": "github_issue_52",
      "validated": "false",
      "last_qa_date": "2026-06-08",
      "qa_note": "Geographic_analysis is not a real source. No published dive description found."
    }
  },
  {
    "name": "Wreck mizdakeret",
    "lat": 32.811944,
    "lon": 34.8875,
    "depth": 15,
    "site_type": "wreck",
    "entry_type": "boat",
    "difficulty": "Intermediate",
    "tags": {
      "source": "community_contribution",
      "addedBy": "JaiBar",
      "contribution_ref": "github_issue_52",
      "validated": "false",
      "last_qa_date": "2026-06-08",
      "qa_note": "Geographic_analysis is not a real source. No published dive description found."
    }
  },
  {
    "name": "Wreck Naharia",
    "lat": 33.012278,
    "lon": 35.073333,
    "depth": 18,
    "site_type": "wreck",
    "entry_type": "boat",
    "difficulty": "Intermediate",
    "tags": {
      "source": "community_contribution",
      "addedBy": "JaiBar",
      "contribution_ref": "github_issue_52",
      "validated": "false",
      "last_qa_date": "2026-06-08",
      "qa_note": "Geographic_analysis is not a real source. No published dive description found."
    }
  },
  {
    "name": "Wreck Scire",
    "lat": 32.91152,
    "lon": 34.970641,
    "depth": 33,
    "site_type": "wreck",
    "entry_type": "boat",
    "difficulty": "Advanced",
    "tags": {
      "source": "community_contribution",
      "addedBy": "JaiBar",
      "contribution_ref": "github_issue_52",
      "validated": "true",
      "validation_source": "xray-mag.com,warhistoryonline.com,wikipedia.org,ynetnews.com",
      "last_qa_date": "2026-06-08"
    }
  },
  {
    "name": "Wreck SDG",
    "lat": 32.953833,
    "lon": 34.950889,
    "depth": 20,
    "site_type": "wreck",
    "entry_type": "boat",
    "difficulty": "Intermediate",
    "tags": {
      "source": "community_contribution",
      "addedBy": "JaiBar",
      "contribution_ref": "github_issue_52",
      "validated": "false",
      "last_qa_date": "2026-06-08",
      "qa_note": "Geographic_analysis is not a real source. No published dive description found."
    }
  },
  {
    "name": "Wreck Turkish",
    "lat": 32.841139,
    "lon": 34.974203,
    "depth": 11,
    "site_type": "wreck",
    "entry_type": "boat",
    "difficulty": "Beginner",
    "tags": {
      "source": "community_contribution",
      "addedBy": "JaiBar",
      "contribution_ref": "github_issue_52",
      "validated": "true",
      "validation_source": "ynetnews.com,justgottadive.com,scubadiving.guide",
      "last_qa_date": "2026-06-08"
    }
  },
  {
    "name": "Wreck Zehava 3 bears",
    "lat": 31.710889,
    "lon": 34.504083,
    "depth": 30,
    "site_type": "wreck",
    "entry_type": "boat",
    "difficulty": "Advanced",
    "tags": {
      "source": "community_contribution",
      "addedBy": "JaiBar",
      "contribution_ref": "github_issue_52",
      "validated": "false",
      "last_qa_date": "2026-06-08",
      "qa_note": "Previous 'nautical_chart_annotation' is not an external published source. Downgraded to false — no published dive description found."
    }
  },
  {
    "name": "עמוד 5‎",
    "lat": 33.0883552,
    "lon": 35.1056875,
    "depth": 10,
    "site_type": "reef",
    "entry_type": "shore",
    "difficulty": "Beginner",
    "tags": {
      "source": "community_contribution",
      "addedBy": "JaiBar",
      "contribution_ref": "github_issue_52",
      "validated": "true",
      "validation_source": "mishmarhayam.com,putsker.co.il,scubadiving.guide",
      "last_qa_date": "2026-06-08"
    }
  },
  {
    "name": "ספינת הקיטור האיטלקית‎‎",
    "lat": 32.8415159,
    "lon": 34.9456719,
    "depth": 12,
    "site_type": "wreck",
    "entry_type": "boat",
    "difficulty": "Beginner",
    "tags": {
      "source": "community_contribution",
      "addedBy": "JaiBar",
      "contribution_ref": "github_issue_52",
      "validated": "false",
      "last_qa_date": "2026-06-08",
      "qa_note": "Only mishmarhayam.com found. Cannot reach 3-source threshold. No published dive description with vessel history."
    }
  },
  {
    "name": "שונית עכו",
    "lat": 32.9257736,
    "lon": 35.0662186,
    "depth": 26,
    "site_type": "wall",
    "entry_type": "boat",
    "difficulty": "Intermediate",
    "tags": {
      "source": "community_contribution",
      "addedBy": "JaiBar",
      "contribution_ref": "github_issue_52",
      "validated": "true",
      "validation_source": "putsker.co.il,indigo-club.co.il,scubadiving.guide",
      "last_qa_date": "2026-06-08"
    }
  },
  {
    "name": "אי הזבובים‎",
    "lat": 32.9188859,
    "lon": 35.0731511,
    "depth": 15,
    "site_type": "reef",
    "entry_type": "boat",
    "difficulty": "Intermediate",
    "tags": {
      "source": "community_contribution",
      "addedBy": "JaiBar",
      "contribution_ref": "github_issue_52",
      "validated": "true",
      "validation_source": "he.wikipedia.org,putsker.co.il,scubadiving.guide",
      "last_qa_date": "2026-06-08"
    }
  },
  {
    "name": "ריף שקמונה",
    "lat": 32.8308608,
    "lon": 34.9507849,
    "depth": 12,
    "site_type": "reef",
    "entry_type": "shore",
    "difficulty": "Beginner",
    "tags": {
      "source": "community_contribution",
      "addedBy": "JaiBar",
      "contribution_ref": "github_issue_52",
      "validated": "true",
      "validation_source": "parks.org.il,scubadiving.guide,alexinwanderland.com",
      "last_qa_date": "2026-06-08"
    }
  },
  {
    "name": "חדרה - כרישים",
    "lat": 32.4657547,
    "lon": 34.8829914,
    "depth": 20,
    "site_type": "reef",
    "entry_type": "boat",
    "difficulty": "Advanced",
    "tags": {
      "source": "community_contribution",
      "addedBy": "JaiBar",
      "contribution_ref": "github_issue_52",
      "validated": "true",
      "validation_source": "caesarea-diving.com,scubadiving.guide,alexinwanderland.com",
      "last_qa_date": "2026-06-08"
    }
  },
  {
    "name": "מפרץ נחשולים",
    "lat": 32.6111024,
    "lon": 34.914722,
    "depth": 8,
    "site_type": "reef",
    "entry_type": "shore",
    "difficulty": "Beginner",
    "tags": {
      "source": "community_contribution",
      "addedBy": "JaiBar",
      "contribution_ref": "github_issue_52",
      "validated": "true",
      "validation_source": "putsker.co.il,scubadiving.guide,alexinwanderland.com",
      "last_qa_date": "2026-06-08"
    }
  },
  {
    "name": "קיסריה אי דרומי",
    "lat": 32.5078735,
    "lon": 34.8909473,
    "depth": 7,
    "site_type": "reef",
    "entry_type": "shore",
    "difficulty": "Beginner",
    "tags": {
      "source": "community_contribution",
      "addedBy": "JaiBar",
      "contribution_ref": "github_issue_52",
      "validated": "true",
      "validation_source": "caesarea-diving.com,scubadiving.guide,alexinwanderland.com",
      "last_qa_date": "2026-06-08"
    }
  },
  {
    "name": "קיסריה - עוגנים",
    "lat": 32.5031816,
    "lon": 34.887498,
    "depth": 6,
    "site_type": "reef",
    "entry_type": "shore",
    "difficulty": "Beginner",
    "tags": {
      "source": "community_contribution",
      "addedBy": "JaiBar",
      "contribution_ref": "github_issue_52",
      "validated": "true",
      "validation_source": "caesarea-diving.com,scubadiving.guide,alexinwanderland.com",
      "last_qa_date": "2026-06-08"
    }
  },
  {
    "name": "קיסריה דרום ‎",
    "lat": 32.4972569,
    "lon": 34.8886032,
    "depth": 7,
    "site_type": "reef",
    "entry_type": "shore",
    "difficulty": "Beginner",
    "tags": {
      "source": "community_contribution",
      "addedBy": "JaiBar",
      "contribution_ref": "github_issue_52",
      "validated": "true",
      "validation_source": "caesarea-diving.com,scubadiving.guide,alexinwanderland.com",
      "last_qa_date": "2026-06-08"
    }
  },
  {
    "name": "שדות ים - הגרנד קניון",
    "lat": 32.4910945,
    "lon": 34.8862434,
    "depth": 20,
    "site_type": "cave",
    "entry_type": "shore",
    "difficulty": "Intermediate",
    "tags": {
      "source": "community_contribution",
      "addedBy": "JaiBar",
      "contribution_ref": "github_issue_52",
      "validated": "true",
      "validation_source": "marsci.haifa.ac.il,caesarea-diving.com,scubadiving.guide",
      "last_qa_date": "2026-06-08"
    }
  },
  {
    "name": "ספינת הדיג נץ (אלישבע)",
    "lat": 32.6500267,
    "lon": 34.9255151,
    "depth": 10,
    "site_type": "wreck",
    "entry_type": "shore",
    "difficulty": "Beginner",
    "tags": {
      "source": "community_contribution",
      "addedBy": "JaiBar",
      "contribution_ref": "github_issue_52",
      "validated": "true",
      "validation_source": "haipo.co.il,scubadiving.guide,alexinwanderland.com",
      "last_qa_date": "2026-06-08"
    }
  },
  {
    "name": "המערה הכחולה",
    "lat": 32.645417,
    "lon": 34.9222263,
    "depth": 12,
    "site_type": "cave",
    "entry_type": "shore",
    "difficulty": "Intermediate",
    "tags": {
      "source": "community_contribution",
      "addedBy": "JaiBar",
      "contribution_ref": "github_issue_52",
      "validated": "false",
      "last_qa_date": "2026-06-08",
      "qa_note": "No sources found beyond coordinates. Cannot validate."
    }
  },
  {
    "name": "מכמורת הריף הקרוב",
    "lat": 32.413946,
    "lon": 34.8684098,
    "depth": 15,
    "site_type": "reef",
    "entry_type": "shore",
    "difficulty": "Intermediate",
    "tags": {
      "source": "community_contribution",
      "addedBy": "JaiBar",
      "contribution_ref": "github_issue_52",
      "validated": "false",
      "last_qa_date": "2026-06-08",
      "qa_note": "Previous 'geographic_analysis' is not a real source. No published dive description found."
    }
  },
  {
    "name": "מכמורת הריף הרחוק",
    "lat": 32.4183904,
    "lon": 34.8639008,
    "depth": 20,
    "site_type": "reef",
    "entry_type": "shore",
    "difficulty": "Intermediate",
    "tags": {
      "source": "community_contribution",
      "addedBy": "JaiBar",
      "contribution_ref": "github_issue_52",
      "validated": "false",
      "last_qa_date": "2026-06-08",
      "qa_note": "Previous 'geographic_analysis' is not a real source. No published dive description found."
    }
  },
  {
    "name": "SS Hilda",
    "lat": 32.2161919,
    "lon": 34.8139497,
    "depth": 25,
    "site_type": "wreck",
    "entry_type": "boat",
    "difficulty": "Intermediate",
    "tags": {
      "source": "community_contribution",
      "addedBy": "JaiBar",
      "contribution_ref": "github_issue_52",
      "validated": "false",
      "last_qa_date": "2026-06-08",
      "qa_note": "Previous 'geographic_analysis' is not a real source. No published dive description found for SS Hilda at this location."
    }
  },
  {
    "name": "אפולוניה",
    "lat": 32.1950291,
    "lon": 34.8046825,
    "depth": 10,
    "site_type": "reef",
    "entry_type": "shore",
    "difficulty": "Intermediate",
    "tags": {
      "source": "community_contribution",
      "addedBy": "JaiBar",
      "contribution_ref": "github_issue_52",
      "validated": "true",
      "validation_source": "tripadvisor.com,scubadiving.guide,alexinwanderland.com",
      "last_qa_date": "2026-06-08"
    }
  },
  {
    "name": "סידנא עלי",
    "lat": 32.1887825,
    "lon": 34.8022041,
    "depth": 15,
    "site_type": "reef",
    "entry_type": "shore",
    "difficulty": "Intermediate",
    "tags": {
      "source": "community_contribution",
      "addedBy": "JaiBar",
      "contribution_ref": "github_issue_52",
      "validated": "true",
      "validation_source": "divernet.com,scubadiving.guide,alexinwanderland.com",
      "last_qa_date": "2026-06-08"
    }
  },
  {
    "name": "תל אביב - ריף גורדון‎",
    "lat": 32.086374,
    "lon": 34.762909,
    "depth": 12,
    "site_type": "reef",
    "entry_type": "shore",
    "difficulty": "Beginner",
    "tags": {
      "source": "community_contribution",
      "addedBy": "JaiBar",
      "contribution_ref": "github_issue_52",
      "validated": "true",
      "validation_source": "zentacle.com,scubadiving.guide,alexinwanderland.com",
      "last_qa_date": "2026-06-08"
    }
  },
  {
    "name": "ריף ציפור",
    "lat": 32.093191,
    "lon": 34.765205,
    "depth": 12,
    "site_type": "reef",
    "entry_type": "shore",
    "difficulty": "Beginner",
    "tags": {
      "source": "community_contribution",
      "addedBy": "JaiBar",
      "contribution_ref": "github_issue_52",
      "validated": "true",
      "validation_source": "zentacle.com,scubadiving.guide,alexinwanderland.com",
      "last_qa_date": "2026-06-08"
    }
  },
  {
    "name": "תל אביב -צינור רידיג‎",
    "lat": 32.111078,
    "lon": 34.771557,
    "depth": 15,
    "site_type": "reef",
    "entry_type": "shore",
    "difficulty": "Intermediate",
    "tags": {
      "source": "community_contribution",
      "addedBy": "JaiBar",
      "contribution_ref": "github_issue_52",
      "validated": "true",
      "validation_source": "zentacle.com,scubadiving.guide,alexinwanderland.com",
      "last_qa_date": "2026-06-08"
    }
  },
  {
    "name": "מערת הצמיגים",
    "lat": 32.0406885,
    "lon": 34.7428586,
    "depth": 15,
    "site_type": "cave",
    "entry_type": "shore",
    "difficulty": "Intermediate",
    "tags": {
      "source": "community_contribution",
      "addedBy": "JaiBar",
      "contribution_ref": "github_issue_52",
      "validated": "false",
      "last_qa_date": "2026-06-08",
      "qa_note": "Previous 'geographic_analysis' is not a real source. No published dive description found."
    }
  },
  {
    "name": "חוף הסלע",
    "lat": 32.0232891,
    "lon": 34.7368807,
    "depth": 10,
    "site_type": "reef",
    "entry_type": "shore",
    "difficulty": "Beginner",
    "tags": {
      "source": "community_contribution",
      "addedBy": "JaiBar",
      "contribution_ref": "github_issue_52",
      "validated": "false",
      "last_qa_date": "2026-06-08",
      "qa_note": "Previous 'geographic_analysis' is not a real source. No published dive description found."
    }
  },
  {
    "name": "הדוברה בפלמחים",
    "lat": 31.9310928,
    "lon": 34.6960598,
    "depth": 7,
    "site_type": "wreck",
    "entry_type": "shore",
    "difficulty": "Beginner",
    "tags": {
      "source": "community_contribution",
      "addedBy": "JaiBar",
      "contribution_ref": "github_issue_52",
      "validated": "true",
      "validation_source": "divessi.com,scubadiving.guide,alexinwanderland.com",
      "last_qa_date": "2026-06-08"
    }
  },
  {
    "name": "פלמחים - הרוקי",
    "lat": 31.9242614,
    "lon": 34.6909471,
    "depth": 7,
    "site_type": "reef",
    "entry_type": "shore",
    "difficulty": "Beginner",
    "tags": {
      "source": "community_contribution",
      "addedBy": "JaiBar",
      "contribution_ref": "github_issue_52",
      "validated": "true",
      "validation_source": "divessi.com,scubadiving.guide,alexinwanderland.com",
      "last_qa_date": "2026-06-08"
    }
  },
  {
    "name": "אשדוד - הדיונונים",
    "lat": 31.7932165,
    "lon": 34.6259998,
    "depth": 12,
    "site_type": "reef",
    "entry_type": "shore",
    "difficulty": "Beginner",
    "tags": {
      "source": "community_contribution",
      "addedBy": "JaiBar",
      "contribution_ref": "github_issue_52",
      "validated": "false",
      "last_qa_date": "2026-06-08",
      "qa_note": "Previous 'regional_diving_knowledge' is not an external source. Cannot validate — no published source found."
    }
  },
  {
    "name": "הנקרות ‎‎",
    "lat": 33.093124,
    "lon": 35.103797,
    "depth": 7,
    "site_type": "cave",
    "entry_type": "boat",
    "difficulty": "Advanced",
    "tags": {
      "source": "community_contribution",
      "addedBy": "JaiBar",
      "contribution_ref": "github_issue_52",
      "validated": "true",
      "validation_source": "indigo-club.co.il,mishmarhayam.com,en.wikipedia.org,zentacle.com",
      "last_qa_date": "2026-06-08"
    }
  },
  {
    "name": "קניון אכזיב",
    "lat": 33.0690873,
    "lon": 35.0933259,
    "depth": 30,
    "site_type": "wall",
    "entry_type": "boat",
    "difficulty": "Intermediate",
    "tags": {
      "source": "community_contribution",
      "addedBy": "JaiBar",
      "contribution_ref": "github_issue_52",
      "validated": "true",
      "validation_source": "indigo-club.co.il,mishmarhayam.com,divessi.com,zentacle.com",
      "last_qa_date": "2026-06-08"
    }
  },
  {
    "name": "המרכב",
    "lat": 33.0396078,
    "lon": 35.0852465,
    "depth": 8,
    "site_type": "wreck",
    "entry_type": "boat",
    "difficulty": "Intermediate",
    "tags": {
      "source": "community_contribution",
      "addedBy": "JaiBar",
      "contribution_ref": "github_issue_52",
      "validated": "true",
      "validation_source": "putsker.co.il,scubadiving.guide,alexinwanderland.com",
      "last_qa_date": "2026-06-08"
    }
  },
  {
    "name": "סטי\"ל אח\"י כידון ‎‎",
    "lat": 33.003049,
    "lon": 35.058403,
    "depth": 26,
    "site_type": "wreck",
    "entry_type": "boat",
    "difficulty": "Intermediate",
    "tags": {
      "source": "community_contribution",
      "addedBy": "JaiBar",
      "contribution_ref": "github_issue_52",
      "validated": "true",
      "validation_source": "putsker.co.il,justgottadive.com,ynetnews.com,scubadiving.guide",
      "last_qa_date": "2026-06-08"
    }
  },
  {
    "name": "הגוררת איתנה‎",
    "lat": 33.047378,
    "lon": 35.085697,
    "depth": 30,
    "site_type": "wreck",
    "entry_type": "boat",
    "difficulty": "Intermediate",
    "tags": {
      "source": "community_contribution",
      "addedBy": "JaiBar",
      "contribution_ref": "github_issue_52",
      "validated": "true",
      "validation_source": "justgottadive.com,scubadiving.guide,divessi.com",
      "last_qa_date": "2026-06-08"
    }
  },
  {
    "name": "המנוף בפולג‎‎",
    "lat": 32.2745167,
    "lon": 34.8032833,
    "depth": 20,
    "site_type": "wreck",
    "entry_type": "shore",
    "difficulty": "Intermediate",
    "tags": {
      "source": "community_contribution",
      "addedBy": "JaiBar",
      "contribution_ref": "github_issue_52",
      "validated": "false",
      "last_qa_date": "2026-06-08",
      "qa_note": "Previous 'geographic_analysis' is not a real source. No published dive description found."
    }
  },
  {
    "name": "ספינת גלעוז‎",
    "lat": 32.1777222,
    "lon": 34.7778889,
    "depth": 20,
    "site_type": "wreck",
    "entry_type": "boat",
    "difficulty": "Intermediate",
    "tags": {
      "source": "community_contribution",
      "addedBy": "JaiBar",
      "contribution_ref": "github_issue_52",
      "validated": "false",
      "last_qa_date": "2026-06-08",
      "qa_note": "Previous 'geographic_analysis' is not a real source. No published dive description found."
    }
  },
  {
    "name": "ריף המערה",
    "lat": 32.1748491,
    "lon": 34.7913388,
    "depth": 15,
    "site_type": "cave",
    "entry_type": "shore",
    "difficulty": "Intermediate",
    "tags": {
      "source": "community_contribution",
      "addedBy": "JaiBar",
      "contribution_ref": "github_issue_52",
      "validated": "false",
      "last_qa_date": "2026-06-08",
      "qa_note": "Previous 'geographic_analysis' is not a real source. No published dive description found."
    }
  },
  {
    "name": "ספינה טבועה גלרם",
    "lat": 31.8012761,
    "lon": 34.5956264,
    "depth": 25,
    "site_type": "wreck",
    "entry_type": "boat",
    "difficulty": "Intermediate",
    "tags": {
      "source": "community_contribution",
      "addedBy": "JaiBar",
      "contribution_ref": "github_issue_52",
      "validated": "false",
      "last_qa_date": "2026-06-08",
      "qa_note": "Previous 'nautical_chart_annotation' is not an external published source. Downgraded to false."
    }
  },
  {
    "name": "סלע טבעי 1",
    "lat": 31.69645,
    "lon": 34.5415441,
    "depth": 15,
    "site_type": "reef",
    "entry_type": "boat",
    "difficulty": "Intermediate",
    "tags": {
      "source": "community_contribution",
      "addedBy": "JaiBar",
      "contribution_ref": "github_issue_52",
      "validated": "false",
      "last_qa_date": "2026-06-08",
      "qa_note": "Previous 'regional_diving_knowledge' is not an external source. Cannot validate."
    }
  },
  {
    "name": "הענבר",
    "lat": 31.6890738,
    "lon": 34.5364801,
    "depth": 15,
    "site_type": "reef",
    "entry_type": "boat",
    "difficulty": "Intermediate",
    "tags": {
      "source": "community_contribution",
      "addedBy": "JaiBar",
      "contribution_ref": "github_issue_52",
      "validated": "false",
      "last_qa_date": "2026-06-08",
      "qa_note": "Previous 'regional_diving_knowledge' is not an external source. Cannot validate."
    }
  },
  {
    "name": "אשקלון - העוגנים",
    "lat": 31.6938209,
    "lon": 34.555792,
    "depth": 10,
    "site_type": "wreck",
    "entry_type": "boat",
    "difficulty": "Intermediate",
    "tags": {
      "source": "community_contribution",
      "addedBy": "JaiBar",
      "contribution_ref": "github_issue_52",
      "validated": "true",
      "validation_source": "en.wikipedia.org,academia.edu,jewishvirtuallibrary.org",
      "last_qa_date": "2026-06-08"
    }
  },
  {
    "name": "סלע טבעי 2",
    "lat": 31.6906075,
    "lon": 34.5256655,
    "depth": 15,
    "site_type": "reef",
    "entry_type": "boat",
    "difficulty": "Intermediate",
    "tags": {
      "source": "community_contribution",
      "addedBy": "JaiBar",
      "contribution_ref": "github_issue_52",
      "validated": "false",
      "last_qa_date": "2026-06-08",
      "qa_note": "Previous 'regional_diving_knowledge' is not an external source. Cannot validate."
    }
  },
  {
    "name": "The \"Corvette\"",
    "lat": 32.774141,
    "lon": 34.861164,
    "depth": 20,
    "site_type": "wreck",
    "entry_type": "boat",
    "difficulty": "Intermediate",
    "tags": {
      "source": "community_contribution",
      "addedBy": "JaiBar",
      "contribution_ref": "github_issue_52",
      "validated": "false",
      "last_qa_date": "2026-06-08",
      "qa_note": "Geographic_analysis is not a real source. No published dive description found."
    }
  },
  {
    "name": "דוברה הפוכה",
    "lat": 31.795306,
    "lon": 34.579124,
    "depth": 25,
    "site_type": "wreck",
    "entry_type": "boat",
    "difficulty": "Intermediate",
    "tags": {
      "source": "community_contribution",
      "addedBy": "JaiBar",
      "contribution_ref": "github_issue_52",
      "validated": "false",
      "last_qa_date": "2026-06-08",
      "qa_note": "Previous 'nautical_chart_annotation' is not an external published source. Downgraded to false."
    }
  },
  {
    "name": "אתר התחמושת",
    "lat": 32.126779,
    "lon": 34.757309,
    "depth": 15,
    "site_type": "wreck",
    "entry_type": "boat",
    "difficulty": "Intermediate",
    "tags": {
      "source": "community_contribution",
      "addedBy": "JaiBar",
      "contribution_ref": "github_issue_52",
      "validated": "false",
      "last_qa_date": "2026-06-08",
      "qa_note": "Geographic_analysis is not a real source. No published dive description found."
    }
  },
  {
    "name": "ברייר",
    "lat": 32.102644,
    "lon": 34.750443,
    "depth": 15,
    "site_type": "wreck",
    "entry_type": "boat",
    "difficulty": "Intermediate",
    "tags": {
      "source": "community_contribution",
      "addedBy": "JaiBar",
      "contribution_ref": "github_issue_52",
      "validated": "false",
      "last_qa_date": "2026-06-08",
      "qa_note": "Geographic_analysis is not a real source. No published dive description found."
    }
  },
  {
    "name": "צינור הגז",
    "lat": 32.092755,
    "lon": 34.745121,
    "depth": 15,
    "site_type": "reef",
    "entry_type": "shore",
    "difficulty": "Intermediate",
    "tags": {
      "source": "community_contribution",
      "addedBy": "JaiBar",
      "contribution_ref": "github_issue_52",
      "validated": "true",
      "validation_source": "zentacle.com,scubadiving.guide,alexinwanderland.com",
      "last_qa_date": "2026-06-08"
    }
  },
  {
    "name": "התעלה / הצלקת",
    "lat": 32.855509,
    "lon": 34.944592,
    "depth": 15,
    "site_type": "wall",
    "entry_type": "boat",
    "difficulty": "Intermediate",
    "tags": {
      "source": "community_contribution",
      "addedBy": "JaiBar",
      "contribution_ref": "github_issue_52",
      "validated": "false",
      "last_qa_date": "2026-06-08",
      "qa_note": "Geographic_analysis is not a real source. No published dive description found."
    }
  },
  {
    "name": "Sahir",
    "lat": 32.23894,
    "lon": 34.771729,
    "depth": 25,
    "site_type": "wreck",
    "entry_type": "boat",
    "difficulty": "Intermediate",
    "tags": {
      "source": "community_contribution",
      "addedBy": "JaiBar",
      "contribution_ref": "github_issue_52",
      "validated": "false",
      "last_qa_date": "2026-06-08",
      "qa_note": "Geographic_analysis is not a real source. No published dive description found."
    }
  },
  {
    "name": "גלרם‎",
    "lat": 31.801725,
    "lon": 34.601784,
    "depth": 25,
    "site_type": "wreck",
    "entry_type": "boat",
    "difficulty": "Intermediate",
    "tags": {
      "source": "community_contribution",
      "addedBy": "JaiBar",
      "contribution_ref": "github_issue_52",
      "validated": "false",
      "last_qa_date": "2026-06-08",
      "qa_note": "Previous 'nautical_chart_annotation' is not an external published source. Downgraded to false."
    }
  },
  {
    "name": "Cemal Ocan",
    "lat": 32.010114,
    "lon": 34.658089,
    "depth": 35,
    "site_type": "wreck",
    "entry_type": "boat",
    "difficulty": "Advanced",
    "tags": {
      "source": "community_contribution",
      "addedBy": "JaiBar",
      "contribution_ref": "github_issue_52",
      "validated": "false",
      "last_qa_date": "2026-06-08",
      "qa_note": "Geographic_analysis is not a real source. No published dive description found."
    }
  },
  {
    "name": "Foca",
    "lat": 32.83027,
    "lon": 34.814301,
    "depth": 20,
    "site_type": "wreck",
    "entry_type": "boat",
    "difficulty": "Intermediate",
    "tags": {
      "source": "community_contribution",
      "addedBy": "JaiBar",
      "contribution_ref": "github_issue_52",
      "validated": "false",
      "last_qa_date": "2026-06-08",
      "qa_note": "Geographic_analysis is not a real source. No published dive description found."
    }
  },
  {
    "name": "צוללת U372",
    "lat": 32.472695,
    "lon": 34.63028,
    "depth": 40,
    "site_type": "wreck",
    "entry_type": "boat",
    "difficulty": "Advanced",
    "tags": {
      "source": "community_contribution",
      "addedBy": "JaiBar",
      "contribution_ref": "github_issue_52",
      "validated": "true",
      "validation_source": "uboat.net,en.wikipedia.org,hmstetcott.co.uk",
      "last_qa_date": "2026-06-08"
    }
  },
  {
    "name": "Electro Dag",
    "lat": 32.152217,
    "lon": 34.700489,
    "depth": 25,
    "site_type": "wreck",
    "entry_type": "boat",
    "difficulty": "Intermediate",
    "tags": {
      "source": "community_contribution",
      "addedBy": "JaiBar",
      "contribution_ref": "github_issue_52",
      "validated": "false",
      "last_qa_date": "2026-06-08",
      "qa_note": "Geographic_analysis is not a real source. No published dive description found."
    }
  },
  {
    "name": "NIKOLAOS K",
    "lat": 32.069774,
    "lon": 34.491577,
    "depth": 40,
    "site_type": "wreck",
    "entry_type": "boat",
    "difficulty": "Advanced",
    "tags": {
      "source": "community_contribution",
      "addedBy": "JaiBar",
      "contribution_ref": "github_issue_52",
      "validated": "false",
      "last_qa_date": "2026-06-08",
      "qa_note": "Geographic_analysis is not a real source. No published dive description found."
    }
  },
  {
    "name": "אשקלון 5",
    "lat": 31.8264722,
    "lon": 34.5768333,
    "depth": 25,
    "site_type": "wreck",
    "entry_type": "boat",
    "difficulty": "Intermediate",
    "tags": {
      "source": "community_contribution",
      "addedBy": "JaiBar",
      "contribution_ref": "github_issue_52",
      "validated": "false",
      "last_qa_date": "2026-06-08",
      "qa_note": "Previous 'nautical_chart_annotation' is not an external published source. Downgraded to false."
    }
  },
  {
    "name": "הדרג'ר",
    "lat": 32.092173,
    "lon": 34.758854,
    "depth": 15,
    "site_type": "wreck",
    "entry_type": "boat",
    "difficulty": "Intermediate",
    "tags": {
      "source": "community_contribution",
      "addedBy": "JaiBar",
      "contribution_ref": "github_issue_52",
      "validated": "false",
      "last_qa_date": "2026-06-08",
      "qa_note": "Geographic_analysis is not a real source. No published dive description found."
    }
  },
  {
    "name": "אלטלנה Altalena‎",
    "lat": 32.194209,
    "lon": 34.329529,
    "depth": 300,
    "site_type": "wreck",
    "entry_type": "boat",
    "difficulty": "Advanced",
    "tags": {
      "source": "community_contribution",
      "addedBy": "JaiBar",
      "contribution_ref": "github_issue_52",
      "validated": "true",
      "validation_source": "en.wikipedia.org,timesofisrael.com,ynetnews.com",
      "last_qa_date": "2026-06-08"
    }
  },
  {
    "name": "דרג'ר",
    "lat": 32.877713,
    "lon": 34.93412,
    "depth": 20,
    "site_type": "wreck",
    "entry_type": "boat",
    "difficulty": "Intermediate",
    "tags": {
      "source": "community_contribution",
      "addedBy": "JaiBar",
      "contribution_ref": "github_issue_52",
      "validated": "false",
      "last_qa_date": "2026-06-08",
      "qa_note": "Geographic_analysis is not a real source. No published dive description found."
    }
  },
  {
    "name": "אמיר פארוק",
    "lat": 31.591404,
    "lon": 34.324036,
    "depth": 40,
    "site_type": "wreck",
    "entry_type": "boat",
    "difficulty": "Advanced",
    "tags": {
      "source": "community_contribution",
      "addedBy": "JaiBar",
      "contribution_ref": "github_issue_52",
      "validated": "true",
      "validation_source": "en.wikipedia.org,jewishvirtuallibrary.org,machal.org.il",
      "last_qa_date": "2026-06-08",
      "qa_note": "Historical sinking confirmed by 3 independent sources but no dive-specific source found. Depth unconfirmed. Marked validated=true for historical data only."
    }
  },
  {
    "name": "לאוניד",
    "lat": 32.871946,
    "lon": 34.961586,
    "depth": 22,
    "site_type": "wreck",
    "entry_type": "boat",
    "difficulty": "Intermediate",
    "tags": {
      "source": "community_contribution",
      "addedBy": "JaiBar",
      "contribution_ref": "github_issue_52",
      "validated": "false",
      "last_qa_date": "2026-06-08",
      "qa_note": "Geographic_analysis is not a real source. No published dive description found."
    }
  }
]
