[
  {
    "name": "Yatouche",
    "lat": 29.5038889,
    "lon": 34.9197222,
    "osm_id": 663869876,
    "osm_type": "node",
    "depth": 20,
    "site_type": "wreck",
    "entry_type": "boat",
    "difficulty": "Intermediate",
    "tags": {
      "historic": "wreck",
      "name": "Yatouche",
      "name:en": "Yatouche",
      "seamark:type": "wreck",
      "sport": "scuba_diving"
    }
  },
  {
    "name": "Cedar Pride",
    "lat": 29.5216667,
    "lon": 34.9883333,
    "osm_id": 663869877,
    "osm_type": "node",
    "depth": 27,
    "site_type": "wreck",
    "entry_type": "shore",
    "difficulty": "Intermediate",
    "tags": {
      "historic": "wreck",
      "name": "Cedar Pride",
      "seamark:type": "wreck",
      "sport": "scuba_diving"
    }
  },
  {
    "name": "סופה",
    "lat": 29.5447222,
    "lon": 34.9539555,
    "osm_id": 663869878,
    "osm_type": "node",
    "depth": 30,
    "site_type": "wreck",
    "entry_type": "boat",
    "difficulty": "Intermediate",
    "tags": {
      "historic": "wreck",
      "name": "סופה",
      "name:en": "Soufa",
      "name:he": "סופה",
      "seamark:type": "wreck",
      "sport": "scuba_diving"
    }
  },
  {
    "name": "Japanese Gardens Coral Reefs",
    "lat": 29.429928,
    "lon": 34.97325,
    "osm_id": 2374261090,
    "osm_type": "node",
    "depth": 15,
    "site_type": "reef",
    "entry_type": "shore",
    "difficulty": "Beginner",
    "tags": {
      "name": "Japanese Gardens Coral Reefs",
      "sport": "scuba_diving"
    }
  },
  {
    "name": "Cedar Pride Shipwreck",
    "lat": 29.4310657,
    "lon": 34.9731609,
    "osm_id": 4329102691,
    "osm_type": "node",
    "depth": 27,
    "site_type": "wreck",
    "entry_type": "shore",
    "difficulty": "Intermediate",
    "tags": {
      "name": "Cedar Pride Shipwreck",
      "sport": "scuba_diving",
      "tourism": "attraction"
    }
  },
  {
    "name": "Gorgon 1",
    "lat": 29.426193,
    "lon": 34.9721236,
    "osm_id": 5504662457,
    "osm_type": "node",
    "depth": 20,
    "site_type": "reef",
    "entry_type": "boat",
    "difficulty": "Intermediate",
    "tags": {
      "name": "Gorgon 1",
      "sport": "scuba_diving"
    }
  },
  {
    "name": "Tank",
    "lat": 29.4187751,
    "lon": 34.9716597,
    "osm_id": 5522700737,
    "osm_type": "node",
    "depth": 20,
    "site_type": "reef",
    "entry_type": "boat",
    "difficulty": "Intermediate",
    "tags": {
      "name": "Tank",
      "sport": "scuba_diving",
      "tourism": "attraction"
    }
  },
  {
    "name": "Plane wreck",
    "lat": 29.4180629,
    "lon": 34.97162,
    "osm_id": 5522700738,
    "osm_type": "node",
    "depth": 20,
    "site_type": "wreck",
    "entry_type": "boat",
    "difficulty": "Intermediate",
    "tags": {
      "name": "Plane wreck",
      "sport": "scuba_diving",
      "tourism": "attraction"
    }
  },
  {
    "name": "Rainbow reef",
    "lat": 29.4325243,
    "lon": 34.9737847,
    "osm_id": 5603008074,
    "osm_type": "node",
    "depth": 20,
    "site_type": "reef",
    "entry_type": "boat",
    "difficulty": "Intermediate",
    "tags": {
      "name": "Rainbow reef",
      "sport": "scuba_diving",
      "tourism": "attraction"
    }
  },
  {
    "name": "אתר צלילה -סטי\"ל (24 מטר)",
    "lat": 29.5145068,
    "lon": 34.9270007,
    "osm_id": 8577535117,
    "osm_type": "node",
    "depth": 20,
    "site_type": "wreck",
    "entry_type": "boat",
    "difficulty": "Intermediate",
    "tags": {
      "historic": "wreck",
      "name": "אתר צלילה -סטי\"ל (24 מטר)",
      "name:he": "אתר צלילה -סטי\"ל (24 מטר)",
      "seamark:type": "wreck",
      "sport": "scuba_diving",
      "tourism": "attraction"
    }
  }
]
