[
  {
    "name": "Yatouche",
    "lat": 29.5038889,
    "lon": 34.9197222,
    "osm_id": 663869876,
    "osm_type": "node",
    "depth": 20,
    "site_type": "wreck",
    "entry_type": "shore",
    "difficulty": "Intermediate",
    "tags": {
      "historic": "wreck",
      "name": "Yatouche",
      "name:en": "Yatouche",
      "seamark:type": "wreck",
      "sport": "scuba_diving",
      "validated": "true",
      "validation_source": "perplexity"
    },
    "depth_max": 25
  },
  {
    "name": "Cedar Pride",
    "lat": 29.5216667,
    "lon": 34.9883333,
    "osm_id": 663869877,
    "osm_type": "node",
    "depth": 27,
    "site_type": "wreck",
    "entry_type": "shore",
    "difficulty": "Intermediate",
    "tags": {
      "historic": "wreck",
      "name": "Cedar Pride",
      "seamark:type": "wreck",
      "sport": "scuba_diving",
      "validated": "true",
      "validation_source": "perplexity"
    }
  },
  {
    "name": "Soufa",
    "lat": 29.5447222,
    "lon": 34.9539555,
    "osm_id": 663869878,
    "osm_type": "node",
    "depth": 30,
    "site_type": "wreck",
    "entry_type": "shore",
    "difficulty": "Intermediate",
    "tags": {
      "historic": "wreck",
      "name": "סופה",
      "name:en": "Soufa",
      "name:he": "סופה",
      "seamark:type": "wreck",
      "sport": "scuba_diving",
      "validated": "true",
      "validation_source": "perplexity"
    },
    "depth_max": 20
  },
  {
    "name": "Japanese Gardens Coral Reefs",
    "lat": 29.429928,
    "lon": 34.97325,
    "osm_id": 2374261090,
    "osm_type": "node",
    "depth": 15,
    "site_type": "reef",
    "entry_type": "shore",
    "difficulty": "Beginner",
    "tags": {
      "name": "Japanese Gardens Coral Reefs",
      "sport": "scuba_diving",
      "validated": "true",
      "validation_source": "perplexity"
    }
  },
  {
    "name": "Gorgon 1",
    "lat": 29.426193,
    "lon": 34.9721236,
    "osm_id": 5504662457,
    "osm_type": "node",
    "depth": 18,
    "site_type": "reef",
    "entry_type": "boat",
    "difficulty": "Beginner",
    "tags": {
      "name": "Gorgon 1",
      "sport": "scuba_diving",
      "validated": "true",
      "validation_source": "perplexity"
    }
  },
  {
    "name": "Tank",
    "lat": 29.4187751,
    "lon": 34.9716597,
    "osm_id": 5522700737,
    "osm_type": "node",
    "depth": 6,
    "site_type": "wreck",
    "entry_type": "boat",
    "difficulty": "Beginner",
    "tags": {
      "name": "Tank",
      "sport": "scuba_diving",
      "tourism": "attraction",
      "validated": "true",
      "validation_source": "perplexity"
    }
  },
  {
    "name": "Plane wreck",
    "lat": 29.4180629,
    "lon": 34.97162,
    "osm_id": 5522700738,
    "osm_type": "node",
    "depth": 17,
    "site_type": "wreck",
    "entry_type": "boat",
    "difficulty": "Beginner",
    "tags": {
      "name": "Plane wreck",
      "sport": "scuba_diving",
      "tourism": "attraction",
      "validated": "true",
      "validation_source": "perplexity"
    }
  },
  {
    "name": "Rainbow reef",
    "lat": 29.4325243,
    "lon": 34.9737847,
    "osm_id": 5603008074,
    "osm_type": "node",
    "depth": 18,
    "site_type": "reef",
    "entry_type": "boat",
    "difficulty": "Beginner",
    "tags": {
      "name": "Rainbow reef",
      "sport": "scuba_diving",
      "tourism": "attraction",
      "validated": "true",
      "validation_source": "perplexity"
    }
  },
  {
    "name": "Underwater Military Museum",
    "lat": 29.5145068,
    "lon": 34.9270007,
    "osm_id": 8577535117,
    "osm_type": "node",
    "depth": 20,
    "site_type": "wreck",
    "entry_type": "boat",
    "difficulty": "Beginner",
    "tags": {
      "historic": "wreck",
      "name": "אתר צלילה -סטי\"ל (24 מטר)",
      "name:he": "אתר צלילה -סטי\"ל (24 מטר)",
      "seamark:type": "wreck",
      "sport": "scuba_diving",
      "tourism": "attraction",
      "validated": "true",
      "validation_source": "perplexity"
    }
  },
  {
    "name": "The Gardens",
    "lat": 29.3996183,
    "lon": 34.9661243,
    "depth": null,
    "site_type": "",
    "entry_type": "",
    "difficulty": "",
    "tags": {
      "source": "community_contribution",
      "addedBy": "JaiBar",
      "contribution_ref": "github_issue_52"
    }
  },
  {
    "name": "First Bay",
    "lat": 29.4439235,
    "lon": 34.9687958,
    "depth": null,
    "site_type": "",
    "entry_type": "",
    "difficulty": "",
    "tags": {
      "source": "community_contribution",
      "addedBy": "JaiBar",
      "contribution_ref": "github_issue_52"
    }
  },
  {
    "name": "Blue Coral",
    "lat": 29.4116941,
    "lon": 34.977057,
    "depth": null,
    "site_type": "",
    "entry_type": "",
    "difficulty": "",
    "tags": {
      "source": "community_contribution",
      "addedBy": "JaiBar",
      "contribution_ref": "github_issue_52"
    }
  },
  {
    "name": "Kiwi reef",
    "lat": 29.4065724,
    "lon": 34.9758983,
    "depth": null,
    "site_type": "",
    "entry_type": "",
    "difficulty": "",
    "tags": {
      "source": "community_contribution",
      "addedBy": "JaiBar",
      "contribution_ref": "github_issue_52"
    }
  },
  {
    "name": "Cazar reef",
    "lat": 29.4485576,
    "lon": 34.9693322,
    "depth": null,
    "site_type": "",
    "entry_type": "",
    "difficulty": "",
    "tags": {
      "source": "community_contribution",
      "addedBy": "JaiBar",
      "contribution_ref": "github_issue_52"
    }
  },
  {
    "name": "Saudi border",
    "lat": 29.3607735,
    "lon": 34.9647188,
    "depth": null,
    "site_type": "",
    "entry_type": "",
    "difficulty": "",
    "tags": {
      "source": "community_contribution",
      "addedBy": "JaiBar",
      "contribution_ref": "github_issue_52"
    }
  }
]
