[
  {
    "name": "Pantai Merah",
    "lat": -8.6009657,
    "lon": 119.5261842,
    "osm_id": 1485422409,
    "osm_type": "node",
    "depth": null,
    "site_type": "reef",
    "entry_type": null,
    "difficulty": null,
    "tags": {
      "name": "Pantai Merah",
      "scuba_diving:type:reef": "yes",
      "sport": "scuba_diving"
    }
  },
  {
    "name": "Manta Point dive site",
    "lat": -8.5415535,
    "lon": 119.5997228,
    "osm_id": 3948869068,
    "osm_type": "node",
    "depth": null,
    "site_type": "reef",
    "entry_type": null,
    "difficulty": null,
    "tags": {
      "name": "Manta Point dive site",
      "sport": "scuba_diving"
    }
  },
  {
    "name": "Mawan",
    "lat": -8.558126,
    "lon": 119.6361023,
    "osm_id": 3948869069,
    "osm_type": "node",
    "depth": null,
    "site_type": "reef",
    "entry_type": null,
    "difficulty": null,
    "tags": {
      "name": "Mawan",
      "sport": "scuba_diving"
    }
  },
  {
    "name": "Crystal Bay Dive Site",
    "lat": -8.4472423,
    "lon": 119.5682314,
    "osm_id": 5114515124,
    "osm_type": "node",
    "depth": null,
    "site_type": "reef",
    "entry_type": null,
    "difficulty": null,
    "tags": {
      "name": "Crystal Bay Dive Site",
      "sport": "scuba_diving",
      "tourism": "attraction"
    }
  },
  {
    "name": "Pengah Kecil",
    "lat": -8.5769535,
    "lon": 119.6808266,
    "osm_id": 5114515322,
    "osm_type": "node",
    "depth": null,
    "site_type": "reef",
    "entry_type": null,
    "difficulty": null,
    "tags": {
      "name": "Pengah Kecil",
      "name:de": "Pengah Kecil",
      "sport": "scuba_diving",
      "tourism": "attraction"
    }
  },
  {
    "name": "Siaba Besar dive site",
    "lat": -8.558211,
    "lon": 119.6450121,
    "osm_id": 5114515324,
    "osm_type": "node",
    "depth": null,
    "site_type": "reef",
    "entry_type": null,
    "difficulty": null,
    "tags": {
      "name": "Siaba Besar dive site",
      "name:de": "Siaba Besar",
      "sport": "scuba_diving",
      "tourism": "attraction"
    }
  },
  {
    "name": "Cystal Rock Dive Site",
    "lat": -8.4416648,
    "lon": 119.5677822,
    "osm_id": 5767096953,
    "osm_type": "node",
    "depth": null,
    "site_type": "reef",
    "entry_type": null,
    "difficulty": null,
    "tags": {
      "name": "Cystal Rock Dive Site",
      "scuba_diving:dive_spot": "yes",
      "sport": "scuba_diving",
      "tourism": "attraction"
    }
  },
  {
    "name": "The Cauldron Dive Site",
    "lat": -8.4609097,
    "lon": 119.5633723,
    "osm_id": 5875544788,
    "osm_type": "node",
    "depth": null,
    "site_type": "reef",
    "entry_type": null,
    "difficulty": null,
    "tags": {
      "alt_name": "Shot gun",
      "name": "The Cauldron Dive Site",
      "name:en": "The Cauldron Dive Site",
      "scuba_diving:dive_spot": "yes",
      "scuba_diving:entry": "Boat",
      "scuba_diving:name": "The Cauldron",
      "scuba_diving:type": "drift",
      "sport": "scuba_diving"
    }
  },
  {
    "name": "Batu Tiga Dive Site",
    "lat": -8.5996016,
    "lon": 119.5728673,
    "osm_id": 7182686142,
    "osm_type": "node",
    "depth": null,
    "site_type": "reef",
    "entry_type": null,
    "difficulty": null,
    "tags": {
      "name": "Batu Tiga Dive Site",
      "sport": "scuba_diving"
    }
  },
  {
    "name": "Bonsai dive site",
    "lat": -8.6034515,
    "lon": 119.6544647,
    "osm_id": 7182733952,
    "osm_type": "node",
    "depth": null,
    "site_type": "reef",
    "entry_type": null,
    "difficulty": null,
    "tags": {
      "name": "Bonsai dive site",
      "sport": "scuba_diving"
    }
  },
  {
    "name": "3 Sisters",
    "lat": -8.6881122,
    "lon": 119.5736556,
    "osm_id": 7182742081,
    "osm_type": "node",
    "depth": null,
    "site_type": "reef",
    "entry_type": null,
    "difficulty": null,
    "tags": {
      "name": "3 Sisters",
      "sport": "scuba_diving"
    }
  },
  {
    "name": "Sabayor Kecil",
    "lat": -8.5109788,
    "lon": 119.695278,
    "osm_id": 7182749565,
    "osm_type": "node",
    "depth": null,
    "site_type": "reef",
    "entry_type": null,
    "difficulty": null,
    "tags": {
      "name": "Sabayor Kecil",
      "sport": "scuba_diving"
    }
  },
  {
    "name": "Mini Wall",
    "lat": -8.5081987,
    "lon": 119.7040058,
    "osm_id": 7182750968,
    "osm_type": "node",
    "depth": null,
    "site_type": "wall",
    "entry_type": null,
    "difficulty": null,
    "tags": {
      "name": "Mini Wall",
      "sport": "scuba_diving"
    }
  },
  {
    "name": "Pillarsteen",
    "lat": -8.6946259,
    "lon": 119.5675945,
    "osm_id": 7182756520,
    "osm_type": "node",
    "depth": null,
    "site_type": "reef",
    "entry_type": null,
    "difficulty": null,
    "tags": {
      "name": "Pillarsteen",
      "sport": "scuba_diving"
    }
  },
  {
    "name": "Tatawa Besar dive site",
    "lat": -8.5083587,
    "lon": 119.6397238,
    "osm_id": 7182756978,
    "osm_type": "node",
    "depth": null,
    "site_type": "reef",
    "entry_type": null,
    "difficulty": null,
    "tags": {
      "name": "Tatawa Besar dive site",
      "sport": "scuba_diving"
    }
  },
  {
    "name": "Tatawa Kecil dive site",
    "lat": -8.5252252,
    "lon": 119.6332396,
    "osm_id": 7182760644,
    "osm_type": "node",
    "depth": null,
    "site_type": "reef",
    "entry_type": null,
    "difficulty": null,
    "tags": {
      "name": "Tatawa Kecil dive site",
      "sport": "scuba_diving"
    }
  },
  {
    "name": "Indihiang",
    "lat": -8.6520619,
    "lon": 119.4960867,
    "osm_id": 7182760645,
    "osm_type": "node",
    "depth": null,
    "site_type": "reef",
    "entry_type": null,
    "difficulty": null,
    "tags": {
      "name": "Indihiang",
      "sport": "scuba_diving"
    }
  },
  {
    "name": "Gaja Rock dive site",
    "lat": -8.7451021,
    "lon": 119.4825409,
    "osm_id": 7182762315,
    "osm_type": "node",
    "depth": null,
    "site_type": "reef",
    "entry_type": null,
    "difficulty": null,
    "tags": {
      "name": "Gaja Rock dive site",
      "sport": "scuba_diving"
    }
  },
  {
    "name": "Loh Namu",
    "lat": -8.641888,
    "lon": 119.4868791,
    "osm_id": 7182769497,
    "osm_type": "node",
    "depth": null,
    "site_type": "reef",
    "entry_type": null,
    "difficulty": null,
    "tags": {
      "name": "Loh Namu",
      "sport": "scuba_diving"
    }
  },
  {
    "name": "Pink Beach",
    "lat": -8.60391,
    "lon": 119.5184013,
    "osm_id": 7182770013,
    "osm_type": "node",
    "depth": null,
    "site_type": "reef",
    "entry_type": null,
    "difficulty": null,
    "tags": {
      "name": "Pink Beach",
      "sport": "scuba_diving"
    }
  },
  {
    "name": "Wainilu",
    "lat": -8.6255978,
    "lon": 119.7074961,
    "osm_id": 7182771889,
    "osm_type": "node",
    "depth": null,
    "site_type": "reef",
    "entry_type": null,
    "difficulty": null,
    "tags": {
      "name": "Wainilu",
      "sport": "scuba_diving"
    }
  },
  {
    "name": "Loh Sera dive site",
    "lat": -8.7355061,
    "lon": 119.4569802,
    "osm_id": 7182771890,
    "osm_type": "node",
    "depth": null,
    "site_type": "reef",
    "entry_type": null,
    "difficulty": null,
    "tags": {
      "name": "Loh Sera dive site",
      "sport": "scuba_diving"
    }
  },
  {
    "name": "Tanjung Loh Sera dive site",
    "lat": -8.7432085,
    "lon": 119.4720907,
    "osm_id": 7182774875,
    "osm_type": "node",
    "depth": null,
    "site_type": "reef",
    "entry_type": null,
    "difficulty": null,
    "tags": {
      "name": "Tanjung Loh Sera dive site",
      "sport": "scuba_diving"
    }
  },
  {
    "name": "Gindang",
    "lat": -8.6108571,
    "lon": 119.7197489,
    "osm_id": 7182785203,
    "osm_type": "node",
    "depth": null,
    "site_type": "reef",
    "entry_type": null,
    "difficulty": null,
    "tags": {
      "name": "Gindang",
      "sport": "scuba_diving"
    }
  },
  {
    "name": "Payong",
    "lat": -8.6804164,
    "lon": 119.6057521,
    "osm_id": 7182786669,
    "osm_type": "node",
    "depth": null,
    "site_type": "reef",
    "entry_type": null,
    "difficulty": null,
    "tags": {
      "name": "Payong",
      "sport": "scuba_diving"
    }
  },
  {
    "name": "Sabolon besar dive site",
    "lat": -8.3926698,
    "lon": 119.8068523,
    "osm_id": 8022562467,
    "osm_type": "node",
    "depth": null,
    "site_type": "reef",
    "entry_type": null,
    "difficulty": null,
    "tags": {
      "name": "Sabolon besar dive site",
      "sport": "scuba_diving"
    }
  },
  {
    "name": "Sabolon kecil dive site",
    "lat": -8.3896766,
    "lon": 119.7984087,
    "osm_id": 8022562468,
    "osm_type": "node",
    "depth": null,
    "site_type": "reef",
    "entry_type": null,
    "difficulty": null,
    "tags": {
      "name": "Sabolon kecil dive site",
      "sport": "scuba_diving"
    }
  },
  {
    "name": "Lighthouse Reef Dive Site",
    "lat": -8.4409708,
    "lon": 119.5837837,
    "osm_id": 8022562480,
    "osm_type": "node",
    "depth": null,
    "site_type": "reef",
    "entry_type": null,
    "difficulty": null,
    "tags": {
      "name": "Lighthouse Reef Dive Site",
      "scuba_diving:dive_spot": "yes",
      "sport": "scuba_diving"
    }
  },
  {
    "name": "Sebayur dive site",
    "lat": -8.5046306,
    "lon": 119.7078895,
    "osm_id": 8022733115,
    "osm_type": "node",
    "depth": null,
    "site_type": "reef",
    "entry_type": null,
    "difficulty": null,
    "tags": {
      "name": "Sebayur dive site",
      "sport": "scuba_diving"
    }
  },
  {
    "name": "Seraya kecil dive site",
    "lat": -8.4181211,
    "lon": 119.8625135,
    "osm_id": 8022733116,
    "osm_type": "node",
    "depth": null,
    "site_type": "reef",
    "entry_type": null,
    "difficulty": null,
    "tags": {
      "name": "Seraya kecil dive site",
      "sport": "scuba_diving"
    }
  },
  {
    "name": "Makassar Reef (Manta Point)",
    "lat": -8.5335442,
    "lon": 119.5905966,
    "osm_id": 10252897714,
    "osm_type": "node",
    "depth": null,
    "site_type": "reef",
    "entry_type": null,
    "difficulty": null,
    "tags": {
      "name": "Makassar Reef (Manta Point)",
      "sport": "scuba_diving"
    }
  }
]