[
  {
    "name": "The Cortez Club",
    "lat": 24.2035416,
    "lon": -110.3003817,
    "osm_id": 2371780313,
    "osm_type": "node",
    "depth": 20,
    "site_type": "reef",
    "entry_type": "boat",
    "difficulty": "Intermediate",
    "tags": {
      "name": "The Cortez Club",
      "sport": "scuba_diving",
      "validated": "true",
      "validation_source": "web_research"
    }
  },
  {
    "name": "Shipwrecks",
    "lat": 23.1233557,
    "lon": -109.5204339,
    "osm_id": 1461976052,
    "osm_type": "node",
    "depth": 25,
    "site_type": "wreck",
    "entry_type": "shore",
    "difficulty": "Intermediate",
    "tags": {
      "name": "Shipwrecks",
      "seamark:type": "wreck",
      "source": "osm_extended",
      "addedBy": "extended_overpass",
      "validated": "true",
      "validation_source": "web_research"
    }
  },
  {
    "name": "Los Islotes",
    "lat": 24.5977,
    "lon": -110.4010,
    "depth": 26,
    "site_type": "reef",
    "entry_type": "boat",
    "difficulty": "Beginner",
    "tags": {
      "source": "curated",
      "addedBy": "fill_remaining_gaps",
      "validated": true,
      "validation_source": "DiversInnMX, Mapcarta, PADI"
    }
  },
  {
    "name": "El Bajo Seamount",
    "lat": 24.6570,
    "lon": -110.1256,
    "depth": 40,
    "site_type": "seamount",
    "entry_type": "boat",
    "difficulty": "Advanced",
    "tags": {
      "source": "curated",
      "addedBy": "fill_remaining_gaps",
      "validated": true,
      "validation_source": "PADI, DiversInnMX"
    }
  },
  {
    "name": "Swanee Reef",
    "lat": 24.3912,
    "lon": -110.3055,
    "depth": 12,
    "site_type": "reef",
    "entry_type": "boat",
    "difficulty": "Beginner",
    "tags": {
      "source": "curated",
      "addedBy": "fill_remaining_gaps",
      "validated": true,
      "validation_source": "Zentacle, DiversInnMX, diveinlapaz.com"
    }
  },
  {
    "name": "Salvatierra Wreck",
    "lat": 24.3889,
    "lon": -110.3137,
    "depth": 19,
    "site_type": "wreck",
    "entry_type": "boat",
    "difficulty": "Intermediate",
    "tags": {
      "source": "curated",
      "addedBy": "fill_remaining_gaps",
      "validated": true,
      "validation_source": "PADI, DiversInnMX, ScubaBoard"
    }
  },
  {
    "name": "Isla Espiritu Santo - The Wall",
    "lat": 24.5280,
    "lon": -110.3980,
    "depth": 35,
    "site_type": "wall",
    "entry_type": "boat",
    "difficulty": "Advanced",
    "tags": {
      "source": "curated",
      "addedBy": "fill_remaining_gaps",
      "validated": true,
      "validation_source": "DiversInnMX, diveinlapaz.com, thedivegurus.com"
    }
  },
  {
    "name": "La Reina",
    "lat": 24.4153,
    "lon": -109.9750,
    "depth": 25,
    "site_type": "reef",
    "entry_type": "boat",
    "difficulty": "Intermediate",
    "tags": {
      "source": "curated",
      "addedBy": "fill_remaining_gaps",
      "validated": true,
      "validation_source": "DiversInnMX, cabotrek.com, diveinlapaz.com"
    }
  },
  {
    "name": "San Rafaelito",
    "lat": 24.2983,
    "lon": -110.3459,
    "depth": 15,
    "site_type": "reef",
    "entry_type": "boat",
    "difficulty": "Beginner",
    "tags": {
      "source": "curated",
      "addedBy": "fill_remaining_gaps",
      "validated": true,
      "validation_source": "PADI, DiversInnMX"
    }
  },
  {
    "name": "Fang Ming Wreck",
    "lat": 24.4452,
    "lon": -110.3812,
    "depth": 22,
    "site_type": "wreck",
    "entry_type": "boat",
    "difficulty": "Intermediate",
    "tags": {
      "source": "curated",
      "addedBy": "fill_remaining_gaps",
      "validated": true,
      "validation_source": "PADI, ScubaBoard, DiversInnMX"
    }
  },
  {
    "name": "Las Animas",
    "lat": 24.6882,
    "lon": -110.4860,
    "depth": 28,
    "site_type": "pinnacle",
    "entry_type": "boat",
    "difficulty": "Advanced",
    "tags": {
      "source": "curated",
      "addedBy": "fill_remaining_gaps",
      "validated": true,
      "validation_source": "DiversInnMX"
    }
  },
  {
    "name": "Isla Cerralvo North",
    "lat": 24.5197,
    "lon": -109.8800,
    "depth": 18,
    "site_type": "reef",
    "entry_type": "boat",
    "difficulty": "Intermediate",
    "tags": {
      "source": "curated",
      "addedBy": "fill_remaining_gaps",
      "validated": true,
      "validation_source": "getamap.net, bajadiving.com"
    }
  }
]
