[
  {
    "name": "Los Islotes",
    "lat": 24.5977,
    "lon": -110.401,
    "depth": 26,
    "site_type": "reef",
    "entry_type": "boat",
    "difficulty": "Beginner",
    "tags": {
      "source": "curated",
      "addedBy": "fill_remaining_gaps",
      "validated": true,
      "validation_source": "tosea.net,cortezclub.com,dan.org,lapazdivers.com,diveintolife.blog",
      "last_qa_date": "2026-06-11"
    }
  },
  {
    "name": "El Bajo Seamount",
    "lat": 24.657,
    "lon": -110.1256,
    "depth": 40,
    "site_type": "seamount",
    "entry_type": "boat",
    "difficulty": "Advanced",
    "tags": {
      "source": "curated",
      "addedBy": "fill_remaining_gaps",
      "validated": true,
      "validation_source": "padi.com,wikipedia.org,clubcantamar.com,uwphotographyguide.com,cortezclub.com",
      "last_qa_date": "2026-06-11"
    }
  },
  {
    "name": "Swanee Reef",
    "lat": 24.3912,
    "lon": -110.3055,
    "depth": 12,
    "site_type": "reef",
    "entry_type": "boat",
    "difficulty": "Beginner",
    "tags": {
      "source": "curated",
      "addedBy": "fill_remaining_gaps",
      "validated": true,
      "validation_source": "padi.com,dan.org,cortezclub.com,scubago.com,math.ucr.edu,veronikasadventure.com",
      "last_qa_date": "2026-06-11"
    }
  },
  {
    "name": "Salvatierra Wreck",
    "lat": 24.3889,
    "lon": -110.3137,
    "depth": 19,
    "site_type": "wreck",
    "entry_type": "boat",
    "difficulty": "Intermediate",
    "tags": {
      "source": "curated",
      "addedBy": "fill_remaining_gaps",
      "validated": true,
      "validation_source": "math.ucr.edu,dan.org,bajadiving.com,padi.com,veronikasadventure.com",
      "last_qa_date": "2026-06-11"
    }
  },
  {
    "name": "Isla Espiritu Santo - The Wall",
    "lat": 24.528,
    "lon": -110.398,
    "depth": 35,
    "site_type": "wall",
    "entry_type": "boat",
    "difficulty": "Advanced",
    "tags": {
      "source": "curated",
      "addedBy": "fill_remaining_gaps",
      "validated": true,
      "validation_source": "diveinlapaz.com,cortezclub.com,thedivegurus.com,bajadiving.com",
      "last_qa_date": "2026-06-11"
    }
  },
  {
    "name": "La Reina",
    "lat": 24.4153,
    "lon": -109.975,
    "depth": 25,
    "site_type": "reef",
    "entry_type": "boat",
    "difficulty": "Intermediate",
    "tags": {
      "source": "curated",
      "addedBy": "fill_remaining_gaps",
      "validated": true,
      "validation_source": "cortezclub.com,caboprivateguide.com,cabotrek.com,uwphotographyguide.com,bajadiving.com",
      "last_qa_date": "2026-06-11"
    }
  },
  {
    "name": "San Rafaelito",
    "lat": 24.2983,
    "lon": -110.3459,
    "depth": 15,
    "site_type": "reef",
    "entry_type": "boat",
    "difficulty": "Beginner",
    "tags": {
      "source": "curated",
      "addedBy": "fill_remaining_gaps",
      "validated": true,
      "validation_source": "padi.com,cortezclub.com,yatezzitos.com,lapazexplorer.com,seaofcortez.guide",
      "last_qa_date": "2026-06-11"
    }
  },
  {
    "name": "Fang Ming Wreck",
    "lat": 24.4452,
    "lon": -110.3812,
    "depth": 22,
    "site_type": "wreck",
    "entry_type": "boat",
    "difficulty": "Intermediate",
    "tags": {
      "source": "curated",
      "addedBy": "fill_remaining_gaps",
      "validated": true,
      "validation_source": "caboprivateguide.com,dan.org,divers-guide.com,padi.com,destinoloscabos.com",
      "last_qa_date": "2026-06-11"
    }
  },
  {
    "name": "Las Animas",
    "lat": 24.6882,
    "lon": -110.486,
    "depth": 28,
    "site_type": "pinnacle",
    "entry_type": "boat",
    "difficulty": "Advanced",
    "tags": {
      "source": "curated",
      "addedBy": "fill_remaining_gaps",
      "validated": true,
      "validation_source": "uwphotographyguide.com,cortezclub.com,nautilusliveaboards.com,liveaboard.com",
      "last_qa_date": "2026-06-11"
    }
  },
  {
    "name": "Isla Cerralvo North",
    "lat": 24.5197,
    "lon": -109.88,
    "depth": 18,
    "site_type": "reef",
    "entry_type": "boat",
    "difficulty": "Intermediate",
    "tags": {
      "source": "curated",
      "addedBy": "fill_remaining_gaps",
      "validated": true,
      "validation_source": "cortezclub.com,bajadiving.com,uwphotographyguide.com",
      "last_qa_date": "2026-06-11"
    }
  }
]
