[
  {
    "name": "Los Islotes",
    "lat": 24.5977,
    "lon": -110.401,
    "depth": 26,
    "site_type": "reef",
    "entry_type": "boat",
    "difficulty": "Beginner",
    "tags": {
      "source": "curated",
      "addedBy": "fill_remaining_gaps",
      "validated": true,
      "validation_source": "tosea.net,cortezclub.com,lapazdivers.com,dan.org",
      "last_qa_date": "2026-06-14"
    }
  },
  {
    "name": "El Bajo Seamount",
    "lat": 24.657,
    "lon": -110.1256,
    "depth": 40,
    "site_type": "seamount",
    "entry_type": "boat",
    "difficulty": "Advanced",
    "tags": {
      "source": "curated",
      "addedBy": "fill_remaining_gaps",
      "validated": true,
      "validation_source": "en.wikipedia.org,padi.com,tours.clubcantamar.com,uwphotographyguide.com",
      "last_qa_date": "2026-06-14"
    }
  },
  {
    "name": "Swanee Reef",
    "lat": 24.3912,
    "lon": -110.3055,
    "depth": 12,
    "site_type": "reef",
    "entry_type": "boat",
    "difficulty": "Beginner",
    "tags": {
      "source": "curated",
      "addedBy": "fill_remaining_gaps",
      "validated": true,
      "validation_source": "padi.com,dan.org,cortezclub.com,math.ucr.edu",
      "last_qa_date": "2026-06-14"
    }
  },
  {
    "name": "Salvatierra Wreck",
    "lat": 24.3889,
    "lon": -110.3137,
    "depth": 19,
    "site_type": "wreck",
    "entry_type": "boat",
    "difficulty": "Intermediate",
    "tags": {
      "source": "curated",
      "addedBy": "fill_remaining_gaps",
      "validated": true,
      "validation_source": "math.ucr.edu,padi.com,bajadiving.com,dan.org",
      "last_qa_date": "2026-06-14",
      "qa_note": "Sinking year conflict: PADI cites June 19 1975; UCR primary account cites June 1976. Both documented in description."
    }
  },
  {
    "name": "Isla Espiritu Santo - The Wall",
    "lat": 24.528,
    "lon": -110.398,
    "depth": 35,
    "site_type": "wall",
    "entry_type": "boat",
    "difficulty": "Advanced",
    "tags": {
      "source": "curated",
      "addedBy": "fill_remaining_gaps",
      "validated": true,
      "validation_source": "diveinlapaz.com,cortezclub.com,bajadiving.com,dan.org",
      "last_qa_date": "2026-06-14"
    }
  },
  {
    "name": "La Reina",
    "lat": 24.4153,
    "lon": -109.975,
    "depth": 26,
    "site_type": "reef",
    "entry_type": "boat",
    "difficulty": "Intermediate",
    "tags": {
      "source": "curated",
      "addedBy": "fill_remaining_gaps",
      "validated": true,
      "validation_source": "cortezclub.com,cabotrek.com,caboprivateguide.com,dan.org",
      "last_qa_date": "2026-06-14"
    }
  },
  {
    "name": "San Rafaelito",
    "lat": 24.2983,
    "lon": -110.3459,
    "depth": 16,
    "site_type": "reef",
    "entry_type": "boat",
    "difficulty": "Beginner",
    "tags": {
      "source": "curated",
      "addedBy": "fill_remaining_gaps",
      "validated": true,
      "validation_source": "thecabosun.com,padi.com,cortezclub.com,seaofcortez.guide",
      "last_qa_date": "2026-06-14"
    }
  },
  {
    "name": "Fang Ming Wreck",
    "lat": 24.4452,
    "lon": -110.3812,
    "depth": 22,
    "site_type": "wreck",
    "entry_type": "boat",
    "difficulty": "Intermediate",
    "tags": {
      "source": "curated",
      "addedBy": "fill_remaining_gaps",
      "validated": true,
      "validation_source": "caboprivateguide.com,divers-guide.com,dan.org,padi.com",
      "last_qa_date": "2026-06-14"
    }
  },
  {
    "name": "Las Animas",
    "lat": 24.6882,
    "lon": -110.486,
    "depth": 28,
    "site_type": "pinnacle",
    "entry_type": "boat",
    "difficulty": "Advanced",
    "tags": {
      "source": "curated",
      "addedBy": "fill_remaining_gaps",
      "validated": true,
      "validation_source": "nautilusliveaboards.com,uwphotographyguide.com,cortezclub.com",
      "last_qa_date": "2026-06-14",
      "qa_note": "Only 3 sources identified; specific depth data not confirmed by independent sources — 28m retained from prior validation."
    }
  },
  {
    "name": "Isla Cerralvo North",
    "lat": 24.5197,
    "lon": -109.88,
    "depth": 18,
    "site_type": "reef",
    "entry_type": "boat",
    "difficulty": "Intermediate",
    "tags": {
      "source": "curated",
      "addedBy": "fill_remaining_gaps",
      "validated": true,
      "validation_source": "bajadiving.com,cortezclub.com,cabotrek.com",
      "last_qa_date": "2026-06-14"
    }
  }
]
