[
  {
    "name": "NAD Lembeh",
    "lat": 1.4447743,
    "lon": 125.2409649,
    "osm_id": 2138645003,
    "osm_type": "node",
    "depth": 20,
    "site_type": "muck",
    "entry_type": "boat",
    "difficulty": "Intermediate",
    "tags": {
      "name": "NAD Lembeh",
      "sport": "scuba_diving",
      "validated": "true",
      "validation_source": "nad-lembeh.com,lembehresort.com,starfish.ch",
      "last_qa_date": "2026-06-11"
    }
  },
  {
    "name": "Hairball",
    "lat": 1.4667,
    "lon": 125.2333,
    "osm_id": null,
    "osm_type": null,
    "depth": 28,
    "site_type": "muck",
    "entry_type": "boat",
    "difficulty": "Intermediate",
    "tags": {
      "source": "curated",
      "addedBy": "gap_fill",
      "validated": "true",
      "validation_source": "lembehresort.com,starfish.ch,infinitebluedivetravel.com",
      "last_qa_date": "2026-06-11"
    }
  },
  {
    "name": "TK1",
    "lat": 1.475,
    "lon": 125.2417,
    "osm_id": null,
    "osm_type": null,
    "depth": 25,
    "site_type": "muck",
    "entry_type": "boat",
    "difficulty": "Beginner",
    "tags": {
      "source": "curated",
      "addedBy": "gap_fill",
      "validated": "true",
      "validation_source": "nad-lembeh.com,starfish.ch,dive-the-world.com",
      "last_qa_date": "2026-06-11"
    }
  },
  {
    "name": "TK2",
    "lat": 1.4767,
    "lon": 125.24,
    "osm_id": null,
    "osm_type": null,
    "depth": 20,
    "site_type": "muck",
    "entry_type": "boat",
    "difficulty": "Beginner",
    "tags": {
      "source": "curated",
      "addedBy": "gap_fill",
      "validated": "true",
      "validation_source": "starfish.ch,infinitebluedivetravel.com,lembehresort.com",
      "last_qa_date": "2026-06-11"
    }
  },
  {
    "name": "TK3",
    "lat": 1.4783,
    "lon": 125.2383,
    "osm_id": null,
    "osm_type": null,
    "depth": 18,
    "site_type": "muck",
    "entry_type": "boat",
    "difficulty": "Beginner",
    "tags": {
      "source": "curated",
      "addedBy": "gap_fill",
      "validated": "true",
      "validation_source": "infinitebluedivetravel.com,starfish.ch,lembehresort.com",
      "last_qa_date": "2026-06-11"
    }
  },
  {
    "name": "Nudi Falls",
    "lat": 1.4833,
    "lon": 125.25,
    "osm_id": null,
    "osm_type": null,
    "depth": 20,
    "site_type": "muck",
    "entry_type": "boat",
    "difficulty": "Intermediate",
    "tags": {
      "source": "curated",
      "addedBy": "gap_fill",
      "validated": "true",
      "validation_source": "lembehresort.com,nad-lembeh.com,starfish.ch",
      "last_qa_date": "2026-06-11"
    }
  },
  {
    "name": "Police Pier",
    "lat": 1.4583,
    "lon": 125.2167,
    "osm_id": null,
    "osm_type": null,
    "depth": 15,
    "site_type": "muck",
    "entry_type": "boat",
    "difficulty": "Beginner",
    "tags": {
      "source": "curated",
      "addedBy": "gap_fill",
      "validated": "true",
      "validation_source": "starfish.ch,tropilogy.com,dive-the-world.com",
      "last_qa_date": "2026-06-11"
    }
  },
  {
    "name": "Jahir",
    "lat": 1.4917,
    "lon": 125.2583,
    "osm_id": null,
    "osm_type": null,
    "depth": 28,
    "site_type": "muck",
    "entry_type": "boat",
    "difficulty": "Intermediate",
    "tags": {
      "source": "curated",
      "addedBy": "gap_fill",
      "validated": "true",
      "validation_source": "tropilogy.com,starfish.ch,solitude.world",
      "last_qa_date": "2026-06-11"
    }
  },
  {
    "name": "Makawide",
    "lat": 1.47,
    "lon": 125.2283,
    "osm_id": null,
    "osm_type": null,
    "depth": 24,
    "site_type": "muck",
    "entry_type": "boat",
    "difficulty": "Intermediate",
    "tags": {
      "source": "curated",
      "addedBy": "gap_fill",
      "validated": "true",
      "validation_source": "lembehresort.com,dive-the-world.com,starfish.ch",
      "last_qa_date": "2026-06-11"
    }
  },
  {
    "name": "Aer Bajo",
    "lat": 1.5,
    "lon": 125.2667,
    "osm_id": null,
    "osm_type": null,
    "depth": 20,
    "site_type": "muck",
    "entry_type": "boat",
    "difficulty": "Beginner",
    "tags": {
      "source": "curated",
      "addedBy": "gap_fill",
      "validated": "true",
      "validation_source": "lembehresort.com,infinitebluedivetravel.com,starfish.ch",
      "last_qa_date": "2026-06-11"
    }
  },
  {
    "name": "Nudi Retreat",
    "lat": 1.485,
    "lon": 125.2533,
    "osm_id": null,
    "osm_type": null,
    "depth": 29,
    "site_type": "muck",
    "entry_type": "boat",
    "difficulty": "Intermediate",
    "tags": {
      "source": "curated",
      "addedBy": "gap_fill",
      "validated": "true",
      "validation_source": "lembehresort.com,dive-the-world.com,infinitebluedivetravel.com",
      "last_qa_date": "2026-06-11"
    }
  },
  {
    "name": "Angel's Window",
    "lat": 1.4633,
    "lon": 125.22,
    "osm_id": null,
    "osm_type": null,
    "depth": 32,
    "site_type": "pinnacle",
    "entry_type": "boat",
    "difficulty": "Intermediate",
    "tags": {
      "source": "curated",
      "addedBy": "gap_fill",
      "validated": "true",
      "validation_source": "lembehresort.com,nad-lembeh.com,starfish.ch",
      "last_qa_date": "2026-06-11"
    }
  },
  {
    "name": "Retak Larry",
    "lat": 1.48,
    "lon": 125.245,
    "osm_id": null,
    "osm_type": null,
    "depth": 20,
    "site_type": "muck",
    "entry_type": "boat",
    "difficulty": "Intermediate",
    "tags": {
      "source": "curated",
      "addedBy": "gap_fill",
      "validated": "true",
      "validation_source": "lembehresort.com,infinitebluedivetravel.com,starfish.ch",
      "last_qa_date": "2026-06-11"
    }
  }
]
