[
  {
    "name": "Divebase",
    "lat": 4.074676,
    "lon": 72.8878019,
    "osm_id": 359160107,
    "osm_type": "node",
    "depth": 25,
    "site_type": "reef",
    "entry_type": "boat",
    "difficulty": "Intermediate",
    "tags": {
      "name": "Divebase",
      "sport": "scuba_diving"
    }
  },
  {
    "name": "Exit 1 and 2",
    "lat": 3.6333949,
    "lon": 72.9613638,
    "osm_id": 519024092,
    "osm_type": "node",
    "depth": 25,
    "site_type": "reef",
    "entry_type": "boat",
    "difficulty": "Intermediate",
    "tags": {
      "name": "Exit 1 and 2",
      "sport": "scuba_diving"
    }
  },
  {
    "name": "Exit 10",
    "lat": 3.6338652,
    "lon": 72.9609627,
    "osm_id": 519024096,
    "osm_type": "node",
    "depth": 25,
    "site_type": "reef",
    "entry_type": "boat",
    "difficulty": "Intermediate",
    "tags": {
      "name": "Exit 10",
      "sport": "scuba_diving"
    }
  },
  {
    "name": "Exit 9",
    "lat": 3.6344382,
    "lon": 72.9597692,
    "osm_id": 519024100,
    "osm_type": "node",
    "depth": 25,
    "site_type": "reef",
    "entry_type": "boat",
    "difficulty": "Intermediate",
    "tags": {
      "name": "Exit 9",
      "sport": "scuba_diving"
    }
  },
  {
    "name": "Exit 8",
    "lat": 3.6347069,
    "lon": 72.9583209,
    "osm_id": 519024102,
    "osm_type": "node",
    "depth": 25,
    "site_type": "reef",
    "entry_type": "boat",
    "difficulty": "Intermediate",
    "tags": {
      "name": "Exit 8",
      "sport": "scuba_diving"
    }
  },
  {
    "name": "Exit 7",
    "lat": 3.6343987,
    "lon": 72.956013,
    "osm_id": 519024107,
    "osm_type": "node",
    "depth": 25,
    "site_type": "reef",
    "entry_type": "boat",
    "difficulty": "Intermediate",
    "tags": {
      "name": "Exit 7",
      "sport": "scuba_diving"
    }
  },
  {
    "name": "Exit 5 + 6",
    "lat": 3.6333522,
    "lon": 72.9558738,
    "osm_id": 519024128,
    "osm_type": "node",
    "depth": 25,
    "site_type": "reef",
    "entry_type": "boat",
    "difficulty": "Intermediate",
    "tags": {
      "name": "Exit 5 + 6",
      "sport": "scuba_diving"
    }
  },
  {
    "name": "Exit 4",
    "lat": 3.6329424,
    "lon": 72.9580956,
    "osm_id": 519024133,
    "osm_type": "node",
    "depth": 25,
    "site_type": "reef",
    "entry_type": "boat",
    "difficulty": "Intermediate",
    "tags": {
      "name": "Exit 4",
      "sport": "scuba_diving"
    }
  },
  {
    "name": "Halaveli",
    "lat": 4.0545578,
    "lon": 72.9116389,
    "osm_id": 663869881,
    "osm_type": "node",
    "depth": 25,
    "site_type": "wreck",
    "entry_type": "boat",
    "difficulty": "Intermediate",
    "tags": {
      "historic": "wreck",
      "name": "Halaveli",
      "scuba_diving:entry:boat": "yes",
      "scuba_diving:type:wreck": "yes",
      "seamark:type": "wreck",
      "sport": "scuba_diving",
      "tourism": "attraction",
      "wreck:date_sunk": "1991"
    }
  },
  {
    "name": "HimendhooThila West",
    "lat": 3.9155167,
    "lon": 72.7155667,
    "osm_id": 663869883,
    "osm_type": "node",
    "depth": 25,
    "site_type": "reef",
    "entry_type": "boat",
    "difficulty": "Intermediate",
    "tags": {
      "name": "HimendhooThila West",
      "sport": "scuba_diving"
    }
  },
  {
    "name": "Fish Head",
    "lat": 3.9445167,
    "lon": 72.9318167,
    "osm_id": 663869884,
    "osm_type": "node",
    "depth": 30,
    "site_type": "reef",
    "entry_type": "boat",
    "difficulty": "Intermediate",
    "tags": {
      "name": "Fish Head",
      "sport": "scuba_diving"
    }
  },
  {
    "name": "Velidhu Hausriff",
    "lat": 4.192881,
    "lon": 72.819074,
    "osm_id": 663869885,
    "osm_type": "node",
    "depth": 25,
    "site_type": "reef",
    "entry_type": "boat",
    "difficulty": "Intermediate",
    "tags": {
      "name": "Velidhu Hausriff",
      "sport": "scuba_diving"
    }
  },
  {
    "name": "Pineapple Island Hausriff",
    "lat": 3.654217,
    "lon": 72.77895,
    "osm_id": 663869886,
    "osm_type": "node",
    "depth": 25,
    "site_type": "reef",
    "entry_type": "boat",
    "difficulty": "Intermediate",
    "tags": {
      "name": "Pineapple Island Hausriff",
      "natural": "reef",
      "scuba_diving:entry:boat": "yes",
      "sport": "scuba_diving",
      "tourism": "attraction"
    }
  },
  {
    "name": "Vilamendhoo Housereef",
    "lat": 3.6352812,
    "lon": 72.9571983,
    "osm_id": 663869887,
    "osm_type": "node",
    "depth": 25,
    "site_type": "reef",
    "entry_type": "boat",
    "difficulty": "Intermediate",
    "tags": {
      "name": "Vilamendhoo Housereef",
      "natural": "reef",
      "sport": "scuba_diving",
      "tourism": "attraction"
    }
  },
  {
    "name": "Adam Faru",
    "lat": 3.863813,
    "lon": 73.367845,
    "osm_id": 663869888,
    "osm_type": "node",
    "depth": 25,
    "site_type": "reef",
    "entry_type": "boat",
    "difficulty": "Intermediate",
    "tags": {
      "name": "Adam Faru",
      "natural": "reef",
      "scuba_diving:entry:boat": "yes",
      "sport": "scuba_diving",
      "tourism": "attraction"
    }
  },
  {
    "name": "Lhohi Bodu Kandu",
    "lat": 3.848639,
    "lon": 73.364956,
    "osm_id": 663869889,
    "osm_type": "node",
    "depth": 25,
    "site_type": "drift",
    "entry_type": "boat",
    "difficulty": "Intermediate",
    "tags": {
      "name": "Lhohi Bodu Kandu",
      "natural": "reef",
      "scuba_diving:entry:boat": "yes",
      "sport": "scuba_diving",
      "tourism": "attraction"
    }
  },
  {
    "name": "Lhohi Kandu Tila",
    "lat": 3.856683,
    "lon": 73.363679,
    "osm_id": 663869890,
    "osm_type": "node",
    "depth": 25,
    "site_type": "drift",
    "entry_type": "boat",
    "difficulty": "Intermediate",
    "tags": {
      "name": "Lhohi Kandu Tila",
      "natural": "reef",
      "scuba_diving:entry:boat": "yes",
      "sport": "scuba_diving",
      "tourism": "attraction"
    }
  },
  {
    "name": "Coral Faru",
    "lat": 3.823702,
    "lon": 73.37201,
    "osm_id": 663869891,
    "osm_type": "node",
    "depth": 25,
    "site_type": "reef",
    "entry_type": "boat",
    "difficulty": "Intermediate",
    "tags": {
      "name": "Coral Faru",
      "natural": "reef",
      "scuba_diving:entry:boat": "yes",
      "sport": "scuba_diving",
      "tourism": "attraction"
    }
  },
  {
    "name": "Kunaavashi Kandu",
    "lat": 3.666047,
    "lon": 73.382443,
    "osm_id": 663869892,
    "osm_type": "node",
    "depth": 25,
    "site_type": "drift",
    "entry_type": "boat",
    "difficulty": "Intermediate",
    "tags": {
      "name": "Kunaavashi Kandu",
      "natural": "reef",
      "scuba_diving:entry:boat": "yes",
      "sport": "scuba_diving",
      "tourism": "attraction"
    }
  },
  {
    "name": "Boamas Kandu",
    "lat": 3.679067,
    "lon": 73.399635,
    "osm_id": 663869893,
    "osm_type": "node",
    "depth": 25,
    "site_type": "drift",
    "entry_type": "boat",
    "difficulty": "Intermediate",
    "tags": {
      "name": "Boamas Kandu",
      "natural": "reef",
      "scuba_diving:entry:boat": "yes",
      "sport": "scuba_diving",
      "tourism": "attraction"
    }
  },
  {
    "name": "Fulhidoo Caves",
    "lat": 3.683135,
    "lon": 73.417159,
    "osm_id": 663869894,
    "osm_type": "node",
    "depth": 25,
    "site_type": "cave",
    "entry_type": "boat",
    "difficulty": "Intermediate",
    "tags": {
      "name": "Fulhidoo Caves",
      "natural": "reef",
      "scuba_diving:entry:boat": "yes",
      "sport": "scuba_diving",
      "tourism": "attraction"
    }
  },
  {
    "name": "Coral Giri",
    "lat": 3.855119,
    "lon": 73.430742,
    "osm_id": 663869895,
    "osm_type": "node",
    "depth": 25,
    "site_type": "reef",
    "entry_type": "boat",
    "difficulty": "Intermediate",
    "tags": {
      "name": "Coral Giri",
      "natural": "reef",
      "scuba_diving:entry:boat": "yes",
      "sport": "scuba_diving",
      "tourism": "attraction"
    }
  },
  {
    "name": "Olhuveli Kuda Giri",
    "lat": 3.843378,
    "lon": 73.396748,
    "osm_id": 663869896,
    "osm_type": "node",
    "depth": 25,
    "site_type": "reef",
    "entry_type": "boat",
    "difficulty": "Intermediate",
    "tags": {
      "name": "Olhuveli Kuda Giri",
      "natural": "reef",
      "scuba_diving:entry:boat": "yes",
      "sport": "scuba_diving",
      "tourism": "attraction"
    }
  },
  {
    "name": "Rihiveli Faru",
    "lat": 3.819211,
    "lon": 73.387422,
    "osm_id": 663869897,
    "osm_type": "node",
    "depth": 25,
    "site_type": "reef",
    "entry_type": "boat",
    "difficulty": "Intermediate",
    "tags": {
      "name": "Rihiveli Faru",
      "natural": "reef",
      "scuba_diving:entry:boat": "yes",
      "sport": "scuba_diving",
      "tourism": "attraction"
    }
  },
  {
    "name": "Origandu Finolhu",
    "lat": 3.807211,
    "lon": 73.386212,
    "osm_id": 663869898,
    "osm_type": "node",
    "depth": 25,
    "site_type": "reef",
    "entry_type": "boat",
    "difficulty": "Intermediate",
    "tags": {
      "name": "Origandu Finolhu",
      "natural": "reef",
      "scuba_diving:entry:boat": "yes",
      "sport": "scuba_diving",
      "tourism": "attraction"
    }
  },
  {
    "name": "Kudarah",
    "lat": 3.810294,
    "lon": 73.420358,
    "osm_id": 663869899,
    "osm_type": "node",
    "depth": 30,
    "site_type": "reef",
    "entry_type": "boat",
    "difficulty": "Intermediate",
    "tags": {
      "name": "Kudarah",
      "natural": "reef",
      "scuba_diving:entry:boat": "yes",
      "sport": "scuba_diving",
      "tourism": "attraction"
    }
  },
  {
    "name": "Fihalhohi Hausriff",
    "lat": 3.877139,
    "lon": 73.368477,
    "osm_id": 663869901,
    "osm_type": "node",
    "depth": 25,
    "site_type": "reef",
    "entry_type": "boat",
    "difficulty": "Intermediate",
    "tags": {
      "name": "Fihalhohi Hausriff",
      "natural": "reef",
      "scuba_diving:entry:boat": "yes",
      "sport": "scuba_diving",
      "tourism": "attraction"
    }
  },
  {
    "name": "Ihi Reef",
    "lat": 3.887852,
    "lon": 73.355498,
    "osm_id": 663869902,
    "osm_type": "node",
    "depth": 25,
    "site_type": "reef",
    "entry_type": "boat",
    "difficulty": "Intermediate",
    "tags": {
      "name": "Ihi Reef",
      "natural": "reef",
      "scuba_diving:entry:boat": "yes",
      "sport": "scuba_diving",
      "tourism": "attraction"
    }
  },
  {
    "name": "Enderi Giri",
    "lat": 3.882887,
    "lon": 73.383658,
    "osm_id": 663869903,
    "osm_type": "node",
    "depth": 25,
    "site_type": "reef",
    "entry_type": "boat",
    "difficulty": "Intermediate",
    "tags": {
      "name": "Enderi Giri",
      "natural": "reef",
      "scuba_diving:entry:boat": "yes",
      "sport": "scuba_diving",
      "tourism": "attraction"
    }
  },
  {
    "name": "Lhohi Giri",
    "lat": 3.886977,
    "lon": 73.37785,
    "osm_id": 663869904,
    "osm_type": "node",
    "depth": 25,
    "site_type": "reef",
    "entry_type": "boat",
    "difficulty": "Intermediate",
    "tags": {
      "name": "Lhohi Giri",
      "natural": "reef",
      "scuba_diving:entry:boat": "yes",
      "sport": "scuba_diving",
      "tourism": "attraction"
    }
  },
  {
    "name": "Ram Faru",
    "lat": 3.883227,
    "lon": 73.357402,
    "osm_id": 663869905,
    "osm_type": "node",
    "depth": 25,
    "site_type": "reef",
    "entry_type": "boat",
    "difficulty": "Intermediate",
    "tags": {
      "name": "Ram Faru",
      "natural": "reef",
      "scuba_diving:entry:boat": "yes",
      "sport": "scuba_diving",
      "tourism": "attraction"
    }
  },
  {
    "name": "Lhohi Faru Tila",
    "lat": 3.870622,
    "lon": 73.360051,
    "osm_id": 663869906,
    "osm_type": "node",
    "depth": 25,
    "site_type": "pinnacle",
    "entry_type": "boat",
    "difficulty": "Intermediate",
    "tags": {
      "name": "Lhohi Faru Tila",
      "natural": "reef",
      "scuba_diving:entry:boat": "yes",
      "sport": "scuba_diving",
      "tourism": "attraction"
    }
  },
  {
    "name": "Ali Tila",
    "lat": 3.867608,
    "lon": 73.369075,
    "osm_id": 663869907,
    "osm_type": "node",
    "depth": 25,
    "site_type": "pinnacle",
    "entry_type": "boat",
    "difficulty": "Intermediate",
    "tags": {
      "name": "Ali Tila",
      "natural": "reef",
      "scuba_diving:entry:boat": "yes",
      "sport": "scuba_diving",
      "tourism": "attraction"
    }
  },
  {
    "name": "Fihalhohi Hausriff Nord",
    "lat": 3.878562,
    "lon": 73.367513,
    "osm_id": 663869908,
    "osm_type": "node",
    "depth": 25,
    "site_type": "reef",
    "entry_type": "boat",
    "difficulty": "Intermediate",
    "tags": {
      "name": "Fihalhohi Hausriff Nord",
      "natural": "reef",
      "scuba_diving:entry:boat": "yes",
      "sport": "scuba_diving",
      "tourism": "attraction"
    }
  },
  {
    "name": "Fihalhohi Paradies",
    "lat": 3.877287,
    "lon": 73.361518,
    "osm_id": 663869909,
    "osm_type": "node",
    "depth": 25,
    "site_type": "reef",
    "entry_type": "boat",
    "difficulty": "Intermediate",
    "tags": {
      "name": "Fihalhohi Paradies",
      "natural": "reef",
      "scuba_diving:entry:boat": "yes",
      "sport": "scuba_diving",
      "tourism": "attraction"
    }
  },
  {
    "name": "Rannalhi Bodu Giri",
    "lat": 3.906723,
    "lon": 73.360025,
    "osm_id": 663869910,
    "osm_type": "node",
    "depth": 25,
    "site_type": "reef",
    "entry_type": "boat",
    "difficulty": "Intermediate",
    "tags": {
      "name": "Rannalhi Bodu Giri",
      "natural": "reef",
      "scuba_diving:entry:boat": "yes",
      "sport": "scuba_diving",
      "tourism": "attraction"
    }
  },
  {
    "name": "Alimas Faru",
    "lat": 3.895935,
    "lon": 73.361892,
    "osm_id": 663869911,
    "osm_type": "node",
    "depth": 25,
    "site_type": "reef",
    "entry_type": "boat",
    "difficulty": "Intermediate",
    "tags": {
      "name": "Alimas Faru",
      "natural": "reef",
      "scuba_diving:entry:boat": "yes",
      "sport": "scuba_diving",
      "tourism": "attraction"
    }
  },
  {
    "name": "Ramfaru Tulu",
    "lat": 3.890288,
    "lon": 73.374581,
    "osm_id": 663869912,
    "osm_type": "node",
    "depth": 25,
    "site_type": "reef",
    "entry_type": "boat",
    "difficulty": "Intermediate",
    "tags": {
      "name": "Ramfaru Tulu",
      "natural": "reef",
      "scuba_diving:entry:boat": "yes",
      "sport": "scuba_diving",
      "tourism": "attraction"
    }
  },
  {
    "name": "Rannalhi Kuda Giri",
    "lat": 3.90236,
    "lon": 73.36262,
    "osm_id": 663869913,
    "osm_type": "node",
    "depth": 25,
    "site_type": "reef",
    "entry_type": "boat",
    "difficulty": "Intermediate",
    "tags": {
      "name": "Rannalhi Kuda Giri",
      "natural": "reef",
      "scuba_diving:entry:boat": "yes",
      "sport": "scuba_diving",
      "tourism": "attraction"
    }
  },
  {
    "name": "Lang Giri",
    "lat": 3.907911,
    "lon": 73.373553,
    "osm_id": 663869914,
    "osm_type": "node",
    "depth": 25,
    "site_type": "reef",
    "entry_type": "boat",
    "difficulty": "Intermediate",
    "tags": {
      "name": "Lang Giri",
      "natural": "reef",
      "scuba_diving:entry:boat": "yes",
      "sport": "scuba_diving",
      "tourism": "attraction"
    }
  },
  {
    "name": "Rannalhi Faru",
    "lat": 3.902905,
    "lon": 73.350636,
    "osm_id": 663869915,
    "osm_type": "node",
    "depth": 25,
    "site_type": "reef",
    "entry_type": "boat",
    "difficulty": "Intermediate",
    "tags": {
      "name": "Rannalhi Faru",
      "natural": "reef",
      "scuba_diving:entry:boat": "yes",
      "sport": "scuba_diving",
      "tourism": "attraction"
    }
  },
  {
    "name": "Dong Giri",
    "lat": 3.905787,
    "lon": 73.379966,
    "osm_id": 663869916,
    "osm_type": "node",
    "depth": 25,
    "site_type": "reef",
    "entry_type": "boat",
    "difficulty": "Intermediate",
    "tags": {
      "name": "Dong Giri",
      "natural": "reef",
      "scuba_diving:entry:boat": "yes",
      "sport": "scuba_diving",
      "tourism": "attraction"
    }
  },
  {
    "name": "Jack Faru",
    "lat": 3.894228,
    "lon": 73.355827,
    "osm_id": 663869917,
    "osm_type": "node",
    "depth": 25,
    "site_type": "reef",
    "entry_type": "boat",
    "difficulty": "Intermediate",
    "tags": {
      "name": "Jack Faru",
      "natural": "reef",
      "scuba_diving:entry:boat": "yes",
      "sport": "scuba_diving",
      "tourism": "attraction"
    }
  },
  {
    "name": "Vaageli Faru Nord",
    "lat": 3.950007,
    "lon": 73.353367,
    "osm_id": 663869918,
    "osm_type": "node",
    "depth": 25,
    "site_type": "reef",
    "entry_type": "boat",
    "difficulty": "Intermediate",
    "tags": {
      "name": "Vaageli Faru Nord",
      "natural": "reef",
      "scuba_diving:entry:boat": "yes",
      "sport": "scuba_diving",
      "tourism": "attraction"
    }
  },
  {
    "name": "Vaageli Faru Süd",
    "lat": 3.947749,
    "lon": 73.353433,
    "osm_id": 663869919,
    "osm_type": "node",
    "depth": 25,
    "site_type": "reef",
    "entry_type": "boat",
    "difficulty": "Intermediate",
    "tags": {
      "name": "Vaageli Faru Süd",
      "natural": "reef",
      "scuba_diving:entry:boat": "yes",
      "sport": "scuba_diving",
      "tourism": "attraction"
    }
  },
  {
    "name": "Vaageli Corner",
    "lat": 3.953898,
    "lon": 73.355015,
    "osm_id": 663869920,
    "osm_type": "node",
    "depth": 25,
    "site_type": "reef",
    "entry_type": "boat",
    "difficulty": "Intermediate",
    "tags": {
      "name": "Vaageli Corner",
      "natural": "reef",
      "scuba_diving:entry:boat": "yes",
      "sport": "scuba_diving",
      "tourism": "attraction"
    }
  },
  {
    "name": "Vaageli Bodu Faru",
    "lat": 3.938861,
    "lon": 73.360447,
    "osm_id": 663869922,
    "osm_type": "node",
    "depth": 25,
    "site_type": "reef",
    "entry_type": "boat",
    "difficulty": "Intermediate",
    "tags": {
      "name": "Vaageli Bodu Faru",
      "natural": "reef",
      "scuba_diving:entry:boat": "yes",
      "sport": "scuba_diving",
      "tourism": "attraction"
    }
  },
  {
    "name": "Kahambu Giri",
    "lat": 3.93752,
    "lon": 73.373778,
    "osm_id": 663869923,
    "osm_type": "node",
    "depth": 25,
    "site_type": "reef",
    "entry_type": "boat",
    "difficulty": "Intermediate",
    "tags": {
      "name": "Kahambu Giri",
      "natural": "reef",
      "scuba_diving:entry:boat": "yes",
      "sport": "scuba_diving",
      "tourism": "attraction"
    }
  },
  {
    "name": "Vaageli Faru Tila",
    "lat": 3.94373,
    "lon": 73.354366,
    "osm_id": 663869924,
    "osm_type": "node",
    "depth": 25,
    "site_type": "pinnacle",
    "entry_type": "boat",
    "difficulty": "Intermediate",
    "tags": {
      "name": "Vaageli Faru Tila",
      "natural": "reef",
      "scuba_diving:entry:boat": "yes",
      "sport": "scuba_diving",
      "tourism": "attraction"
    }
  },
  {
    "name": "Vaageli Tila",
    "lat": 3.94383,
    "lon": 73.362322,
    "osm_id": 663869925,
    "osm_type": "node",
    "depth": 25,
    "site_type": "pinnacle",
    "entry_type": "boat",
    "difficulty": "Intermediate",
    "tags": {
      "name": "Vaageli Tila",
      "natural": "reef",
      "scuba_diving:entry:boat": "yes",
      "sport": "scuba_diving",
      "tourism": "attraction"
    }
  },
  {
    "name": "Vaageli Caves",
    "lat": 3.914468,
    "lon": 73.351402,
    "osm_id": 663869926,
    "osm_type": "node",
    "depth": 25,
    "site_type": "cave",
    "entry_type": "boat",
    "difficulty": "Intermediate",
    "tags": {
      "name": "Vaageli Caves",
      "natural": "reef",
      "scuba_diving:entry:boat": "yes",
      "sport": "scuba_diving",
      "tourism": "attraction"
    }
  },
  {
    "name": "Vaageli Outside",
    "lat": 3.923944,
    "lon": 73.351202,
    "osm_id": 663869927,
    "osm_type": "node",
    "depth": 25,
    "site_type": "reef",
    "entry_type": "boat",
    "difficulty": "Intermediate",
    "tags": {
      "name": "Vaageli Outside",
      "natural": "reef",
      "scuba_diving:entry:boat": "yes",
      "sport": "scuba_diving",
      "tourism": "attraction"
    }
  },
  {
    "name": "Kandoma Corner",
    "lat": 3.904682,
    "lon": 73.476225,
    "osm_id": 663869928,
    "osm_type": "node",
    "depth": 25,
    "site_type": "reef",
    "entry_type": "boat",
    "difficulty": "Intermediate",
    "tags": {
      "name": "Kandoma Corner",
      "natural": "reef",
      "scuba_diving:entry:boat": "yes",
      "sport": "scuba_diving",
      "tourism": "attraction"
    }
  },
  {
    "name": "Guradoo Kuda Kandu",
    "lat": 3.894661,
    "lon": 73.469403,
    "osm_id": 663869929,
    "osm_type": "node",
    "depth": 25,
    "site_type": "drift",
    "entry_type": "boat",
    "difficulty": "Intermediate",
    "tags": {
      "name": "Guradoo Kuda Kandu",
      "natural": "reef",
      "scuba_diving:entry:boat": "yes",
      "sport": "scuba_diving",
      "tourism": "attraction"
    }
  },
  {
    "name": "Kandoma Beru",
    "lat": 3.899039,
    "lon": 73.473792,
    "osm_id": 663869930,
    "osm_type": "node",
    "depth": 25,
    "site_type": "reef",
    "entry_type": "boat",
    "difficulty": "Intermediate",
    "tags": {
      "name": "Kandoma Beru",
      "natural": "reef",
      "scuba_diving:entry:boat": "yes",
      "sport": "scuba_diving",
      "tourism": "attraction"
    }
  },
  {
    "name": "Noomas Giri",
    "lat": 3.900827,
    "lon": 73.405111,
    "osm_id": 663869931,
    "osm_type": "node",
    "depth": 25,
    "site_type": "reef",
    "entry_type": "boat",
    "difficulty": "Intermediate",
    "tags": {
      "name": "Noomas Giri",
      "natural": "reef",
      "scuba_diving:entry:boat": "yes",
      "sport": "scuba_diving",
      "tourism": "attraction"
    }
  },
  {
    "name": "Dongmaas Giri",
    "lat": 3.903663,
    "lon": 73.402269,
    "osm_id": 663869932,
    "osm_type": "node",
    "depth": 25,
    "site_type": "reef",
    "entry_type": "boat",
    "difficulty": "Intermediate",
    "tags": {
      "name": "Dongmaas Giri",
      "natural": "reef",
      "scuba_diving:entry:boat": "yes",
      "sport": "scuba_diving",
      "tourism": "attraction"
    }
  },
  {
    "name": "Guradoo South",
    "lat": 3.889913,
    "lon": 73.467287,
    "osm_id": 663869933,
    "osm_type": "node",
    "depth": 25,
    "site_type": "reef",
    "entry_type": "boat",
    "difficulty": "Intermediate",
    "tags": {
      "name": "Guradoo South",
      "natural": "reef",
      "scuba_diving:entry:boat": "yes",
      "sport": "scuba_diving",
      "tourism": "attraction"
    }
  },
  {
    "name": "Guradoo North",
    "lat": 3.891865,
    "lon": 73.468134,
    "osm_id": 663869934,
    "osm_type": "node",
    "depth": 25,
    "site_type": "reef",
    "entry_type": "boat",
    "difficulty": "Intermediate",
    "tags": {
      "name": "Guradoo North",
      "natural": "reef",
      "scuba_diving:entry:boat": "yes",
      "sport": "scuba_diving",
      "tourism": "attraction"
    }
  },
  {
    "name": "Biyadoo Kuda Giri",
    "lat": 3.906479,
    "lon": 73.448786,
    "osm_id": 663869935,
    "osm_type": "node",
    "depth": 25,
    "site_type": "reef",
    "entry_type": "boat",
    "difficulty": "Intermediate",
    "tags": {
      "name": "Biyadoo Kuda Giri",
      "natural": "reef",
      "scuba_diving:entry:boat": "yes",
      "sport": "scuba_diving",
      "tourism": "attraction"
    }
  },
  {
    "name": "Banner Reef",
    "lat": 3.893078,
    "lon": 73.46935,
    "osm_id": 663869936,
    "osm_type": "node",
    "depth": 25,
    "site_type": "reef",
    "entry_type": "boat",
    "difficulty": "Intermediate",
    "tags": {
      "name": "Banner Reef",
      "natural": "reef",
      "scuba_diving:entry:boat": "yes",
      "sport": "scuba_diving",
      "tourism": "attraction"
    }
  },
  {
    "name": "Emmadi Giri (Manta Point)",
    "lat": 3.895817,
    "lon": 73.456299,
    "osm_id": 663869937,
    "osm_type": "node",
    "depth": 20,
    "site_type": "reef",
    "entry_type": "boat",
    "difficulty": "Intermediate",
    "tags": {
      "name": "Emmadi Giri (Manta Point)",
      "natural": "reef",
      "scuba_diving:entry:boat": "yes",
      "sport": "scuba_diving",
      "tourism": "attraction"
    }
  },
  {
    "name": "Guradoo South Outside",
    "lat": 3.879147,
    "lon": 73.467558,
    "osm_id": 663869938,
    "osm_type": "node",
    "depth": 25,
    "site_type": "reef",
    "entry_type": "boat",
    "difficulty": "Intermediate",
    "tags": {
      "name": "Guradoo South Outside",
      "natural": "reef",
      "scuba_diving:entry:boat": "yes",
      "sport": "scuba_diving",
      "tourism": "attraction"
    }
  },
  {
    "name": "Finolhu Faru",
    "lat": 3.955979,
    "lon": 73.463725,
    "osm_id": 663869939,
    "osm_type": "node",
    "depth": 25,
    "site_type": "reef",
    "entry_type": "boat",
    "difficulty": "Intermediate",
    "tags": {
      "name": "Finolhu Faru",
      "natural": "reef",
      "scuba_diving:entry:boat": "yes",
      "sport": "scuba_diving",
      "tourism": "attraction"
    }
  },
  {
    "name": "Black Coral Faru",
    "lat": 4.014879,
    "lon": 73.364021,
    "osm_id": 663869940,
    "osm_type": "node",
    "depth": 25,
    "site_type": "reef",
    "entry_type": "boat",
    "difficulty": "Intermediate",
    "tags": {
      "name": "Black Coral Faru",
      "natural": "reef",
      "scuba_diving:entry:boat": "yes",
      "sport": "scuba_diving",
      "tourism": "attraction"
    }
  },
  {
    "name": "Velassaru Caves",
    "lat": 4.125016,
    "lon": 73.433551,
    "osm_id": 663869941,
    "osm_type": "node",
    "depth": 25,
    "site_type": "cave",
    "entry_type": "boat",
    "difficulty": "Intermediate",
    "tags": {
      "name": "Velassaru Caves",
      "natural": "reef",
      "scuba_diving:entry:boat": "yes",
      "sport": "scuba_diving",
      "tourism": "attraction"
    }
  },
  {
    "name": "Vaadho Caves",
    "lat": 4.128736,
    "lon": 73.455125,
    "osm_id": 663869942,
    "osm_type": "node",
    "depth": 25,
    "site_type": "cave",
    "entry_type": "boat",
    "difficulty": "Intermediate",
    "tags": {
      "name": "Vaadho Caves",
      "natural": "reef",
      "scuba_diving:entry:boat": "yes",
      "sport": "scuba_diving",
      "tourism": "attraction"
    }
  },
  {
    "name": "Bolifushi",
    "lat": 4.099112,
    "lon": 73.400468,
    "osm_id": 663869943,
    "osm_type": "node",
    "depth": 25,
    "site_type": "wreck",
    "entry_type": "boat",
    "difficulty": "Intermediate",
    "tags": {
      "historic": "wreck",
      "name": "Bolifushi",
      "seamark:type": "wreck",
      "sport": "scuba_diving",
      "tourism": "attraction"
    }
  },
  {
    "name": "Maafushi Thila",
    "lat": 3.958439,
    "lon": 73.493256,
    "osm_id": 663869944,
    "osm_type": "node",
    "depth": 25,
    "site_type": "pinnacle",
    "entry_type": "boat",
    "difficulty": "Intermediate",
    "tags": {
      "name": "Maafushi Thila",
      "natural": "reef",
      "scuba_diving:entry:boat": "yes",
      "sport": "scuba_diving",
      "tourism": "attraction"
    }
  },
  {
    "name": "Digu Kuda Giri",
    "lat": 3.972345,
    "lon": 73.490725,
    "osm_id": 663869945,
    "osm_type": "node",
    "depth": 25,
    "site_type": "wreck",
    "entry_type": "boat",
    "difficulty": "Intermediate",
    "tags": {
      "historic": "wreck",
      "name": "Digu Kuda Giri",
      "scuba_diving:entry:boat": "yes",
      "seamark:type": "wreck",
      "sport": "scuba_diving",
      "tourism": "attraction"
    }
  },
  {
    "name": "Dhigu Thila",
    "lat": 3.981984,
    "lon": 73.510309,
    "osm_id": 663869946,
    "osm_type": "node",
    "depth": 25,
    "site_type": "pinnacle",
    "entry_type": "boat",
    "difficulty": "Intermediate",
    "tags": {
      "name": "Dhigu Thila",
      "natural": "reef",
      "scuba_diving:entry:boat": "yes",
      "sport": "scuba_diving",
      "tourism": "attraction"
    }
  },
  {
    "name": "Shark Point",
    "lat": 3.988882,
    "lon": 73.519771,
    "osm_id": 663869947,
    "osm_type": "node",
    "depth": 25,
    "site_type": "reef",
    "entry_type": "boat",
    "difficulty": "Intermediate",
    "tags": {
      "name": "Shark Point",
      "natural": "reef",
      "scuba_diving:entry:boat": "yes",
      "sport": "scuba_diving",
      "tourism": "attraction"
    }
  },
  {
    "name": "Cocoa Tila",
    "lat": 3.906159,
    "lon": 73.478393,
    "osm_id": 663869948,
    "osm_type": "node",
    "depth": 25,
    "site_type": "pinnacle",
    "entry_type": "boat",
    "difficulty": "Intermediate",
    "tags": {
      "name": "Cocoa Tila",
      "natural": "reef",
      "scuba_diving:entry:boat": "yes",
      "sport": "scuba_diving",
      "tourism": "attraction"
    }
  },
  {
    "name": "Cocoa Corner",
    "lat": 3.909867,
    "lon": 73.481063,
    "osm_id": 663869949,
    "osm_type": "node",
    "depth": 25,
    "site_type": "reef",
    "entry_type": "boat",
    "difficulty": "Intermediate",
    "tags": {
      "name": "Cocoa Corner",
      "natural": "reef",
      "scuba_diving:entry:boat": "yes",
      "sport": "scuba_diving",
      "tourism": "attraction"
    }
  },
  {
    "name": "Embudu Channel / Embudu Express",
    "lat": 4.0874002,
    "lon": 73.5338869,
    "osm_id": 663869950,
    "osm_type": "node",
    "depth": 25,
    "site_type": "drift",
    "entry_type": "boat",
    "difficulty": "Intermediate",
    "tags": {
      "name": "Embudu Channel / Embudu Express",
      "natural": "reef",
      "scuba_diving:entry:boat": "yes",
      "sport": "scuba_diving",
      "tourism": "attraction"
    }
  },
  {
    "name": "Embudu Kandu",
    "lat": 4.085491,
    "lon": 73.529577,
    "osm_id": 663869951,
    "osm_type": "node",
    "depth": 25,
    "site_type": "drift",
    "entry_type": "boat",
    "difficulty": "Intermediate",
    "tags": {
      "name": "Embudu Kandu",
      "natural": "reef",
      "scuba_diving:entry:boat": "yes",
      "sport": "scuba_diving",
      "tourism": "attraction"
    }
  },
  {
    "name": "house reef",
    "lat": 4.5902914,
    "lon": 73.4129734,
    "osm_id": 672632385,
    "osm_type": "node",
    "depth": 25,
    "site_type": "reef",
    "entry_type": "boat",
    "difficulty": "Intermediate",
    "tags": {
      "name": "house reef",
      "natural": "reef",
      "sport": "scuba_diving",
      "tourism": "attraction"
    }
  },
  {
    "name": "Akirifushi",
    "lat": 4.6382329,
    "lon": 73.3971699,
    "osm_id": 672632386,
    "osm_type": "node",
    "depth": 25,
    "site_type": "reef",
    "entry_type": "boat",
    "difficulty": "Beginner",
    "tags": {
      "name": "Akirifushi",
      "natural": "reef",
      "scuba_diving:difficulty": "1",
      "scuba_diving:entry:boat": "yes",
      "sport": "scuba_diving",
      "tourism": "attraction"
    }
  },
  {
    "name": "Main jetty exit",
    "lat": 4.0845674,
    "lon": 73.5132801,
    "osm_id": 682245383,
    "osm_type": "node",
    "depth": 25,
    "site_type": "reef",
    "entry_type": "shore",
    "difficulty": "Intermediate",
    "tags": {
      "name": "Main jetty exit",
      "scuba_diving:entry": "shore",
      "sport": "scuba_diving"
    }
  },
  {
    "name": "Bungalow 78 exit",
    "lat": 4.0828312,
    "lon": 73.5139469,
    "osm_id": 682245388,
    "osm_type": "node",
    "depth": 25,
    "site_type": "reef",
    "entry_type": "shore",
    "difficulty": "Intermediate",
    "tags": {
      "name": "Bungalow 78 exit",
      "scuba_diving:entry": "shore",
      "sport": "scuba_diving"
    }
  },
  {
    "name": "Entrence 155",
    "lat": 4.5913072,
    "lon": 73.4134729,
    "osm_id": 786623654,
    "osm_type": "node",
    "depth": 25,
    "site_type": "reef",
    "entry_type": "boat",
    "difficulty": "Intermediate",
    "tags": {
      "name": "Entrence 155",
      "sport": "scuba_diving"
    }
  },
  {
    "name": "Entrence 110",
    "lat": 4.5894211,
    "lon": 73.4164095,
    "osm_id": 786623659,
    "osm_type": "node",
    "depth": 25,
    "site_type": "reef",
    "entry_type": "boat",
    "difficulty": "Intermediate",
    "tags": {
      "name": "Entrence 110",
      "sport": "scuba_diving"
    }
  },
  {
    "name": "Entrence 128",
    "lat": 4.5907743,
    "lon": 73.4155154,
    "osm_id": 786623671,
    "osm_type": "node",
    "depth": 25,
    "site_type": "reef",
    "entry_type": "boat",
    "difficulty": "Intermediate",
    "tags": {
      "name": "Entrence 128",
      "sport": "scuba_diving"
    }
  },
  {
    "name": "Entrence base",
    "lat": 4.5891503,
    "lon": 73.4133043,
    "osm_id": 786623714,
    "osm_type": "node",
    "depth": 25,
    "site_type": "reef",
    "entry_type": "boat",
    "difficulty": "Intermediate",
    "tags": {
      "name": "Entrence base",
      "natural": "reef",
      "scuba_diving:entry:boat": "yes",
      "sport": "scuba_diving",
      "tourism": "attraction"
    }
  },
  {
    "name": "Coral garden",
    "lat": 4.0830752,
    "lon": 73.5104942,
    "osm_id": 3314137175,
    "osm_type": "node",
    "depth": 25,
    "site_type": "reef",
    "entry_type": "shore",
    "difficulty": "Intermediate",
    "tags": {
      "name": "Coral garden",
      "natural": "reef",
      "scuba_diving:entry": "shore",
      "sport": "scuba_diving",
      "tourism": "attraction"
    }
  },
  {
    "name": "Guraidhoo Channel",
    "lat": 3.8960875,
    "lon": 73.4635205,
    "osm_id": 4584554103,
    "osm_type": "node",
    "depth": 25,
    "site_type": "drift",
    "entry_type": "boat",
    "difficulty": "Intermediate",
    "tags": {
      "name": "Guraidhoo Channel",
      "natural": "reef",
      "scuba_diving:entry:boat": "yes",
      "sport": "scuba_diving",
      "tourism": "attraction"
    }
  },
  {
    "name": "Embudu Finolhu Outside",
    "lat": 4.1085996,
    "lon": 73.5325069,
    "osm_id": 4584554104,
    "osm_type": "node",
    "depth": 25,
    "site_type": "reef",
    "entry_type": "boat",
    "difficulty": "Intermediate",
    "tags": {
      "name": "Embudu Finolhu Outside",
      "natural": "reef",
      "scuba_diving:entry:boat": "yes",
      "sport": "scuba_diving",
      "tourism": "attraction"
    }
  },
  {
    "name": "Housereef West",
    "lat": 5.255602,
    "lon": 73.1620467,
    "osm_id": 6013133717,
    "osm_type": "node",
    "depth": 25,
    "site_type": "reef",
    "entry_type": "boat",
    "difficulty": "Intermediate",
    "tags": {
      "name": "Housereef West",
      "natural": "reef",
      "sport": "scuba_diving",
      "tourism": "attraction"
    }
  },
  {
    "name": "Housereef East",
    "lat": 5.2549784,
    "lon": 73.1652935,
    "osm_id": 6013133718,
    "osm_type": "node",
    "depth": 25,
    "site_type": "reef",
    "entry_type": "boat",
    "difficulty": "Intermediate",
    "tags": {
      "name": "Housereef East",
      "natural": "reef",
      "sport": "scuba_diving",
      "tourism": "attraction"
    }
  },
  {
    "name": "Miyaru Faru",
    "lat": 3.989206,
    "lon": 73.5112278,
    "osm_id": 7146796385,
    "osm_type": "node",
    "depth": 25,
    "site_type": "reef",
    "entry_type": "boat",
    "difficulty": "Intermediate",
    "tags": {
      "name": "Miyaru Faru",
      "sport": "scuba_diving",
      "tourism": "attraction"
    }
  },
  {
    "name": "Guraidhoo Corner",
    "lat": 3.8937988,
    "lon": 73.4691913,
    "osm_id": 7146807585,
    "osm_type": "node",
    "depth": 25,
    "site_type": "reef",
    "entry_type": "boat",
    "difficulty": "Intermediate",
    "tags": {
      "name": "Guraidhoo Corner",
      "name:en": "Guraidhoo Corner",
      "natural": "reef",
      "scuba_diving:entry:boat": "yes",
      "sport": "scuba_diving",
      "tourism": "attraction"
    }
  },
  {
    "name": "Miyaru Kandu",
    "lat": 3.5996409,
    "lon": 73.5042226,
    "osm_id": 7151743385,
    "osm_type": "node",
    "depth": 35,
    "site_type": "drift",
    "entry_type": "boat",
    "difficulty": "Advanced",
    "tags": {
      "description": "Channel dive with reef sharks",
      "name": "Miyaru Kandu",
      "natural": "reef",
      "scuba_diving:current": "3",
      "scuba_diving:depth": "30",
      "scuba_diving:entry:boat": "yes",
      "sport": "scuba_diving",
      "tourism": "attraction"
    }
  },
  {
    "name": "Maamigili Beyru",
    "lat": 3.4623198,
    "lon": 72.8193017,
    "osm_id": 7156015285,
    "osm_type": "node",
    "depth": 25,
    "site_type": "reef",
    "entry_type": "boat",
    "difficulty": "Intermediate",
    "tags": {
      "name": "Maamigili Beyru",
      "natural": "reef",
      "scuba_diving:entry:boat": "yes",
      "sport": "scuba_diving",
      "tourism": "attraction"
    }
  },
  {
    "name": "Kudhi Maa Wreck",
    "lat": 3.5907967,
    "lon": 72.8827411,
    "osm_id": 7156015385,
    "osm_type": "node",
    "depth": 25,
    "site_type": "wreck",
    "entry_type": "boat",
    "difficulty": "Intermediate",
    "tags": {
      "name": "Kudhi Maa Wreck",
      "scuba_diving:entry:boat": "yes",
      "sport": "scuba_diving",
      "tourism": "attraction"
    }
  },
  {
    "name": "Moofushi",
    "lat": 3.8814315,
    "lon": 72.7210353,
    "osm_id": 7156015386,
    "osm_type": "node",
    "depth": 25,
    "site_type": "reef",
    "entry_type": "boat",
    "difficulty": "Intermediate",
    "tags": {
      "name": "Moofushi",
      "natural": "reef",
      "sport": "scuba_diving",
      "tourism": "attraction"
    }
  },
  {
    "name": "Rangali Madivaru",
    "lat": 3.5954543,
    "lon": 72.7189263,
    "osm_id": 7156015485,
    "osm_type": "node",
    "depth": 25,
    "site_type": "reef",
    "entry_type": "boat",
    "difficulty": "Intermediate",
    "tags": {
      "name": "Rangali Madivaru",
      "natural": "reef",
      "scuba_diving:entry:boat": "yes",
      "sport": "scuba_diving",
      "tourism": "attraction"
    }
  },
  {
    "name": "Maaya Lagoon",
    "lat": 4.0745667,
    "lon": 72.8844468,
    "osm_id": 7158528485,
    "osm_type": "node",
    "depth": 25,
    "site_type": "reef",
    "entry_type": "boat",
    "difficulty": "Intermediate",
    "tags": {
      "name": "Maaya Lagoon",
      "natural": "reef",
      "sport": "scuba_diving",
      "tourism": "attraction"
    }
  },
  {
    "name": "Kuramathi North",
    "lat": 4.2776362,
    "lon": 72.9388788,
    "osm_id": 8584208529,
    "osm_type": "node",
    "depth": 25,
    "site_type": "drift",
    "entry_type": "boat",
    "difficulty": "Intermediate",
    "tags": {
      "name": "Kuramathi North",
      "natural": "reef",
      "scuba_diving:type:drift": "yes",
      "sport": "scuba_diving",
      "tourism": "attraction"
    }
  },
  {
    "name": "Kuramathi house reef",
    "lat": 4.2594906,
    "lon": 72.9682155,
    "osm_id": 8584208530,
    "osm_type": "node",
    "depth": 25,
    "site_type": "reef",
    "entry_type": "boat",
    "difficulty": "Intermediate",
    "tags": {
      "name": "Kuramathi house reef",
      "natural": "reef",
      "sport": "scuba_diving",
      "tourism": "attraction"
    }
  },
  {
    "name": "Rasdhoo Madivaru Corner",
    "lat": 4.2642509,
    "lon": 72.999492,
    "osm_id": 8584208531,
    "osm_type": "node",
    "depth": 30,
    "site_type": "reef",
    "entry_type": "boat",
    "difficulty": "Intermediate",
    "tags": {
      "description": "Very polular dive site with gray reef sharks and school of eagle rays",
      "name": "Rasdhoo Madivaru Corner",
      "natural": "reef",
      "scuba_diving:entry:boat": "yes",
      "scuba_diving:type:sharks": "yes",
      "sport": "scuba_diving",
      "tourism": "attraction"
    }
  },
  {
    "name": "Veligandu east",
    "lat": 4.2889609,
    "lon": 73.0128287,
    "osm_id": 8584208532,
    "osm_type": "node",
    "depth": 25,
    "site_type": "reef",
    "entry_type": "boat",
    "difficulty": "Intermediate",
    "tags": {
      "name": "Veligandu east",
      "natural": "reef",
      "scuba_diving:entry:boat": "yes",
      "sport": "scuba_diving",
      "tourism": "attraction"
    }
  },
  {
    "name": "Rangali manta point",
    "lat": 3.5879734,
    "lon": 72.7193872,
    "osm_id": 8584302415,
    "osm_type": "node",
    "depth": 20,
    "site_type": "reef",
    "entry_type": "boat",
    "difficulty": "Intermediate",
    "tags": {
      "name": "Rangali manta point",
      "natural": "reef",
      "scuba_diving:entry:boat": "yes",
      "sport": "scuba_diving",
      "tourism": "attraction"
    }
  },
  {
    "name": "Kuda Rah thila",
    "lat": 3.5588012,
    "lon": 72.9230452,
    "osm_id": 8584302416,
    "osm_type": "node",
    "depth": 30,
    "site_type": "pinnacle",
    "entry_type": "boat",
    "difficulty": "Intermediate",
    "tags": {
      "name": "Kuda Rah thila",
      "natural": "reef",
      "scuba_diving:entry:boat": "yes",
      "sport": "scuba_diving",
      "tourism": "attraction"
    }
  },
  {
    "name": "Broken rock",
    "lat": 3.5561503,
    "lon": 72.9369047,
    "osm_id": 8584320417,
    "osm_type": "node",
    "depth": 25,
    "site_type": "reef",
    "entry_type": "boat",
    "difficulty": "Intermediate",
    "tags": {
      "description": "Beautiful dive site: rich coral reefs, school of fishes and tunnel inside rocks",
      "name": "Broken rock",
      "natural": "reef",
      "scuba_diving:entry:boat": "yes",
      "sport": "scuba_diving",
      "tourism": "attraction"
    }
  },
  {
    "name": "Gangehi Kandu",
    "lat": 4.2179595,
    "lon": 72.7364113,
    "osm_id": 8584373032,
    "osm_type": "node",
    "depth": 25,
    "site_type": "drift",
    "entry_type": "boat",
    "difficulty": "Intermediate",
    "tags": {
      "name": "Gangehi Kandu",
      "natural": "reef",
      "scuba_diving:entry:boat": "yes",
      "sport": "scuba_diving",
      "tourism": "attraction"
    }
  },
  {
    "name": "Maalhos Thila",
    "lat": 4.0023266,
    "lon": 72.7192917,
    "osm_id": 8584458546,
    "osm_type": "node",
    "depth": 25,
    "site_type": "pinnacle",
    "entry_type": "boat",
    "difficulty": "Intermediate",
    "tags": {
      "description": "Awesome dive spot with blue/purple soft corals, fishes and sharks",
      "name": "Maalhos Thila",
      "scuba_diving:current": "2",
      "scuba_diving:entry:boat": "yes",
      "sport": "scuba_diving",
      "tourism": "attraction"
    }
  },
  {
    "name": "Ellaidhoo house reef",
    "lat": 4.0152499,
    "lon": 72.9498129,
    "osm_id": 8584458549,
    "osm_type": "node",
    "depth": 25,
    "site_type": "reef",
    "entry_type": "boat",
    "difficulty": "Intermediate",
    "tags": {
      "name": "Ellaidhoo house reef",
      "natural": "reef",
      "scuba_diving:entry:boat": "yes",
      "sport": "scuba_diving",
      "tourism": "attraction"
    }
  },
  {
    "name": "Bidu Thila",
    "lat": 4.042284,
    "lon": 72.9523073,
    "osm_id": 8584458550,
    "osm_type": "node",
    "depth": 25,
    "site_type": "pinnacle",
    "entry_type": "boat",
    "difficulty": "Intermediate",
    "tags": {
      "name": "Bidu Thila",
      "natural": "reef",
      "scuba_diving:entry:boat": "yes",
      "sport": "scuba_diving",
      "tourism": "attraction"
    }
  },
  {
    "name": "Bathalaamaagaa Kanthila",
    "lat": 4.0705807,
    "lon": 72.9497539,
    "osm_id": 8584458552,
    "osm_type": "node",
    "depth": 25,
    "site_type": "reef",
    "entry_type": "boat",
    "difficulty": "Intermediate",
    "tags": {
      "name": "Bathalaamaagaa Kanthila",
      "natural": "reef",
      "scuba_diving:entry:boat": "yes",
      "sport": "scuba_diving",
      "tourism": "attraction"
    }
  },
  {
    "name": "Maaya Thila",
    "lat": 4.0913626,
    "lon": 72.8619718,
    "osm_id": 8584458555,
    "osm_type": "node",
    "depth": 30,
    "site_type": "pinnacle",
    "entry_type": "boat",
    "difficulty": "Intermediate",
    "tags": {
      "description": "One of the most popular diving site in atoll. Water is not clear",
      "name": "Maaya Thila",
      "natural": "reef",
      "scuba_diving:type:sharks": "yes",
      "sport": "scuba_diving",
      "tourism": "attraction"
    }
  },
  {
    "name": "Hafsa Thila",
    "lat": 4.1291928,
    "lon": 72.8382075,
    "osm_id": 8584458557,
    "osm_type": "node",
    "depth": 25,
    "site_type": "pinnacle",
    "entry_type": "boat",
    "difficulty": "Intermediate",
    "tags": {
      "description": "Very rich place for sharks and fishes",
      "name": "Hafsa Thila",
      "natural": "reef",
      "scuba_diving:entry:boat": "yes",
      "scuba_diving:type:sharks": "yes",
      "sport": "scuba_diving",
      "tourism": "attraction"
    }
  },
  {
    "name": "Gangehi North Kandu - manta cleaning station",
    "lat": 4.2814718,
    "lon": 72.7812266,
    "osm_id": 8584458560,
    "osm_type": "node",
    "depth": 25,
    "site_type": "drift",
    "entry_type": "boat",
    "difficulty": "Intermediate",
    "tags": {
      "description": "Manta cleaning station (5-7 mantas at once in right time and current)",
      "name": "Gangehi North Kandu - manta cleaning station",
      "natural": "reef",
      "scuba_diving:entry:boat": "yes",
      "sport": "scuba_diving",
      "tourism": "attraction"
    }
  },
  {
    "name": "Dhonfanu thila",
    "lat": 5.1720764,
    "lon": 73.115684,
    "osm_id": 9180047748,
    "osm_type": "node",
    "depth": 25,
    "site_type": "pinnacle",
    "entry_type": "boat",
    "difficulty": "Intermediate",
    "tags": {
      "name": "Dhonfanu thila",
      "natural": "reef",
      "scuba_diving:entry:boat": "yes",
      "sport": "scuba_diving",
      "tourism": "attraction"
    }
  },
  {
    "name": "Dhigu thila",
    "lat": 5.1743777,
    "lon": 73.1062071,
    "osm_id": 9180047749,
    "osm_type": "node",
    "depth": 25,
    "site_type": "pinnacle",
    "entry_type": "boat",
    "difficulty": "Intermediate",
    "tags": {
      "name": "Dhigu thila",
      "natural": "reef",
      "scuba_diving:entry:boat": "yes",
      "sport": "scuba_diving",
      "tourism": "attraction"
    }
  },
  {
    "name": "Kuda Gaa",
    "lat": 5.1837471,
    "lon": 73.121548,
    "osm_id": 9180047750,
    "osm_type": "node",
    "depth": 25,
    "site_type": "reef",
    "entry_type": "boat",
    "difficulty": "Intermediate",
    "tags": {
      "name": "Kuda Gaa",
      "natural": "reef",
      "scuba_diving:entry:boat": "yes",
      "sport": "scuba_diving",
      "tourism": "attraction"
    }
  },
  {
    "name": "Bodu Gaa",
    "lat": 5.1833655,
    "lon": 73.1245891,
    "osm_id": 9180047751,
    "osm_type": "node",
    "depth": 25,
    "site_type": "reef",
    "entry_type": "boat",
    "difficulty": "Intermediate",
    "tags": {
      "name": "Bodu Gaa",
      "natural": "reef",
      "scuba_diving:entry:boat": "yes",
      "sport": "scuba_diving",
      "tourism": "attraction"
    }
  },
  {
    "name": "Dharavandhoo thila",
    "lat": 5.1612242,
    "lon": 73.121948,
    "osm_id": 9180047752,
    "osm_type": "node",
    "depth": 25,
    "site_type": "pinnacle",
    "entry_type": "boat",
    "difficulty": "Intermediate",
    "tags": {
      "name": "Dharavandhoo thila",
      "natural": "reef",
      "scuba_diving:entry:boat": "yes",
      "sport": "scuba_diving",
      "tourism": "attraction"
    }
  },
  {
    "name": "Etheremadivaru house reef",
    "lat": 4.1161509,
    "lon": 72.9368108,
    "osm_id": 9318704315,
    "osm_type": "node",
    "depth": 25,
    "site_type": "wall",
    "entry_type": "boat",
    "difficulty": "Intermediate",
    "tags": {
      "description": "Very colorful coral wall with overhangs. One of the best divespot for underwater photo and macro photo",
      "name": "Etheremadivaru house reef",
      "natural": "reef",
      "scuba_diving:entry:boat": "yes",
      "sport": "scuba_diving",
      "tourism": "attraction"
    }
  },
  {
    "name": "Farikede Faru",
    "lat": -0.3259708,
    "lon": 73.4491412,
    "osm_id": 9516447813,
    "osm_type": "node",
    "depth": 40,
    "site_type": "reef",
    "entry_type": "boat",
    "difficulty": "Advanced",
    "tags": {
      "description": "deep dive site with thresher shark, oceanic manta rays, whale sharks, mola mola",
      "name": "Farikede Faru",
      "natural": "reef",
      "scuba_diving:current": "2",
      "scuba_diving:depth": "40",
      "scuba_diving:entry:boat": "yes",
      "scuba_diving:type:sharks": "yes",
      "sport": "scuba_diving",
      "tourism": "attraction"
    }
  },
  {
    "name": "Neregando reef",
    "lat": -0.2933363,
    "lon": 73.4112572,
    "osm_id": 9518535640,
    "osm_type": "node",
    "depth": 25,
    "site_type": "reef",
    "entry_type": "boat",
    "difficulty": "Intermediate",
    "tags": {
      "description": "One of the most healthy reef on Maldives",
      "name": "Neregando reef",
      "natural": "reef",
      "scuba_diving:current": "0",
      "scuba_diving:entry:boat": "yes",
      "sport": "scuba_diving",
      "tourism": "attraction"
    }
  },
  {
    "name": "Seafan",
    "lat": -0.3001317,
    "lon": 73.4365218,
    "osm_id": 9521887499,
    "osm_type": "node",
    "depth": 25,
    "site_type": "reef",
    "entry_type": "boat",
    "difficulty": "Intermediate",
    "tags": {
      "name": "Seafan",
      "natural": "reef",
      "scuba_diving:entry:boat": "yes",
      "scuba_diving:maxdepth": "25",
      "sport": "scuba_diving",
      "tourism": "attraction"
    }
  },
  {
    "name": "Thundi",
    "lat": -0.2809093,
    "lon": 73.4217,
    "osm_id": 9521898155,
    "osm_type": "node",
    "depth": 25,
    "site_type": "reef",
    "entry_type": "boat",
    "difficulty": "Intermediate",
    "tags": {
      "description": "awesome drift dive",
      "name": "Thundi",
      "natural": "reef",
      "scuba_diving:current": "2",
      "scuba_diving:entry:boat": "yes",
      "sport": "scuba_diving",
      "tourism": "attraction"
    }
  },
  {
    "name": "Maa Neyru",
    "lat": -0.3000826,
    "lon": 73.4205001,
    "osm_id": 9524191069,
    "osm_type": "node",
    "depth": 25,
    "site_type": "reef",
    "entry_type": "boat",
    "difficulty": "Intermediate",
    "tags": {
      "description": "Macro objects on reef",
      "name": "Maa Neyru",
      "natural": "reef",
      "scuba_diving:current": "0",
      "scuba_diving:entry:boat": "yes",
      "sport": "scuba_diving",
      "tourism": "attraction"
    }
  },
  {
    "name": "Rasgefanno",
    "lat": -0.2912111,
    "lon": 73.4281061,
    "osm_id": 9526089944,
    "osm_type": "node",
    "depth": 40,
    "site_type": "reef",
    "entry_type": "boat",
    "difficulty": "Advanced",
    "tags": {
      "description": "thresher shark cleaning station on 55m depth",
      "name": "Rasgefanno",
      "natural": "reef",
      "scuba_diving:depth": "40",
      "scuba_diving:entry:boat": "yes",
      "sport": "scuba_diving",
      "tourism": "attraction"
    }
  },
  {
    "name": "Tiger sharks feeding point",
    "lat": -0.3065725,
    "lon": 73.4412596,
    "osm_id": 9526089945,
    "osm_type": "node",
    "depth": 25,
    "site_type": "reef",
    "entry_type": "boat",
    "difficulty": "Intermediate",
    "tags": {
      "name": "Tiger sharks feeding point",
      "natural": "reef",
      "scuba_diving:entry:boat": "yes",
      "scuba_diving:maxdepth": "25",
      "sport": "scuba_diving",
      "tourism": "attraction"
    }
  },
  {
    "name": "Fish Bank",
    "lat": 3.5148712,
    "lon": 72.9187866,
    "osm_id": 9555754853,
    "osm_type": "node",
    "depth": 25,
    "site_type": "reef",
    "entry_type": "boat",
    "difficulty": "Intermediate",
    "tags": {
      "name": "Fish Bank",
      "natural": "reef",
      "scuba_diving:entry:boat": "yes",
      "sport": "scuba_diving",
      "tourism": "attraction"
    }
  },
  {
    "name": "Dhidhoo corner (out reef)",
    "lat": 3.4790689,
    "lon": 72.8768978,
    "osm_id": 9555754854,
    "osm_type": "node",
    "depth": 25,
    "site_type": "reef",
    "entry_type": "boat",
    "difficulty": "Intermediate",
    "tags": {
      "name": "Dhidhoo corner (out reef)",
      "natural": "reef",
      "scuba_diving:entry:boat": "yes",
      "sport": "scuba_diving",
      "tourism": "attraction"
    }
  },
  {
    "name": "? thila",
    "lat": 3.6088614,
    "lon": 72.8146388,
    "osm_id": 9557518245,
    "osm_type": "node",
    "depth": 30,
    "site_type": "pinnacle",
    "entry_type": "boat",
    "difficulty": "Intermediate",
    "tags": {
      "name": "? thila",
      "natural": "reef",
      "scuba_diving:entry:boat": "yes",
      "sport": "scuba_diving",
      "tourism": "attraction"
    }
  },
  {
    "name": "Holiday Beyru",
    "lat": 3.4667329,
    "lon": 72.8299005,
    "osm_id": 9562069130,
    "osm_type": "node",
    "depth": 25,
    "site_type": "reef",
    "entry_type": "boat",
    "difficulty": "Intermediate",
    "tags": {
      "name": "Holiday Beyru",
      "natural": "reef",
      "scuba_diving:entry:boat": "yes",
      "sport": "scuba_diving",
      "tourism": "attraction"
    }
  },
  {
    "name": "Dhigurah Arches",
    "lat": 3.5400179,
    "lon": 72.9150945,
    "osm_id": 9562074179,
    "osm_type": "node",
    "depth": 25,
    "site_type": "cave",
    "entry_type": "boat",
    "difficulty": "Intermediate",
    "tags": {
      "name": "Dhigurah Arches",
      "natural": "reef",
      "scuba_diving:entry:boat": "yes",
      "sport": "scuba_diving",
      "tourism": "attraction"
    }
  },
  {
    "name": "Hudhu Thila",
    "lat": 3.5697576,
    "lon": 72.940986,
    "osm_id": 9572676008,
    "osm_type": "node",
    "depth": 25,
    "site_type": "pinnacle",
    "entry_type": "boat",
    "difficulty": "Intermediate",
    "tags": {
      "name": "Hudhu Thila",
      "natural": "reef",
      "scuba_diving:entry:boat": "yes",
      "sport": "scuba_diving",
      "tourism": "attraction"
    }
  },
  {
    "name": "Hukurudhoo reef",
    "lat": 3.5729372,
    "lon": 72.7213988,
    "osm_id": 9620859251,
    "osm_type": "node",
    "depth": 25,
    "site_type": "reef",
    "entry_type": "boat",
    "difficulty": "Intermediate",
    "tags": {
      "name": "Hukurudhoo reef",
      "natural": "reef",
      "scuba_diving:entry:boat": "yes",
      "sport": "scuba_diving",
      "tourism": "attraction"
    }
  },
  {
    "name": "Five rocks",
    "lat": 3.5688653,
    "lon": 72.9415191,
    "osm_id": 10173028869,
    "osm_type": "node",
    "depth": 25,
    "site_type": "reef",
    "entry_type": "boat",
    "difficulty": "Intermediate",
    "tags": {
      "description": "Beautiful dive site with rich coral reefs, school of fishes and tunnels between rocks",
      "name": "Five rocks",
      "natural": "reef",
      "scuba_diving:entry:boat": "yes",
      "sport": "scuba_diving",
      "tourism": "attraction"
    }
  },
  {
    "name": "Fesdhoo thila",
    "lat": 3.9995814,
    "lon": 72.7857358,
    "osm_id": 10185709789,
    "osm_type": "node",
    "depth": 16,
    "site_type": "pinnacle",
    "entry_type": "boat",
    "difficulty": "Beginner",
    "tags": {
      "name": "Fesdhoo thila",
      "scuba_diving:depth": "16",
      "scuba_diving:entry:boat": "yes",
      "scuba_diving:type:sharks": "yes",
      "sport": "scuba_diving",
      "tourism": "attraction"
    }
  },
  {
    "name": "Victory Wreck",
    "lat": 4.1798982,
    "lon": 73.52538,
    "osm_id": 11300291678,
    "osm_type": "node",
    "depth": 25,
    "site_type": "wreck",
    "entry_type": "boat",
    "difficulty": "Intermediate",
    "tags": {
      "historic": "wreck",
      "name": "Victory Wreck",
      "seamark:type": "wreck",
      "sport": "scuba_diving",
      "wreck:date_sunk": "1981-02-23",
      "wreck:visible_at_high_tide": "no",
      "wreck:visible_at_low_tide": "no"
    }
  },
  {
    "name": "Rannamaari Wreck",
    "lat": 4.3055288,
    "lon": 73.4166647,
    "osm_id": 11300299755,
    "osm_type": "node",
    "depth": 25,
    "site_type": "wreck",
    "entry_type": "boat",
    "difficulty": "Intermediate",
    "tags": {
      "historic": "wreck",
      "name": "Rannamaari Wreck",
      "seamark:type": "wreck",
      "sport": "scuba_diving",
      "wreck:visible_at_high_tide": "no",
      "wreck:visible_at_low_tide": "no"
    }
  },
  {
    "name": "Keyodhoo Shipwreck",
    "lat": 3.4513707,
    "lon": 73.560624,
    "osm_id": 1481943981,
    "osm_type": "way",
    "depth": 25,
    "site_type": "wreck",
    "entry_type": "boat",
    "difficulty": "Intermediate",
    "tags": {
      "access": "yes",
      "alt_name": "Vaavu Atoll Shipwreck",
      "historic": "wreck",
      "name": "Keyodhoo Shipwreck",
      "seamark:type": "wreck",
      "seamark:wreck:category": "non-dangerous",
      "sport": "scuba_diving",
      "wreck:date_sunk": "2015",
      "wreck:visible_at_high_tide": "no",
      "wreck:visible_at_low_tide": "no"
    }
  }
]
