[
  {
    "name": "Diamond Rock",
    "lat": 14.445,
    "lon": -61.04,
    "depth": 35,
    "site_type": "wall",
    "entry_type": "boat",
    "difficulty": "Advanced",
    "tags": {
      "source": "curated",
      "addedBy": "fill_caribbean"
    }
  },
  {
    "name": "Rocher du Diamant Cave",
    "lat": 14.447,
    "lon": -61.038,
    "depth": 25,
    "site_type": "cave",
    "entry_type": "boat",
    "difficulty": "Advanced",
    "tags": {
      "source": "curated",
      "addedBy": "fill_caribbean"
    }
  },
  {
    "name": "Anse Dufour",
    "lat": 14.525,
    "lon": -61.085,
    "depth": 12,
    "site_type": "reef",
    "entry_type": "shore",
    "difficulty": "Beginner",
    "tags": {
      "source": "curated",
      "addedBy": "fill_caribbean"
    }
  },
  {
    "name": "St. Pierre Wrecks",
    "lat": 14.74,
    "lon": -61.18,
    "depth": 30,
    "site_type": "wreck",
    "entry_type": "boat",
    "difficulty": "Advanced",
    "tags": {
      "source": "curated",
      "addedBy": "fill_caribbean"
    }
  },
  {
    "name": "Rocher de la Perle",
    "lat": 14.77,
    "lon": -61.21,
    "depth": 20,
    "site_type": "reef",
    "entry_type": "boat",
    "difficulty": "Intermediate",
    "tags": {
      "source": "curated",
      "addedBy": "fill_caribbean"
    }
  },
  {
    "name": "Anse Noire",
    "lat": 14.53,
    "lon": -61.088,
    "depth": 8,
    "site_type": "reef",
    "entry_type": "shore",
    "difficulty": "Beginner",
    "tags": {
      "source": "curated",
      "addedBy": "fill_caribbean"
    }
  },
  {
    "name": "Cap Enragé",
    "lat": 14.44,
    "lon": -61.03,
    "depth": 22,
    "site_type": "reef",
    "entry_type": "boat",
    "difficulty": "Intermediate",
    "tags": {
      "source": "curated",
      "addedBy": "fill_caribbean"
    }
  },
  {
    "name": "Pointe Burgos",
    "lat": 14.55,
    "lon": -61.09,
    "depth": 18,
    "site_type": "reef",
    "entry_type": "boat",
    "difficulty": "Intermediate",
    "tags": {
      "source": "curated",
      "addedBy": "fill_caribbean"
    }
  },
  {
    "name": "Nahoon Wreck",
    "lat": 14.735,
    "lon": -61.175,
    "depth": 28,
    "site_type": "wreck",
    "entry_type": "boat",
    "difficulty": "Advanced",
    "tags": {
      "source": "curated",
      "addedBy": "fill_caribbean"
    }
  },
  {
    "name": "Grande Anse Reef",
    "lat": 14.46,
    "lon": -61.05,
    "depth": 14,
    "site_type": "reef",
    "entry_type": "boat",
    "difficulty": "Beginner",
    "tags": {
      "source": "curated",
      "addedBy": "fill_caribbean"
    }
  },
  {
    "name": "Citadelle",
    "lat": 14.745,
    "lon": -61.185,
    "depth": 16,
    "site_type": "reef",
    "entry_type": "shore",
    "difficulty": "Beginner",
    "tags": {
      "source": "curated",
      "addedBy": "fill_caribbean"
    }
  },
  {
    "name": "Jardin Tropical",
    "lat": 14.52,
    "lon": -61.08,
    "depth": 10,
    "site_type": "reef",
    "entry_type": "shore",
    "difficulty": "Beginner",
    "tags": {
      "source": "curated",
      "addedBy": "fill_caribbean"
    }
  },
  {
    "name": "Site de Plongée La Perle",
    "lat": 14.8415362,
    "lon": -61.2278178,
    "osm_id": 6226315751,
    "osm_type": "node",
    "depth": null,
    "site_type": "reef",
    "entry_type": null,
    "difficulty": null,
    "tags": {
      "name": "Site de Plongée La Perle",
      "scuba_diving:divespot": "yes",
      "source": "osm_extended",
      "sport": "scuba_diving",
      "wikidata": "Q120207110",
      "addedBy": "extended_overpass"
    }
  },
  {
    "name": "Krystal Toy",
    "lat": 14.464,
    "lon": -60.879,
    "osm_id": 7114610541,
    "osm_type": "node",
    "depth": null,
    "site_type": "wreck",
    "entry_type": null,
    "difficulty": null,
    "tags": {
      "seamark:name": "Krystal Toy",
      "seamark:type": "wreck",
      "seamark:wreck:category": "hull_showing",
      "source": "osm_extended",
      "addedBy": "extended_overpass"
    }
  },
  {
    "name": "Le Roraima (épave)",
    "lat": 14.7406783,
    "lon": -61.1802312,
    "osm_id": 10876753895,
    "osm_type": "node",
    "depth": null,
    "site_type": "wreck",
    "entry_type": null,
    "difficulty": null,
    "tags": {
      "access": "yes",
      "historic": "wreck",
      "name": "Le Roraima (épave)",
      "seamark:type": "wreck",
      "seamark:wreck:category": "non-dangerous",
      "wreck:date_sunk": "1902-05-08",
      "wreck:visible_at_high_tide": "no",
      "wreck:visible_at_low_tide": "no",
      "source": "osm_extended",
      "addedBy": "extended_overpass"
    }
  },
  {
    "name": "Épave Amelie",
    "lat": 14.7249268,
    "lon": -61.1820679,
    "osm_id": 11001881741,
    "osm_type": "node",
    "depth": null,
    "site_type": "wreck",
    "entry_type": null,
    "difficulty": null,
    "tags": {
      "historic": "wreck",
      "name": "Épave Amelie",
      "seamark:type": "wreck",
      "source": "osm_extended",
      "addedBy": "extended_overpass"
    }
  },
  {
    "name": "Le Banc de Sable",
    "lat": 14.7664378,
    "lon": -60.9647172,
    "osm_id": 481585921,
    "osm_type": "way",
    "depth": null,
    "site_type": "reef",
    "entry_type": null,
    "difficulty": null,
    "tags": {
      "name": "Le Banc de Sable",
      "natural": "reef",
      "reef": "sand",
      "source": "osm_extended",
      "addedBy": "extended_overpass"
    }
  },
  {
    "name": "Banc du Singe",
    "lat": 14.451809,
    "lon": -60.8877312,
    "osm_id": 550156698,
    "osm_type": "way",
    "depth": null,
    "site_type": "reef",
    "entry_type": null,
    "difficulty": null,
    "tags": {
      "name": "Banc du Singe",
      "natural": "reef",
      "reef": "sand",
      "source": "osm_extended",
      "addedBy": "extended_overpass"
    }
  },
  {
    "name": "Caye Duprey",
    "lat": 14.4578256,
    "lon": -60.8863538,
    "osm_id": 550157225,
    "osm_type": "way",
    "depth": null,
    "site_type": "reef",
    "entry_type": null,
    "difficulty": null,
    "tags": {
      "name": "Caye Duprey",
      "natural": "reef",
      "reef": "coral",
      "source": "osm_extended",
      "addedBy": "extended_overpass"
    }
  },
  {
    "name": "Banc du Mitan",
    "lat": 14.4629552,
    "lon": -60.872625,
    "osm_id": 550157501,
    "osm_type": "way",
    "depth": null,
    "site_type": "reef",
    "entry_type": null,
    "difficulty": null,
    "tags": {
      "name": "Banc du Mitan",
      "natural": "reef",
      "reef": "coral",
      "source": "osm_extended",
      "addedBy": "extended_overpass"
    }
  },
  {
    "name": "Banc Major",
    "lat": 14.4625903,
    "lon": -60.8788598,
    "osm_id": 550157502,
    "osm_type": "way",
    "depth": null,
    "site_type": "reef",
    "entry_type": null,
    "difficulty": null,
    "tags": {
      "name": "Banc Major",
      "natural": "reef",
      "reef": "coral",
      "source": "osm_extended",
      "addedBy": "extended_overpass"
    }
  },
  {
    "name": "Grand-Caye",
    "lat": 14.458436,
    "lon": -60.921857,
    "osm_id": 550157935,
    "osm_type": "way",
    "depth": null,
    "site_type": "reef",
    "entry_type": null,
    "difficulty": null,
    "tags": {
      "name": "Grand-Caye",
      "natural": "reef",
      "reef": "coral",
      "source": "osm_extended",
      "addedBy": "extended_overpass"
    }
  },
  {
    "name": "Baignoire de Joséphine",
    "lat": 14.6284876,
    "lon": -60.8495339,
    "osm_id": 903851062,
    "osm_type": "way",
    "depth": null,
    "site_type": "reef",
    "entry_type": null,
    "difficulty": null,
    "tags": {
      "name": "Baignoire de Joséphine",
      "natural": "reef",
      "source": "osm_extended",
      "addedBy": "extended_overpass"
    }
  }
]
