[
  {
    "name": "Diamond Rock",
    "lat": 14.445,
    "lon": -61.04,
    "depth": 40,
    "site_type": "wall",
    "entry_type": "boat",
    "difficulty": "Advanced",
    "tags": {
      "source": "curated",
      "addedBy": "fill_caribbean",
      "validated": true,
      "validation_source": "alphaplongee.com, tribloo.com, scubadiving.com"
    }
  },
  {
    "name": "Rocher du Diamant Cave",
    "lat": 14.447,
    "lon": -61.038,
    "depth": 20,
    "site_type": "cave",
    "entry_type": "boat",
    "difficulty": "Intermediate",
    "tags": {
      "source": "curated",
      "addedBy": "fill_caribbean",
      "validated": true,
      "validation_source": "alphaplongee.com, paradisplongee.com"
    }
  },
  {
    "name": "Anse Dufour",
    "lat": 14.525,
    "lon": -61.085,
    "depth": 12,
    "site_type": "reef",
    "entry_type": "shore",
    "difficulty": "Beginner",
    "tags": {
      "source": "curated",
      "addedBy": "fill_caribbean",
      "validated": true,
      "validation_source": "alphaplongee.com, tourcrib.com",
      "notes": "Excellent for turtle encounters, green and hawksbill turtles common"
    }
  },
  {
    "name": "St. Pierre Wrecks",
    "lat": 14.74,
    "lon": -61.18,
    "depth": 60,
    "site_type": "wreck",
    "entry_type": "boat",
    "difficulty": "Advanced",
    "tags": {
      "source": "curated",
      "addedBy": "fill_caribbean",
      "validated": true,
      "validation_source": "dreamwrecks.com, scubadiving.com",
      "notes": "Multiple wrecks from 1902 Mount Pelée eruption, including Roraima"
    }
  },
  {
    "name": "Rocher de la Perle",
    "lat": 14.77,
    "lon": -61.21,
    "depth": 40,
    "site_type": "wall",
    "entry_type": "boat",
    "difficulty": "Advanced",
    "tags": {
      "source": "curated",
      "addedBy": "fill_caribbean",
      "validated": true,
      "validation_source": "tribloo.com, martinique-tour.com",
      "notes": "Northernmost dive site, strong currents, drop-offs 20-60m, diverse fish"
    }
  },
  {
    "name": "Anse Noire",
    "lat": 14.53,
    "lon": -61.088,
    "depth": 8,
    "site_type": "reef",
    "entry_type": "shore",
    "difficulty": "Beginner",
    "tags": {
      "source": "curated",
      "addedBy": "fill_caribbean",
      "validated": true,
      "validation_source": "tourcrib.com, europcar-martinique.com",
      "notes": "Black sand beach, turtles common, calm reef"
    }
  },
  {
    "name": "Cap Enragé",
    "lat": 14.44,
    "lon": -61.03,
    "depth": 22,
    "site_type": "reef",
    "entry_type": "boat",
    "difficulty": "Intermediate",
    "tags": {
      "source": "curated",
      "addedBy": "fill_caribbean",
      "validated": true,
      "validation_source": "alphaplongee.com, tribloo.com",
      "notes": "Coral garden with caves, soft corals, gorgonians, accessible all levels"
    }
  },
  {
    "name": "Pointe Burgos",
    "lat": 14.55,
    "lon": -61.09,
    "depth": 12,
    "site_type": "reef",
    "entry_type": "boat",
    "difficulty": "Beginner",
    "tags": {
      "source": "curated",
      "addedBy": "fill_caribbean",
      "validated": true,
      "validation_source": "alphaplongee.com, paradisplongee.com",
      "notes": "Basaltic dome, 3-12m plateau, strong currents attract turtles"
    }
  },
  {
    "name": "Nahoon Wreck",
    "lat": 14.735,
    "lon": -61.175,
    "depth": 35,
    "site_type": "wreck",
    "entry_type": "boat",
    "difficulty": "Advanced",
    "tags": {
      "source": "curated",
      "addedBy": "fill_caribbean",
      "validated": true,
      "validation_source": "alphaplongee.com, dreamwrecks.com",
      "notes": "Three-masted sailing ship, sunk 1993 as artificial reef, well-preserved"
    }
  },
  {
    "name": "Grande Anse Reef",
    "lat": 14.46,
    "lon": -61.05,
    "depth": 14,
    "site_type": "reef",
    "entry_type": "boat",
    "difficulty": "Beginner",
    "tags": {
      "source": "curated",
      "addedBy": "fill_caribbean",
      "validated": true,
      "validation_source": "deepturtleplongee.fr, alpaplongee.com",
      "notes": "Home to green sea turtles, shallow plateau"
    }
  },
  {
    "name": "Citadelle",
    "lat": 14.745,
    "lon": -61.185,
    "depth": 16,
    "site_type": "reef",
    "entry_type": "shore",
    "difficulty": "Beginner",
    "tags": {
      "source": "curated",
      "addedBy": "fill_caribbean",
      "validated": true,
      "validation_source": "osm_extended, martinique-tour.com"
    }
  },
  {
    "name": "Jardin Tropical",
    "lat": 14.52,
    "lon": -61.08,
    "depth": 10,
    "site_type": "reef",
    "entry_type": "shore",
    "difficulty": "Beginner",
    "tags": {
      "source": "curated",
      "addedBy": "fill_caribbean",
      "validated": true,
      "validation_source": "paradisplongee.com, espaceplongee-martinique.com",
      "notes": "Gorgons, sponges, corals near Pointe de Salomon, excellent for beginners"
    }
  },
  {
    "name": "Site de Plongée La Perle",
    "lat": 14.8415362,
    "lon": -61.2278178,
    "osm_id": 6226315751,
    "osm_type": "node",
    "depth": 40,
    "site_type": "wall",
    "entry_type": "boat",
    "difficulty": "Advanced",
    "tags": {
      "name": "Site de Plongée La Perle",
      "scuba_diving:divespot": "yes",
      "source": "osm_extended",
      "sport": "scuba_diving",
      "wikidata": "Q120207110",
      "addedBy": "extended_overpass",
      "validated": true,
      "validation_source": "tribloo.com, martinique-tour.com",
      "notes": "Northernmost site, Dominique channel, drop-offs 20-60m, protected marine reserve"
    }
  },
  {
    "name": "Krystal Toy",
    "lat": 14.464,
    "lon": -60.879,
    "osm_id": 7114610541,
    "osm_type": "node",
    "depth": 20,
    "site_type": "wreck",
    "entry_type": "boat",
    "difficulty": "Intermediate",
    "tags": {
      "seamark:name": "Krystal Toy",
      "seamark:type": "wreck",
      "seamark:wreck:category": "hull_showing",
      "source": "osm_extended",
      "addedBy": "extended_overpass",
      "validated": false,
      "notes": "Limited documentation found, hull showing above water"
    }
  },
  {
    "name": "Le Roraima (épave)",
    "lat": 14.7406783,
    "lon": -61.1802312,
    "osm_id": 10876753895,
    "osm_type": "node",
    "depth": 55,
    "site_type": "wreck",
    "entry_type": "boat",
    "difficulty": "Advanced",
    "tags": {
      "access": "yes",
      "historic": "wreck",
      "name": "Le Roraima (épave)",
      "seamark:type": "wreck",
      "seamark:wreck:category": "non-dangerous",
      "wreck:date_sunk": "1902-05-08",
      "wreck:visible_at_high_tide": "no",
      "wreck:visible_at_low_tide": "no",
      "source": "osm_extended",
      "addedBy": "extended_overpass",
      "validated": true,
      "validation_source": "dreamwrecks.com, tribloo.com",
      "notes": "Canadian steamship, 103m long, sunk by 1902 eruption, iconic wreck"
    }
  },
  {
    "name": "Épave Amelie",
    "lat": 14.7249268,
    "lon": -61.1820679,
    "osm_id": 11001881741,
    "osm_type": "node",
    "depth": 6,
    "site_type": "wreck",
    "entry_type": "shore",
    "difficulty": "Beginner",
    "tags": {
      "historic": "wreck",
      "name": "Épave Amelie",
      "seamark:type": "wreck",
      "source": "osm_extended",
      "addedBy": "extended_overpass",
      "validated": true,
      "validation_source": "snorkeling-report.com, mapalmes.com",
      "notes": "Anse Turin, shallow 3-8m, shore accessible, suitable for snorkeling"
    }
  },
  {
    "name": "Le Banc de Sable",
    "lat": 14.7664378,
    "lon": -60.9647172,
    "osm_id": 481585921,
    "osm_type": "way",
    "depth": 15,
    "site_type": "reef",
    "entry_type": "boat",
    "difficulty": "Intermediate",
    "tags": {
      "name": "Le Banc de Sable",
      "natural": "reef",
      "reef": "sand",
      "source": "osm_extended",
      "addedBy": "extended_overpass",
      "validated": false,
      "notes": "Sand reef, limited dive information available"
    }
  },
  {
    "name": "Banc du Singe",
    "lat": 14.451809,
    "lon": -60.8877312,
    "osm_id": 550156698,
    "osm_type": "way",
    "depth": 12,
    "site_type": "reef",
    "entry_type": "boat",
    "difficulty": "Intermediate",
    "tags": {
      "name": "Banc du Singe",
      "natural": "reef",
      "reef": "sand",
      "source": "osm_extended",
      "addedBy": "extended_overpass",
      "validated": false,
      "notes": "Sand reef near Pointe Marin area"
    }
  },
  {
    "name": "Caye Duprey",
    "lat": 14.4578256,
    "lon": -60.8863538,
    "osm_id": 550157225,
    "osm_type": "way",
    "depth": 15,
    "site_type": "reef",
    "entry_type": "boat",
    "difficulty": "Intermediate",
    "tags": {
      "name": "Caye Duprey",
      "natural": "reef",
      "reef": "coral",
      "source": "osm_extended",
      "addedBy": "extended_overpass",
      "validated": false,
      "notes": "Coral reef, near Banc du Singe"
    }
  },
  {
    "name": "Banc du Mitan",
    "lat": 14.4629552,
    "lon": -60.872625,
    "osm_id": 550157501,
    "osm_type": "way",
    "depth": 15,
    "site_type": "reef",
    "entry_type": "boat",
    "difficulty": "Intermediate",
    "tags": {
      "name": "Banc du Mitan",
      "natural": "reef",
      "reef": "coral",
      "source": "osm_extended",
      "addedBy": "extended_overpass",
      "validated": false,
      "notes": "Coral reef"
    }
  },
  {
    "name": "Banc Major",
    "lat": 14.4625903,
    "lon": -60.8788598,
    "osm_id": 550157502,
    "osm_type": "way",
    "depth": 15,
    "site_type": "reef",
    "entry_type": "boat",
    "difficulty": "Intermediate",
    "tags": {
      "name": "Banc Major",
      "natural": "reef",
      "reef": "coral",
      "source": "osm_extended",
      "addedBy": "extended_overpass",
      "validated": false,
      "notes": "Coral reef"
    }
  },
  {
    "name": "Grand-Caye",
    "lat": 14.458436,
    "lon": -60.921857,
    "osm_id": 550157935,
    "osm_type": "way",
    "depth": 15,
    "site_type": "reef",
    "entry_type": "boat",
    "difficulty": "Intermediate",
    "tags": {
      "name": "Grand-Caye",
      "natural": "reef",
      "reef": "coral",
      "source": "osm_extended",
      "addedBy": "extended_overpass",
      "validated": false,
      "notes": "Coral reef"
    }
  },
  {
    "name": "Baignoire de Joséphine",
    "lat": 14.6284876,
    "lon": -60.8495339,
    "osm_id": 903851062,
    "osm_type": "way",
    "depth": 2,
    "site_type": "reef",
    "entry_type": "boat",
    "difficulty": "Beginner",
    "tags": {
      "name": "Baignoire de Joséphine",
      "natural": "reef",
      "source": "osm_extended",
      "addedBy": "extended_overpass",
      "validated": true,
      "validation_source": "labaignoiredejosephine.com, tourcrib.com",
      "notes": "Josephine's Bathtub - 2km off Le François, white sand shallow lagoon, 1-1.5m depth"
    }
  }
]
