[
  {
    "name": "U-869 (Wrack)",
    "lat": 39.5637,
    "lon": -73.0344,
    "osm_id": 663869526,
    "osm_type": "node",
    "depth": null,
    "site_type": "wreck",
    "entry_type": null,
    "difficulty": null,
    "tags": {
      "historic": "wreck",
      "name": "U-869 (Wrack)",
      "seamark:type": "wreck",
      "source": "osm_extended",
      "sport": "scuba_diving",
      "addedBy": "extended_overpass"
    }
  },
  {
    "name": "Sea King",
    "lat": 39.7533579,
    "lon": -74.101544,
    "osm_id": 1404734824,
    "osm_type": "node",
    "depth": null,
    "site_type": "wreck",
    "entry_type": null,
    "difficulty": null,
    "tags": {
      "historic": "wreck",
      "name": "Sea King",
      "seamark:type": "wreck",
      "start_date": "1963-02",
      "source": "osm_extended",
      "addedBy": "extended_overpass"
    }
  },
  {
    "name": "Tices Shoal",
    "lat": 39.8335824,
    "lon": -74.092767,
    "osm_id": 601883648,
    "osm_type": "way",
    "depth": null,
    "site_type": "reef",
    "entry_type": null,
    "difficulty": null,
    "tags": {
      "name": "Tices Shoal",
      "natural": "reef",
      "wikidata": "Q7800579",
      "wikipedia": "en:Tices shoal",
      "source": "osm_extended",
      "addedBy": "extended_overpass"
    }
  },
  {
    "name": "USS Algol (AKA-54)",
    "lat": 39.7692,
    "lon": -73.4736,
    "depth": 40,
    "site_type": "wreck",
    "entry_type": "boat",
    "difficulty": "Advanced",
    "tags": {
      "source": "curated",
      "addedBy": "gap_fill"
    }
  },
  {
    "name": "Stolt Dagali",
    "lat": 39.8183,
    "lon": -73.3167,
    "depth": 40,
    "site_type": "wreck",
    "entry_type": "boat",
    "difficulty": "Advanced",
    "tags": {
      "source": "curated",
      "addedBy": "gap_fill"
    }
  },
  {
    "name": "Mohawk",
    "lat": 40.115,
    "lon": -73.8833,
    "depth": 25,
    "site_type": "wreck",
    "entry_type": "boat",
    "difficulty": "Intermediate",
    "tags": {
      "source": "curated",
      "addedBy": "gap_fill"
    }
  },
  {
    "name": "Tolten",
    "lat": 39.4833,
    "lon": -73.8833,
    "depth": 30,
    "site_type": "wreck",
    "entry_type": "boat",
    "difficulty": "Intermediate",
    "tags": {
      "source": "curated",
      "addedBy": "gap_fill"
    }
  },
  {
    "name": "USS San Diego (ACR-6)",
    "lat": 40.44,
    "lon": -73.5667,
    "depth": 33,
    "site_type": "wreck",
    "entry_type": "boat",
    "difficulty": "Advanced",
    "tags": {
      "source": "curated",
      "addedBy": "gap_fill"
    }
  },
  {
    "name": "Andrea Doria",
    "lat": 40.2958,
    "lon": -69.8508,
    "depth": 73,
    "site_type": "wreck",
    "entry_type": "boat",
    "difficulty": "Advanced",
    "tags": {
      "source": "curated",
      "addedBy": "gap_fill"
    }
  },
  {
    "name": "Texas Tower #4",
    "lat": 39.75,
    "lon": -73.0,
    "depth": 55,
    "site_type": "wreck",
    "entry_type": "boat",
    "difficulty": "Advanced",
    "tags": {
      "source": "curated",
      "addedBy": "gap_fill"
    }
  },
  {
    "name": "Artificial Reef Site 15",
    "lat": 39.1917,
    "lon": -74.3583,
    "depth": 22,
    "site_type": "wreck",
    "entry_type": "boat",
    "difficulty": "Intermediate",
    "tags": {
      "source": "curated",
      "addedBy": "gap_fill"
    }
  },
  {
    "name": "Axel Carlson",
    "lat": 39.4167,
    "lon": -74.1833,
    "depth": 25,
    "site_type": "wreck",
    "entry_type": "boat",
    "difficulty": "Intermediate",
    "tags": {
      "source": "curated",
      "addedBy": "gap_fill"
    }
  },
  {
    "name": "Great Isaac",
    "lat": 39.7833,
    "lon": -73.4333,
    "depth": 35,
    "site_type": "wreck",
    "entry_type": "boat",
    "difficulty": "Advanced",
    "tags": {
      "source": "curated",
      "addedBy": "gap_fill"
    }
  }
]
