[
  {
    "name": "Navy Pier",
    "lat": -21.8097,
    "lon": 114.1578,
    "osm_id": null,
    "osm_type": null,
    "depth": 15,
    "site_type": "reef",
    "entry_type": "shore",
    "difficulty": "Intermediate",
    "tags": {
      "source": "curated",
      "addedBy": "gap_fill",
      "validated": "true",
      "validation_source": "diveningaloo.com.au,scubaboard.com,divezone.net",
      "last_qa_date": "2026-06-18"
    }
  },
  {
    "name": "Lighthouse Bay",
    "lat": -21.8833,
    "lon": 114.15,
    "osm_id": null,
    "osm_type": null,
    "depth": 15,
    "site_type": "reef",
    "entry_type": "boat",
    "difficulty": "Beginner",
    "tags": {
      "source": "curated",
      "addedBy": "gap_fill",
      "validated": "true",
      "validation_source": "diveningaloo.com.au,ningaloowhalesharks.com,techdivetravels.com",
      "last_qa_date": "2026-06-18"
    }
  },
  {
    "name": "Turquoise Bay",
    "lat": -22.0264,
    "lon": 113.9881,
    "osm_id": null,
    "osm_type": null,
    "depth": 6,
    "site_type": "reef",
    "entry_type": "shore",
    "difficulty": "Beginner",
    "tags": {
      "source": "curated",
      "addedBy": "gap_fill",
      "validated": "true",
      "validation_source": "exploreparks.dbca.wa.gov.au,snorkelspots.com,thediveglobe.com",
      "last_qa_date": "2026-06-18"
    }
  },
  {
    "name": "Bundegi Reef",
    "lat": -21.7833,
    "lon": 114.1833,
    "osm_id": null,
    "osm_type": null,
    "depth": 3,
    "site_type": "reef",
    "entry_type": "shore",
    "difficulty": "Beginner",
    "tags": {
      "source": "curated",
      "addedBy": "gap_fill",
      "validated": "true",
      "validation_source": "snorkelspots.com,ultimatewatersports.com.au,trailswa.com.au",
      "last_qa_date": "2026-06-18"
    }
  },
  {
    "name": "Tantabiddi",
    "lat": -21.9167,
    "lon": 113.9667,
    "osm_id": null,
    "osm_type": null,
    "depth": 15,
    "site_type": "reef",
    "entry_type": "boat",
    "difficulty": "Beginner",
    "tags": {
      "source": "curated",
      "addedBy": "gap_fill",
      "validated": "true",
      "validation_source": "exploreparks.dbca.wa.gov.au,aussiemarineadventures.com.au,diveningaloo.com.au",
      "last_qa_date": "2026-06-18"
    }
  },
  {
    "name": "Lakeside",
    "lat": -21.9333,
    "lon": 113.95,
    "osm_id": null,
    "osm_type": null,
    "depth": 3,
    "site_type": "reef",
    "entry_type": "shore",
    "difficulty": "Beginner",
    "tags": {
      "source": "curated",
      "addedBy": "gap_fill",
      "validated": "true",
      "validation_source": "thelifeofpy.com,snorkelspots.com,drinkteatravel.com",
      "last_qa_date": "2026-06-18"
    }
  },
  {
    "name": "Blizzard Ridge",
    "lat": -21.8008,
    "lon": 114.1237,
    "osm_id": null,
    "osm_type": null,
    "depth": 15,
    "site_type": "reef",
    "entry_type": "boat",
    "difficulty": "Intermediate",
    "tags": {
      "source": "curated",
      "addedBy": "gap_fill",
      "validated": "true",
      "validation_source": "padi.com,diveningaloo.com.au,scubadiving.com",
      "last_qa_date": "2026-06-18"
    }
  },
  {
    "name": "Clerke Reef",
    "lat": -17.2833,
    "lon": 119.35,
    "osm_id": null,
    "osm_type": null,
    "depth": 30,
    "site_type": "wall",
    "entry_type": "boat",
    "difficulty": "Advanced",
    "tags": {
      "source": "curated",
      "addedBy": "gap_fill",
      "validated": "true",
      "validation_source": "liveaboard.com,wikipedia.org,exploreparks.dbca.wa.gov.au",
      "qa_note": "Clerke Reef is part of the Rowley Shoals, located ~260km west of Broome, NOT part of Ningaloo Reef. This site is misplaced in this destination dataset. Rowley Shoals coordinates used (-17.28, 119.35). Recommend moving to a rowley-shoals destination.",
      "last_qa_date": "2026-06-18"
    }
  },
  {
    "name": "Mandu Wall",
    "lat": -22.1333,
    "lon": 113.8667,
    "osm_id": null,
    "osm_type": null,
    "depth": 25,
    "site_type": "wall",
    "entry_type": "boat",
    "difficulty": "Intermediate",
    "tags": {
      "source": "curated",
      "addedBy": "gap_fill",
      "validated": "true",
      "validation_source": "diveadvisor.com,aussiemarineadventures.com.au,whalesharktours.com.au",
      "last_qa_date": "2026-06-18"
    }
  },
  {
    "name": "The Labyrinth",
    "lat": -22.05,
    "lon": 113.9167,
    "osm_id": null,
    "osm_type": null,
    "depth": 18,
    "site_type": "reef",
    "entry_type": "boat",
    "difficulty": "Intermediate",
    "tags": {
      "source": "curated",
      "addedBy": "gap_fill",
      "validated": "true",
      "validation_source": "diveningaloo.com.au,moniqueliveslife.com,exmouthresort.net.au",
      "last_qa_date": "2026-06-18"
    }
  },
  {
    "name": "Norwegian Bay",
    "lat": -22.6064,
    "lon": 113.6744,
    "osm_id": null,
    "osm_type": null,
    "depth": 4,
    "site_type": "reef",
    "entry_type": "boat",
    "difficulty": "Beginner",
    "tags": {
      "source": "curated",
      "addedBy": "gap_fill",
      "validated": "true",
      "validation_source": "sailningaloo.com.au,divingwawrecks.com,shipwreckswa.com",
      "last_qa_date": "2026-06-18"
    }
  },
  {
    "name": "Oyster Stacks",
    "lat": -22.0333,
    "lon": 113.9833,
    "osm_id": null,
    "osm_type": null,
    "depth": 3,
    "site_type": "reef",
    "entry_type": "shore",
    "difficulty": "Beginner",
    "tags": {
      "source": "curated",
      "addedBy": "gap_fill",
      "validated": "true",
      "validation_source": "exploreparks.dbca.wa.gov.au,snorkelspots.com,australiascoralcoast.com",
      "last_qa_date": "2026-06-18"
    }
  }
]
