[
  {
    "name": "MuMart (museo sommerso)",
    "lat": 40.9991561,
    "lon": 9.6124256,
    "osm_id": 4840240367,
    "osm_type": "node",
    "depth": 25,
    "site_type": "reef",
    "entry_type": "boat",
    "difficulty": "Intermediate",
    "tags": {
      "historic": "monument",
      "name": "MuMart (museo sommerso)",
      "sport": "scuba_diving"
    }
  },
  {
    "name": "Diving Archimete",
    "lat": 40.5917382,
    "lon": 8.1682842,
    "osm_id": 10537548720,
    "osm_type": "node",
    "depth": 25,
    "site_type": "reef",
    "entry_type": "boat",
    "difficulty": "Intermediate",
    "tags": {
      "club": "sport",
      "name": "Diving Archimete",
      "sport": "scuba_diving"
    }
  },
  {
    "name": "Cala Mariolu",
    "lat": 40.1232825,
    "lon": 9.6767178,
    "osm_id": 184754084,
    "osm_type": "way",
    "depth": 25,
    "site_type": "beach",
    "entry_type": "boat",
    "difficulty": "Intermediate",
    "tags": {
      "fee": "no",
      "loc_name": "Ispuligedenie",
      "name": "Cala Mariolu",
      "name:sc": "Ispuligedenie",
      "natural": "beach",
      "sport": "scuba_diving",
      "surface": "pebblestone"
    }
  },
  {
    "name": "Nereo Cave",
    "lat": 40.56,
    "lon": 8.16,
    "depth": 30,
    "site_type": "cave",
    "entry_type": "boat",
    "difficulty": "Advanced",
    "tags": {
      "source": "curated",
      "addedBy": "fill_remaining_gaps"
    }
  },
  {
    "name": "Capo Caccia Cliffs",
    "lat": 40.57,
    "lon": 8.155,
    "depth": 25,
    "site_type": "wall",
    "entry_type": "boat",
    "difficulty": "Intermediate",
    "tags": {
      "source": "curated",
      "addedBy": "fill_remaining_gaps"
    }
  },
  {
    "name": "KT Wreck",
    "lat": 39.22,
    "lon": 9.12,
    "depth": 35,
    "site_type": "wreck",
    "entry_type": "boat",
    "difficulty": "Advanced",
    "tags": {
      "source": "curated",
      "addedBy": "fill_remaining_gaps"
    }
  },
  {
    "name": "Tavolara Island",
    "lat": 40.89,
    "lon": 9.71,
    "depth": 20,
    "site_type": "reef",
    "entry_type": "boat",
    "difficulty": "Intermediate",
    "tags": {
      "source": "curated",
      "addedBy": "fill_remaining_gaps"
    }
  },
  {
    "name": "Secca del Papa",
    "lat": 39.13,
    "lon": 8.4,
    "depth": 18,
    "site_type": "reef",
    "entry_type": "boat",
    "difficulty": "Intermediate",
    "tags": {
      "source": "curated",
      "addedBy": "fill_remaining_gaps"
    }
  },
  {
    "name": "Isola dei Cavoli",
    "lat": 39.08,
    "lon": 9.53,
    "depth": 22,
    "site_type": "reef",
    "entry_type": "boat",
    "difficulty": "Intermediate",
    "tags": {
      "source": "curated",
      "addedBy": "fill_remaining_gaps"
    }
  },
  {
    "name": "Cala Gonone",
    "lat": 40.28,
    "lon": 9.64,
    "depth": 15,
    "site_type": "cave",
    "entry_type": "boat",
    "difficulty": "Intermediate",
    "tags": {
      "source": "curated",
      "addedBy": "fill_remaining_gaps"
    }
  },
  {
    "name": "Villasimius Marine Park",
    "lat": 39.15,
    "lon": 9.51,
    "depth": 12,
    "site_type": "reef",
    "entry_type": "boat",
    "difficulty": "Beginner",
    "tags": {
      "source": "curated",
      "addedBy": "fill_remaining_gaps"
    }
  },
  {
    "name": "Porto Conte Reef",
    "lat": 40.58,
    "lon": 8.18,
    "depth": 16,
    "site_type": "reef",
    "entry_type": "shore",
    "difficulty": "Beginner",
    "tags": {
      "source": "curated",
      "addedBy": "fill_remaining_gaps"
    }
  }
]
