[
  {
    "name": "Barracuda Point",
    "lat": 4.1147,
    "lon": 118.6289,
    "osm_id": null,
    "osm_type": null,
    "depth": 40,
    "site_type": "wall",
    "entry_type": "boat",
    "difficulty": "Advanced",
    "tags": {
      "source": "curated",
      "addedBy": "gap_fill",
      "validated": true,
      "validation_source": "sipadan.com, scubaboard reviews, PADI dive guides"
    }
  },
  {
    "name": "South Point",
    "lat": 4.11,
    "lon": 118.6267,
    "osm_id": null,
    "osm_type": null,
    "depth": 40,
    "site_type": "wall",
    "entry_type": "boat",
    "difficulty": "Advanced",
    "tags": {
      "source": "curated",
      "addedBy": "gap_fill",
      "validated": true,
      "validation_source": "sipadan.com, scubaboard reviews, hammerhead shark sightings at 40m+"
    }
  },
  {
    "name": "Drop Off",
    "lat": 4.1167,
    "lon": 118.63,
    "osm_id": null,
    "osm_type": null,
    "depth": 40,
    "site_type": "wall",
    "entry_type": "boat",
    "difficulty": "Advanced",
    "tags": {
      "source": "curated",
      "addedBy": "gap_fill",
      "validated": true,
      "validation_source": "sipadan.com dive site guide"
    }
  },
  {
    "name": "Turtle Cavern",
    "lat": 4.1133,
    "lon": 118.6278,
    "osm_id": null,
    "osm_type": null,
    "depth": 21,
    "site_type": "cave",
    "entry_type": "boat",
    "difficulty": "Advanced",
    "tags": {
      "source": "curated",
      "addedBy": "gap_fill",
      "validated": true,
      "validation_source": "sipadan.com, PADI dive guides - limestone cave system with bell-shaped descent tunnel"
    }
  },
  {
    "name": "White Tip Avenue",
    "lat": 4.1117,
    "lon": 118.6256,
    "osm_id": null,
    "osm_type": null,
    "depth": 40,
    "site_type": "wall",
    "entry_type": "boat",
    "difficulty": "Intermediate",
    "tags": {
      "source": "curated",
      "addedBy": "gap_fill",
      "validated": true,
      "validation_source": "sipadan.com, scubaboard - named for frequent whitetip shark sightings on wall descent"
    }
  },
  {
    "name": "Hanging Gardens",
    "lat": 4.1183,
    "lon": 118.6322,
    "osm_id": null,
    "osm_type": null,
    "depth": 40,
    "site_type": "wall",
    "entry_type": "boat",
    "difficulty": "Intermediate",
    "tags": {
      "source": "curated",
      "addedBy": "gap_fill",
      "validated": true,
      "validation_source": "sipadan.com - shallow reef 2-5m with soft corals, fans, barrel sponges, wall drop-off"
    }
  },
  {
    "name": "Coral Gardens Sipadan",
    "lat": 4.12,
    "lon": 118.6333,
    "osm_id": null,
    "osm_type": null,
    "depth": 25,
    "site_type": "wall",
    "entry_type": "boat",
    "difficulty": "Intermediate",
    "tags": {
      "source": "curated",
      "addedBy": "gap_fill",
      "validated": true,
      "validation_source": "sipadan.com - shallow northeast reef 10m with acropora corals, gradual wall descent"
    }
  },
  {
    "name": "Mid Reef",
    "lat": 4.115,
    "lon": 118.6311,
    "osm_id": null,
    "osm_type": null,
    "depth": 20,
    "site_type": "wall",
    "entry_type": "boat",
    "difficulty": "Intermediate",
    "tags": {
      "source": "curated",
      "addedBy": "gap_fill",
      "validated": true,
      "validation_source": "sipadan.com - coral formations with table corals, black coral, gorgonians, hard coral flats for safety stops"
    }
  },
  {
    "name": "Lobster Lairs",
    "lat": 4.1083,
    "lon": 118.6244,
    "osm_id": null,
    "osm_type": null,
    "depth": 22,
    "site_type": "wall",
    "entry_type": "boat",
    "difficulty": "Intermediate",
    "tags": {
      "source": "curated",
      "addedBy": "gap_fill",
      "validated": true,
      "validation_source": "sipadan.com - named for lobsters in wall crevices, superb hard/soft coral with reef sharks"
    }
  },
  {
    "name": "Staghorn Crest",
    "lat": 4.1167,
    "lon": 118.6278,
    "osm_id": null,
    "osm_type": null,
    "depth": 20,
    "site_type": "wall",
    "entry_type": "boat",
    "difficulty": "Intermediate",
    "tags": {
      "source": "curated",
      "addedBy": "gap_fill",
      "validated": true,
      "validation_source": "sipadan.com - coral garden with 15m plateau, wall crevices full of life, staghorn corals, mild currents"
    }
  }
]
