[
  {
    "name": "Barracuda Point",
    "lat": 4.1147,
    "lon": 118.6289,
    "osm_id": null,
    "osm_type": null,
    "depth": 40,
    "site_type": "wall",
    "entry_type": "boat",
    "difficulty": "Advanced",
    "tags": {
      "source": "curated",
      "addedBy": "gap_fill",
      "validated": "true",
      "validation_source": "scuba-junkie.com,dive-the-world.com,divessi.com,bluewaterdivetravel.com,pulaumabul.com",
      "last_qa_date": "2026-06-30"
    }
  },
  {
    "name": "South Point",
    "lat": 4.11,
    "lon": 118.6267,
    "osm_id": null,
    "osm_type": null,
    "depth": 40,
    "site_type": "wall",
    "entry_type": "boat",
    "difficulty": "Advanced",
    "tags": {
      "source": "curated",
      "addedBy": "gap_fill",
      "validated": "true",
      "validation_source": "scuba-junkie.com,dive-the-world.com,divessi.com,bluewaterdivetravel.com,mabul.com",
      "last_qa_date": "2026-06-30"
    }
  },
  {
    "name": "Drop Off",
    "lat": 4.1167,
    "lon": 118.63,
    "osm_id": null,
    "osm_type": null,
    "depth": 40,
    "site_type": "wall",
    "entry_type": "boat",
    "difficulty": "Advanced",
    "tags": {
      "source": "curated",
      "addedBy": "gap_fill",
      "validated": "true",
      "validation_source": "scuba-junkie.com,dive-the-world.com,divessi.com,pulaumabul.com,mabul.com",
      "last_qa_date": "2026-06-30"
    }
  },
  {
    "name": "Turtle Cavern",
    "lat": 4.1133,
    "lon": 118.6278,
    "osm_id": null,
    "osm_type": null,
    "depth": 21,
    "site_type": "cave",
    "entry_type": "boat",
    "difficulty": "Advanced",
    "tags": {
      "source": "curated",
      "addedBy": "gap_fill",
      "validated": "true",
      "validation_source": "blog.padi.com,pulaumabul.com,mabul.com,divessi.com,scuba-junkie.com",
      "last_qa_date": "2026-06-30"
    }
  },
  {
    "name": "White Tip Avenue",
    "lat": 4.1117,
    "lon": 118.6256,
    "osm_id": null,
    "osm_type": null,
    "depth": 40,
    "site_type": "wall",
    "entry_type": "boat",
    "difficulty": "Intermediate",
    "tags": {
      "source": "curated",
      "addedBy": "gap_fill",
      "validated": "true",
      "validation_source": "scubadiveadvisor.com,dive-the-world.com,divessi.com,pulaumabul.com,mabul.com",
      "last_qa_date": "2026-06-30"
    }
  },
  {
    "name": "Hanging Gardens",
    "lat": 4.1183,
    "lon": 118.6322,
    "osm_id": null,
    "osm_type": null,
    "depth": 40,
    "site_type": "wall",
    "entry_type": "boat",
    "difficulty": "Intermediate",
    "tags": {
      "source": "curated",
      "addedBy": "gap_fill",
      "validated": "true",
      "validation_source": "dive-the-world.com,scuba-junkie.com,divessi.com,pulaumabul.com,mabul.com",
      "last_qa_date": "2026-06-30"
    }
  },
  {
    "name": "Coral Gardens Sipadan",
    "lat": 4.12,
    "lon": 118.6333,
    "osm_id": null,
    "osm_type": null,
    "depth": 23,
    "site_type": "reef",
    "entry_type": "boat",
    "difficulty": "Intermediate",
    "tags": {
      "source": "curated",
      "addedBy": "gap_fill",
      "validated": "true",
      "validation_source": "dive-the-world.com,divessi.com,pulaumabul.com,mabul.com,scuba-junkie.com",
      "last_qa_date": "2026-06-30"
    }
  },
  {
    "name": "Mid Reef",
    "lat": 4.115,
    "lon": 118.6311,
    "osm_id": null,
    "osm_type": null,
    "depth": 40,
    "site_type": "wall",
    "entry_type": "boat",
    "difficulty": "Intermediate",
    "tags": {
      "source": "curated",
      "addedBy": "gap_fill",
      "validated": "true",
      "validation_source": "dive-the-world.com,pulaumabul.com,mabul.com,divessi.com,scuba-junkie.com",
      "last_qa_date": "2026-06-30"
    }
  },
  {
    "name": "Lobster Lairs",
    "lat": 4.1083,
    "lon": 118.6244,
    "osm_id": null,
    "osm_type": null,
    "depth": 30,
    "site_type": "wall",
    "entry_type": "boat",
    "difficulty": "Intermediate",
    "tags": {
      "source": "curated",
      "addedBy": "gap_fill",
      "validated": "true",
      "validation_source": "dive-the-world.com,divezone.net,divessi.com,pulaumabul.com,mabul.com",
      "last_qa_date": "2026-06-30"
    }
  },
  {
    "name": "Staghorn Crest",
    "lat": 4.1167,
    "lon": 118.6278,
    "osm_id": null,
    "osm_type": null,
    "depth": 40,
    "site_type": "wall",
    "entry_type": "boat",
    "difficulty": "Intermediate",
    "tags": {
      "source": "curated",
      "addedBy": "gap_fill",
      "validated": "true",
      "validation_source": "dive-the-world.com,divezone.net,divessi.com,pulaumabul.com,mabul.com",
      "last_qa_date": "2026-06-30"
    }
  }
]
