[
  {
    "name": "Barracuda Point",
    "lat": 4.1147,
    "lon": 118.6289,
    "osm_id": null,
    "osm_type": null,
    "depth": 25,
    "site_type": "wall",
    "entry_type": "boat",
    "difficulty": "Intermediate",
    "tags": {
      "source": "curated",
      "addedBy": "gap_fill"
    }
  },
  {
    "name": "South Point",
    "lat": 4.11,
    "lon": 118.6267,
    "osm_id": null,
    "osm_type": null,
    "depth": 30,
    "site_type": "wall",
    "entry_type": "boat",
    "difficulty": "Intermediate",
    "tags": {
      "source": "curated",
      "addedBy": "gap_fill"
    }
  },
  {
    "name": "Drop Off",
    "lat": 4.1167,
    "lon": 118.63,
    "osm_id": null,
    "osm_type": null,
    "depth": 40,
    "site_type": "wall",
    "entry_type": "boat",
    "difficulty": "Advanced",
    "tags": {
      "source": "curated",
      "addedBy": "gap_fill"
    }
  },
  {
    "name": "Turtle Cavern",
    "lat": 4.1133,
    "lon": 118.6278,
    "osm_id": null,
    "osm_type": null,
    "depth": 20,
    "site_type": "cave",
    "entry_type": "boat",
    "difficulty": "Advanced",
    "tags": {
      "source": "curated",
      "addedBy": "gap_fill"
    }
  },
  {
    "name": "White Tip Avenue",
    "lat": 4.1117,
    "lon": 118.6256,
    "osm_id": null,
    "osm_type": null,
    "depth": 25,
    "site_type": "reef",
    "entry_type": "boat",
    "difficulty": "Intermediate",
    "tags": {
      "source": "curated",
      "addedBy": "gap_fill"
    }
  },
  {
    "name": "Hanging Gardens",
    "lat": 4.1183,
    "lon": 118.6322,
    "osm_id": null,
    "osm_type": null,
    "depth": 18,
    "site_type": "reef",
    "entry_type": "boat",
    "difficulty": "Intermediate",
    "tags": {
      "source": "curated",
      "addedBy": "gap_fill"
    }
  },
  {
    "name": "Coral Gardens Sipadan",
    "lat": 4.12,
    "lon": 118.6333,
    "osm_id": null,
    "osm_type": null,
    "depth": 12,
    "site_type": "reef",
    "entry_type": "boat",
    "difficulty": "Beginner",
    "tags": {
      "source": "curated",
      "addedBy": "gap_fill"
    }
  },
  {
    "name": "Mid Reef",
    "lat": 4.115,
    "lon": 118.6311,
    "osm_id": null,
    "osm_type": null,
    "depth": 20,
    "site_type": "reef",
    "entry_type": "boat",
    "difficulty": "Intermediate",
    "tags": {
      "source": "curated",
      "addedBy": "gap_fill"
    }
  },
  {
    "name": "Lobster Lairs",
    "lat": 4.1083,
    "lon": 118.6244,
    "osm_id": null,
    "osm_type": null,
    "depth": 22,
    "site_type": "reef",
    "entry_type": "boat",
    "difficulty": "Intermediate",
    "tags": {
      "source": "curated",
      "addedBy": "gap_fill"
    }
  },
  {
    "name": "Staghorn Crest",
    "lat": 4.1167,
    "lon": 118.6278,
    "osm_id": null,
    "osm_type": null,
    "depth": 15,
    "site_type": "reef",
    "entry_type": "boat",
    "difficulty": "Beginner",
    "tags": {
      "source": "curated",
      "addedBy": "gap_fill"
    }
  }
]