[
  {
    "name": "Twin Peaks",
    "lat": 9.0562852,
    "lon": 97.8150386,
    "osm_id": 270980741,
    "osm_type": "node",
    "depth": 35,
    "site_type": "pinnacle",
    "entry_type": "liveaboard",
    "difficulty": "Advanced",
    "validated": true,
    "validation_source": "dive operator sites, ScubaBoard",
    "tags": {
      "name": "Twin Peaks",
      "scuba_diving:entry": "boat",
      "scuba_diving:type:reef": "yes",
      "sport": "scuba_diving",
      "tourism": "attraction"
    }
  },
  {
    "name": "Boonsung Wreck",
    "lat": 8.7707571,
    "lon": 98.1863863,
    "osm_id": 6146706985,
    "osm_type": "node",
    "depth": 20,
    "site_type": "wreck",
    "entry_type": "day trip",
    "difficulty": "Beginner",
    "validated": true,
    "validation_source": "PADI, dive operator sites",
    "tags": {
      "name": "Boonsung Wreck",
      "sport": "scuba_diving"
    }
  },
  {
    "name": "The Dome",
    "lat": 9.0563523,
    "lon": 97.8122901,
    "osm_id": 6164080185,
    "osm_type": "node",
    "depth": 30,
    "site_type": "pinnacle",
    "entry_type": "liveaboard",
    "difficulty": "Advanced",
    "validated": true,
    "validation_source": "dive operator sites",
    "tags": {
      "name": "The Dome",
      "name:en": "Koh Tachai Pinnacle",
      "scuba_diving:entry:boat": "yes",
      "sport": "scuba_diving",
      "tourism": "attraction"
    }
  },
  {
    "name": "Elephant Head Rock",
    "lat": 8.6217,
    "lon": 97.6413,
    "depth": 40,
    "site_type": "pinnacle",
    "entry_type": "liveaboard",
    "difficulty": "Advanced",
    "validated": true,
    "validation_source": "divezone.net, dive operator sites, ScubaBoard",
    "tags": {
      "source": "curated",
      "addedBy": "fill_remaining_gaps"
    }
  },
  {
    "name": "Christmas Point",
    "lat": 8.6808,
    "lon": 97.6372,
    "depth": 40,
    "site_type": "boulder",
    "entry_type": "liveaboard",
    "difficulty": "Advanced",
    "validated": true,
    "validation_source": "divezone.net, dive operator sites",
    "tags": {
      "source": "curated",
      "addedBy": "fill_remaining_gaps"
    }
  },
  {
    "name": "East of Eden",
    "lat": 8.5931,
    "lon": 97.6406,
    "depth": 40,
    "site_type": "reef",
    "entry_type": "liveaboard",
    "difficulty": "Intermediate",
    "validated": true,
    "validation_source": "divezone.net, dive operator sites",
    "tags": {
      "source": "curated",
      "addedBy": "fill_remaining_gaps"
    }
  },
  {
    "name": "Anita's Reef",
    "lat": 8.5717,
    "lon": 97.6472,
    "depth": 28,
    "site_type": "reef",
    "entry_type": "liveaboard",
    "difficulty": "Intermediate",
    "validated": true,
    "validation_source": "divezone.net, dive operator sites",
    "tags": {
      "source": "curated",
      "addedBy": "fill_remaining_gaps"
    }
  },
  {
    "name": "Deep Six",
    "lat": 8.6000,
    "lon": 97.6347,
    "depth": 40,
    "site_type": "boulder",
    "entry_type": "liveaboard",
    "difficulty": "Advanced",
    "validated": true,
    "validation_source": "divezone.net, dive operator sites",
    "tags": {
      "source": "curated",
      "addedBy": "fill_remaining_gaps"
    }
  },
  {
    "name": "West of Six",
    "lat": 8.5911,
    "lon": 97.6350,
    "depth": 30,
    "site_type": "reef",
    "entry_type": "liveaboard",
    "difficulty": "Intermediate",
    "validated": true,
    "validation_source": "divezone.net, dive operator sites",
    "tags": {
      "source": "curated",
      "addedBy": "fill_remaining_gaps"
    }
  },
  {
    "name": "Koh Bon Pinnacle",
    "lat": 8.8336,
    "lon": 97.7975,
    "depth": 50,
    "site_type": "pinnacle",
    "entry_type": "liveaboard",
    "difficulty": "Advanced",
    "validated": true,
    "validation_source": "divezone.net, dive operator sites",
    "tags": {
      "source": "curated",
      "addedBy": "fill_remaining_gaps"
    }
  },
  {
    "name": "Koh Tachai Pinnacle",
    "lat": 9.0576,
    "lon": 97.8134,
    "depth": 45,
    "site_type": "pinnacle",
    "entry_type": "liveaboard",
    "difficulty": "Advanced",
    "validated": true,
    "validation_source": "divezone.net, dive operator sites",
    "tags": {
      "source": "curated",
      "addedBy": "fill_remaining_gaps"
    }
  },
  {
    "name": "Beacon Reef",
    "lat": 8.6305,
    "lon": 97.6532,
    "depth": 30,
    "site_type": "reef",
    "entry_type": "liveaboard",
    "difficulty": "Beginner",
    "validated": true,
    "validation_source": "divezone.net, dive operator sites",
    "tags": {
      "source": "curated",
      "addedBy": "fill_remaining_gaps"
    }
  },
  {
    "name": "Turtle Rock",
    "lat": 8.6636,
    "lon": 97.6377,
    "depth": 25,
    "site_type": "boulder",
    "entry_type": "liveaboard",
    "difficulty": "Beginner",
    "validated": true,
    "validation_source": "divezone.net, dive operator sites",
    "tags": {
      "source": "curated",
      "addedBy": "fill_remaining_gaps"
    }
  },
  {
    "name": "Fantasea Reef",
    "lat": 8.6560,
    "lon": 97.6365,
    "depth": 40,
    "site_type": "boulder",
    "entry_type": "liveaboard",
    "difficulty": "Intermediate",
    "validated": true,
    "validation_source": "divezone.net, dive operator sites",
    "tags": {
      "source": "curated",
      "addedBy": "fill_remaining_gaps"
    }
  }
]
