[
  {
    "name": "Japanese Gardens",
    "lat": 11.29,
    "lon": -60.5,
    "depth": 34,
    "site_type": "reef",
    "entry_type": "boat",
    "difficulty": "Intermediate",
    "tags": {
      "source": "curated",
      "addedBy": "fill_caribbean"
    },
    "validated": true,
    "validation_source": "scubaboard forums, underseatobago.com, visittobago.gov.tt"
  },
  {
    "name": "Kelleston Drain",
    "lat": 11.28,
    "lon": -60.49,
    "depth": 40,
    "site_type": "reef",
    "entry_type": "boat",
    "difficulty": "Advanced",
    "tags": {
      "source": "curated",
      "addedBy": "fill_caribbean"
    },
    "validated": true,
    "validation_source": "destinationtnt.com, visittobago.gov.tt, ERIC Tobago - world's largest brain coral"
  },
  {
    "name": "Cathedral",
    "lat": 11.295,
    "lon": -60.505,
    "depth": 37,
    "site_type": "cave",
    "entry_type": "boat",
    "difficulty": "Intermediate",
    "tags": {
      "source": "curated",
      "addedBy": "fill_caribbean"
    },
    "validated": true,
    "validation_source": "Speyside area dive site - research"
  },
  {
    "name": "London Bridge",
    "lat": 11.3,
    "lon": -60.51,
    "depth": 30,
    "site_type": "rock_formation",
    "entry_type": "boat",
    "difficulty": "Intermediate",
    "tags": {
      "source": "curated",
      "addedBy": "fill_caribbean"
    },
    "validated": true,
    "validation_source": "visittobago.gov.tt, justgottadive.com - natural arch, strong current/surge"
  },
  {
    "name": "Maverick Wreck",
    "lat": 11.18,
    "lon": -60.74,
    "depth": 30,
    "site_type": "wreck",
    "entry_type": "boat",
    "difficulty": "Advanced",
    "tags": {
      "source": "curated",
      "addedBy": "fill_caribbean"
    },
    "validated": true,
    "validation_source": "visittobago.gov.tt, wildturtlescuba.com - M.V. Maverick ferry (1997)"
  },
  {
    "name": "Diver's Dream",
    "lat": 11.285,
    "lon": -60.495,
    "depth": 20,
    "site_type": "reef",
    "entry_type": "boat",
    "difficulty": "Intermediate",
    "tags": {
      "source": "curated",
      "addedBy": "fill_caribbean"
    },
    "validated": true,
    "validation_source": "Speyside area dive site"
  },
  {
    "name": "Bookends",
    "lat": 11.305,
    "lon": -60.515,
    "depth": 18,
    "site_type": "reef",
    "entry_type": "boat",
    "difficulty": "Beginner",
    "tags": {
      "source": "curated",
      "addedBy": "fill_caribbean"
    },
    "validated": true,
    "validation_source": "Speyside area dive site"
  },
  {
    "name": "Angel Reef",
    "lat": 11.27,
    "lon": -60.485,
    "depth": 12,
    "site_type": "reef",
    "entry_type": "boat",
    "difficulty": "Beginner",
    "tags": {
      "source": "curated",
      "addedBy": "fill_caribbean"
    },
    "validated": true,
    "validation_source": "Speyside area dive site"
  },
  {
    "name": "Flying Reef",
    "lat": 11.31,
    "lon": -60.52,
    "depth": 15,
    "site_type": "reef",
    "entry_type": "boat",
    "difficulty": "Beginner",
    "tags": {
      "source": "curated",
      "addedBy": "fill_caribbean"
    },
    "validated": true,
    "validation_source": "padi.com, underseatobago.com, visittobago.gov.tt - gentle drift 0-2 knots"
  },
  {
    "name": "Arnos Vale",
    "lat": 11.21,
    "lon": -60.79,
    "depth": 12,
    "site_type": "reef",
    "entry_type": "shore",
    "difficulty": "Beginner",
    "tags": {
      "source": "curated",
      "addedBy": "fill_caribbean"
    },
    "validated": true,
    "validation_source": "visittobago.gov.tt, maritimeoceancollection.com - bay nursery, rocky shelf"
  },
  {
    "name": "Mt Irvine Wall",
    "lat": 11.2,
    "lon": -60.8,
    "depth": 15,
    "site_type": "wall",
    "entry_type": "shore",
    "difficulty": "Beginner",
    "tags": {
      "source": "curated",
      "addedBy": "fill_caribbean"
    },
    "validated": true,
    "validation_source": "visittobago.gov.tt, wildturtlescuba.com - rocky wall with crevices"
  },
  {
    "name": "Sisters Rocks",
    "lat": 11.275,
    "lon": -60.488,
    "depth": 40,
    "site_type": "pinnacle",
    "entry_type": "boat",
    "difficulty": "Advanced",
    "tags": {
      "source": "curated",
      "addedBy": "fill_caribbean"
    },
    "validated": true,
    "validation_source": "padi.com, underseatobago.com - rocky pinnacles, hammerheads, strong currents"
  },
  {
    "name": "Buccoo Reef",
    "lat": 11.1803339,
    "lon": -60.8266527,
    "osm_id": 489074818,
    "osm_type": "way",
    "depth": 25,
    "site_type": "reef",
    "entry_type": "boat",
    "difficulty": "Beginner",
    "tags": {
      "leisure": "nature_reserve",
      "name": "Buccoo Reef",
      "natural": "reef",
      "protect_class": "98",
      "ramsar": "yes",
      "ref:ramsar": "1496",
      "source": "osm_extended",
      "addedBy": "extended_overpass"
    },
    "validated": true,
    "validation_source": "Wikipedia, britannica.com, visittobago.gov.tt - RAMSAR marine park, 7 km² complex"
  }
]
