[
  {
    "name": "Shark Sculpture",
    "lat": 36.1908981,
    "lon": 29.6091391,
    "osm_id": 27147064,
    "osm_type": "node",
    "depth": 25,
    "site_type": "reef",
    "entry_type": "boat",
    "difficulty": "Intermediate",
    "tags": {
      "artwork_type": "statue",
      "description": "underwater shark sculpture",
      "is_in": "Turkey, Antalya, Kaş",
      "name": "Shark Sculpture",
      "sport": "scuba_diving",
      "tourism": "artwork"
    }
  },
  {
    "name": "Καλλιθέα",
    "lat": 36.3776033,
    "lon": 28.2372284,
    "osm_id": 793101120,
    "osm_type": "node",
    "depth": 30,
    "site_type": "reef",
    "entry_type": "boat",
    "difficulty": "Intermediate",
    "tags": {
      "int_name": "Kalithea",
      "name": "Καλλιθέα",
      "name:de": "Kalithea Therme",
      "name:el": "Kalithea Therme",
      "name:en": "Kalithea",
      "name:tr": "Kalatiz",
      "place": "suburb",
      "sport": "scuba_diving"
    }
  },
  {
    "name": "Waterhoppers",
    "lat": 36.4477122,
    "lon": 28.2263974,
    "osm_id": 793101328,
    "osm_type": "node",
    "depth": 25,
    "site_type": "reef",
    "entry_type": "boat",
    "difficulty": "Intermediate",
    "tags": {
      "description": "Info point only",
      "name": "Waterhoppers",
      "sport": "scuba_diving"
    }
  },
  {
    "name": "Kerveli scouba diving",
    "lat": 37.7325497,
    "lon": 27.0360789,
    "osm_id": 2547460303,
    "osm_type": "node",
    "depth": 25,
    "site_type": "reef",
    "entry_type": "boat",
    "difficulty": "Intermediate",
    "tags": {
      "leisure": "pitch",
      "name": "Kerveli scouba diving",
      "sport": "scuba_diving"
    }
  },
  {
    "name": "Uçak Batığı",
    "lat": 36.9870592,
    "lon": 27.4325639,
    "osm_id": 10973665012,
    "osm_type": "node",
    "depth": 25,
    "site_type": "wreck",
    "entry_type": "boat",
    "difficulty": "Intermediate",
    "tags": {
      "name": "Uçak Batığı",
      "scuba_diving:type": "wreck",
      "sport": "scuba_diving"
    }
  },
  {
    "name": "Büyük Resif",
    "lat": 37.0056664,
    "lon": 27.4129862,
    "osm_id": 10973665013,
    "osm_type": "node",
    "depth": 25,
    "site_type": "reef",
    "entry_type": "boat",
    "difficulty": "Intermediate",
    "tags": {
      "name": "Büyük Resif",
      "scuba_diving:type": "reef",
      "sport": "scuba_diving"
    }
  },
  {
    "name": "Aksona",
    "lat": 36.9599139,
    "lon": 27.4864435,
    "osm_id": 10973665014,
    "osm_type": "node",
    "depth": 25,
    "site_type": "reef",
    "entry_type": "boat",
    "difficulty": "Intermediate",
    "tags": {
      "name": "Aksona",
      "scuba_diving:type": "yes",
      "sport": "scuba_diving"
    }
  },
  {
    "name": "Σπήλαιο Αρχαγγέλου",
    "lat": 36.2025045,
    "lon": 28.1425738,
    "osm_id": 11212100525,
    "osm_type": "node",
    "depth": 30,
    "site_type": "cave",
    "entry_type": "boat",
    "difficulty": "Intermediate",
    "tags": {
      "description": "Natural Caves and Grottos",
      "name": "Σπήλαιο Αρχαγγέλου",
      "name:el": "Σπήλαιο Αρχαγγέλου",
      "name:en": "Archangelos Cave",
      "natural": "cave_entrance",
      "scuba_diving:divespot": "no",
      "sport": "scuba_diving",
      "tourism": "attraction"
    }
  },
  {
    "name": "Psarapoula",
    "lat": 36.453164,
    "lon": 28.2169361,
    "osm_id": 11842033099,
    "osm_type": "node",
    "depth": 25,
    "site_type": "reef",
    "entry_type": "boat",
    "difficulty": "Intermediate",
    "tags": {
      "name": "Psarapoula",
      "sport": "scuba_diving"
    }
  }
]
