[
  {
    "name": "SMS Cormoran",
    "filename": "sms-cormoran.md",
    "lat": 13.4557,
    "lng": 144.653883,
    "difficulty": "Advanced",
    "maxDepth": 34,
    "entryType": "boat",
    "siteType": "wreck",
    "ref": "",
    "osmId": null
  },
  {
    "name": "Tokai Maru",
    "filename": "tokai-maru.md",
    "lat": 13.4557,
    "lng": 144.653883,
    "difficulty": "Advanced",
    "maxDepth": 37,
    "entryType": "boat",
    "siteType": "wreck",
    "ref": "",
    "osmId": null
  },
  {
    "name": "Blue Hole",
    "filename": "blue-hole.md",
    "lat": 13.4365,
    "lng": 144.626083,
    "difficulty": "Advanced",
    "maxDepth": 40,
    "entryType": "boat",
    "siteType": "cave",
    "ref": "",
    "osmId": null
  },
  {
    "name": "Gab Gab Reef",
    "filename": "gab-gab-reef.md",
    "lat": 13.445,
    "lng": 144.643611,
    "difficulty": "Beginner",
    "maxDepth": 18,
    "entryType": "shore",
    "siteType": "reef",
    "ref": "",
    "osmId": null
  },
  {
    "name": "Fish Eye Marine Park",
    "filename": "fish-eye-marine-park.md",
    "lat": 13.428,
    "lng": 144.654,
    "difficulty": "Beginner",
    "maxDepth": 9,
    "entryType": "shore",
    "siteType": "reef",
    "ref": "",
    "osmId": null
  },
  {
    "name": "Gun Beach",
    "filename": "gun-beach.md",
    "lat": 13.52,
    "lng": 144.78,
    "difficulty": "Beginner",
    "maxDepth": 20,
    "entryType": "shore",
    "siteType": "reef",
    "ref": "",
    "osmId": null
  },
  {
    "name": "Hap's Reef",
    "filename": "haps-reef.md",
    "lat": 13.38,
    "lng": 144.635,
    "difficulty": "Beginner",
    "maxDepth": 18,
    "entryType": "boat",
    "siteType": "reef",
    "ref": "",
    "osmId": null
  },
  {
    "name": "Shark Pit",
    "filename": "shark-pit.md",
    "lat": 13.435,
    "lng": 144.625,
    "difficulty": "Intermediate",
    "maxDepth": 27,
    "entryType": "boat",
    "siteType": "reef",
    "ref": "",
    "osmId": null
  }
]
