[
  {
    "name": "Akitsushima",
    "filename": "akitsushima.md",
    "lat": 11.9871,
    "lng": 119.9735333,
    "difficulty": "Advanced",
    "maxDepth": 36,
    "entryType": "boat",
    "siteType": "wreck",
    "ref": "",
    "osmId": 663871197
  },
  {
    "name": "Biet Point",
    "filename": "biet-point.md",
    "lat": 11.1414055,
    "lng": 119.3047041,
    "difficulty": "Intermediate",
    "maxDepth": 21,
    "entryType": "boat",
    "siteType": "wall",
    "ref": "",
    "osmId": 9865420678
  },
  {
    "name": "Cave",
    "filename": "cave.md",
    "lat": 11.1536768,
    "lng": 119.279235,
    "difficulty": "Advanced",
    "maxDepth": 30,
    "entryType": "boat",
    "siteType": "cave",
    "ref": "",
    "osmId": 9865472184
  },
  {
    "name": "Banayan Point",
    "filename": "banayan-point.md",
    "lat": 11.1356437,
    "lng": 119.2806245,
    "difficulty": "Advanced",
    "maxDepth": 22,
    "entryType": "boat",
    "siteType": "wall",
    "ref": "",
    "osmId": 9865490958
  },
  {
    "name": "Bikanayos Rock",
    "filename": "bikanayos-rock.md",
    "lat": 11.1439916,
    "lng": 119.2781609,
    "difficulty": "Advanced",
    "maxDepth": 20,
    "entryType": "boat",
    "siteType": "wall",
    "ref": "",
    "osmId": 9865495623
  },
  {
    "name": "Twin Reef",
    "filename": "twin-reef.md",
    "lat": 10.4431259,
    "lng": 119.1645987,
    "difficulty": "Beginner",
    "maxDepth": 20,
    "entryType": "boat",
    "siteType": "reef",
    "ref": "",
    "osmId": 1354585119
  },
  {
    "name": "Fantastic Reef",
    "filename": "fantastic-reef.md",
    "lat": 10.4542766,
    "lng": 119.1612451,
    "difficulty": "Intermediate",
    "maxDepth": 25,
    "entryType": "boat",
    "siteType": "reef",
    "ref": "",
    "osmId": 1354585330
  },
  {
    "name": "Brown Reef",
    "filename": "brown-reef.md",
    "lat": 10.7006614,
    "lng": 117.2566739,
    "difficulty": "Intermediate",
    "maxDepth": 25,
    "entryType": "boat",
    "siteType": "reef",
    "ref": "",
    "osmId": 302105912
  },
  {
    "name": "Fairie Queen",
    "filename": "fairie-queen.md",
    "lat": 10.616667,
    "lng": 117.633333,
    "difficulty": "Intermediate",
    "maxDepth": 20,
    "entryType": "boat",
    "siteType": "reef",
    "ref": "",
    "osmId": 302106076
  },
  {
    "name": "Sandy Shoal",
    "filename": "sandy-shoal.md",
    "lat": 11.05,
    "lng": 117.633333,
    "difficulty": "Intermediate",
    "maxDepth": 18,
    "entryType": "boat",
    "siteType": "reef",
    "ref": "",
    "osmId": 302106207
  },
  {
    "name": "Maggie Reef",
    "filename": "maggie-reef.md",
    "lat": 7.4027854,
    "lng": 117.2984421,
    "difficulty": "Intermediate",
    "maxDepth": 22,
    "entryType": "boat",
    "siteType": "reef",
    "ref": "",
    "osmId": 6738675480
  },
  {
    "name": "Kalang Kechil",
    "filename": "kalang-kechil.md",
    "lat": 7.3717619,
    "lng": 117.2908884,
    "difficulty": "Intermediate",
    "maxDepth": 20,
    "entryType": "boat",
    "siteType": "reef",
    "ref": "",
    "osmId": 6738682611
  },
  {
    "name": "Kalang Besar",
    "filename": "kalang-besar.md",
    "lat": 7.3761259,
    "lng": 117.2826439,
    "difficulty": "Intermediate",
    "maxDepth": 22,
    "entryType": "boat",
    "siteType": "reef",
    "ref": "",
    "osmId": 6738682612
  },
  {
    "name": "Southeast Banggi Dangers",
    "filename": "southeast-banggi-dangers.md",
    "lat": 7.150012,
    "lng": 117.3833679,
    "difficulty": "Intermediate",
    "maxDepth": 18,
    "entryType": "boat",
    "siteType": "reef",
    "ref": "",
    "osmId": 6739186148
  },
  {
    "name": "Carrington Reefs",
    "filename": "carrington-reefs.md",
    "lat": 7.1432913,
    "lng": 117.2535095,
    "difficulty": "Intermediate",
    "maxDepth": 20,
    "entryType": "boat",
    "siteType": "reef",
    "ref": "",
    "osmId": 6739186149
  },
  {
    "name": "Jesse Beazley Reef",
    "filename": "jesse-beazley-reef.md",
    "lat": 9.0466227,
    "lng": 119.8142609,
    "difficulty": "Advanced",
    "maxDepth": 29,
    "entryType": "boat",
    "siteType": "wall",
    "ref": "",
    "osmId": 31974943
  },
  {
    "name": "Valparaiso Shoal",
    "filename": "valparaiso-shoal.md",
    "lat": 7.8535398,
    "lng": 118.4203649,
    "difficulty": "Intermediate",
    "maxDepth": 20,
    "entryType": "boat",
    "siteType": "reef",
    "ref": "",
    "osmId": 413035982
  },
  {
    "name": "Java Reef",
    "filename": "java-reef.md",
    "lat": 7.8360137,
    "lng": 118.5626615,
    "difficulty": "Intermediate",
    "maxDepth": 22,
    "entryType": "boat",
    "siteType": "reef",
    "ref": "",
    "osmId": 413035990
  },
  {
    "name": "Coycoy Reef",
    "filename": "coycoy-reef.md",
    "lat": 7.4825424,
    "lng": 117.2411987,
    "difficulty": "Intermediate",
    "maxDepth": 20,
    "entryType": "boat",
    "siteType": "reef",
    "ref": "",
    "osmId": 413036033
  },
  {
    "name": "Kalang Kapal Buhuk",
    "filename": "kalang-kapal-buhuk.md",
    "lat": 7.3934834,
    "lng": 117.3516624,
    "difficulty": "Intermediate",
    "maxDepth": 21,
    "entryType": "boat",
    "siteType": "reef",
    "ref": "",
    "osmId": 717550232
  },
  {
    "name": "Malawali Eastern Dangers",
    "filename": "malawali-eastern-dangers.md",
    "lat": 7.0618757,
    "lng": 117.4353953,
    "difficulty": "Intermediate",
    "maxDepth": 19,
    "entryType": "boat",
    "siteType": "reef",
    "ref": "",
    "osmId": 717648122
  },
  {
    "name": "Wood Bank",
    "filename": "wood-bank.md",
    "lat": 10.6047483,
    "lng": 117.1671437,
    "difficulty": "Intermediate",
    "maxDepth": 23,
    "entryType": "boat",
    "siteType": "reef",
    "ref": "",
    "osmId": 845732602
  },
  {
    "name": "棕滩",
    "filename": "棕滩.md",
    "lat": 10.6099416,
    "lng": 117.3608486,
    "difficulty": "Intermediate",
    "maxDepth": 22,
    "entryType": "boat",
    "siteType": "reef",
    "ref": "",
    "osmId": 845732611
  },
  {
    "name": "Brown Bank",
    "filename": "brown-bank.md",
    "lat": 10.8121361,
    "lng": 117.4042305,
    "difficulty": "Intermediate",
    "maxDepth": 24,
    "entryType": "boat",
    "siteType": "reef",
    "ref": "",
    "osmId": 845732612
  },
  {
    "name": "Bãi cạn Nâu Bắc Lớn",
    "filename": "bãi-cạn-nâu-bắc-lớn.md",
    "lat": 10.8848062,
    "lng": 117.3954798,
    "difficulty": "Intermediate",
    "maxDepth": 21,
    "entryType": "boat",
    "siteType": "reef",
    "ref": "",
    "osmId": 845732613
  },
  {
    "name": "Egeria Rocks",
    "filename": "egeria-rocks.md",
    "lat": 7.0482984,
    "lng": 117.2200012,
    "difficulty": "Intermediate",
    "maxDepth": 18,
    "entryType": "boat",
    "siteType": "reef",
    "ref": "",
    "osmId": 909901874
  },
  {
    "name": "Batuan Samarang",
    "filename": "batuan-samarang.md",
    "lat": 7.3340349,
    "lng": 117.0789412,
    "difficulty": "Intermediate",
    "maxDepth": 19,
    "entryType": "boat",
    "siteType": "reef",
    "ref": "",
    "osmId": 910874578
  },
  {
    "name": "Templer Bank",
    "filename": "templer-bank.md",
    "lat": 11.0661464,
    "lng": 117.2728355,
    "difficulty": "Intermediate",
    "maxDepth": 24,
    "entryType": "boat",
    "siteType": "reef",
    "ref": "",
    "osmId": 914181791
  },
  {
    "name": "Leslie Bank",
    "filename": "leslie-bank.md",
    "lat": 11.0878115,
    "lng": 117.4581884,
    "difficulty": "Intermediate",
    "maxDepth": 26,
    "entryType": "boat",
    "siteType": "reef",
    "ref": "",
    "osmId": 914181792
  },
  {
    "name": "神仙暗沙",
    "filename": "神仙暗沙.md",
    "lat": 11.0527884,
    "lng": 117.6451538,
    "difficulty": "Intermediate",
    "maxDepth": 23,
    "entryType": "boat",
    "siteType": "reef",
    "ref": "",
    "osmId": 914181793
  },
  {
    "name": "莪兰暗沙",
    "filename": "莪兰暗沙.md",
    "lat": 10.3483211,
    "lng": 117.2926287,
    "difficulty": "Intermediate",
    "maxDepth": 20,
    "entryType": "boat",
    "siteType": "reef",
    "ref": "",
    "osmId": 914181796
  },
  {
    "name": "Carnatic Shoal",
    "filename": "carnatic-shoal.md",
    "lat": 10.1074727,
    "lng": 117.3573603,
    "difficulty": "Intermediate",
    "maxDepth": 17,
    "entryType": "boat",
    "siteType": "reef",
    "ref": "",
    "osmId": 914181797
  },
  {
    "name": "雄南礁",
    "filename": "雄南礁.md",
    "lat": 11.5223635,
    "lng": 117.1743593,
    "difficulty": "Intermediate",
    "maxDepth": 22,
    "entryType": "boat",
    "siteType": "reef",
    "ref": "",
    "osmId": 1317451379
  },
  {
    "name": "彬礁",
    "filename": "彬礁.md",
    "lat": 10.5959052,
    "lng": 117.023449,
    "difficulty": "Intermediate",
    "maxDepth": 21,
    "entryType": "boat",
    "siteType": "reef",
    "ref": "",
    "osmId": 1352284995
  },
  {
    "name": "Dry Reef",
    "filename": "dry-reef.md",
    "lat": 9.9898928,
    "lng": 118.6152723,
    "difficulty": "Intermediate",
    "maxDepth": 20,
    "entryType": "boat",
    "siteType": "reef",
    "ref": "",
    "osmId": 1368048193
  },
  {
    "name": "East Banggi Patches",
    "filename": "east-banggi-patches.md",
    "lat": 7.2459874,
    "lng": 117.3899299,
    "difficulty": "Intermediate",
    "maxDepth": 19,
    "entryType": "boat",
    "siteType": "reef",
    "ref": "",
    "osmId": 1434633827
  }
]
