[
  {
    "name": "Divebase",
    "filename": "divebase.md",
    "lat": 4.074676,
    "lng": 72.8878019,
    "difficulty": "Intermediate",
    "maxDepth": 25,
    "entryType": "boat",
    "siteType": "reef",
    "ref": "",
    "osmId": 359160107
  },
  {
    "name": "Exit 1 and 2",
    "filename": "exit-1-and-2.md",
    "lat": 3.6333949,
    "lng": 72.9613638,
    "difficulty": "Intermediate",
    "maxDepth": 25,
    "entryType": "boat",
    "siteType": "reef",
    "ref": "",
    "osmId": 519024092
  },
  {
    "name": "Exit 10",
    "filename": "exit-10.md",
    "lat": 3.6338652,
    "lng": 72.9609627,
    "difficulty": "Intermediate",
    "maxDepth": 25,
    "entryType": "boat",
    "siteType": "reef",
    "ref": "",
    "osmId": 519024096
  },
  {
    "name": "Exit 9",
    "filename": "exit-9.md",
    "lat": 3.6344382,
    "lng": 72.9597692,
    "difficulty": "Intermediate",
    "maxDepth": 25,
    "entryType": "boat",
    "siteType": "reef",
    "ref": "",
    "osmId": 519024100
  },
  {
    "name": "Exit 8",
    "filename": "exit-8.md",
    "lat": 3.6347069,
    "lng": 72.9583209,
    "difficulty": "Intermediate",
    "maxDepth": 25,
    "entryType": "boat",
    "siteType": "reef",
    "ref": "",
    "osmId": 519024102
  },
  {
    "name": "Exit 7",
    "filename": "exit-7.md",
    "lat": 3.6343987,
    "lng": 72.956013,
    "difficulty": "Intermediate",
    "maxDepth": 25,
    "entryType": "boat",
    "siteType": "reef",
    "ref": "",
    "osmId": 519024107
  },
  {
    "name": "Exit 5 + 6",
    "filename": "exit-5-6.md",
    "lat": 3.6333522,
    "lng": 72.9558738,
    "difficulty": "Intermediate",
    "maxDepth": 25,
    "entryType": "boat",
    "siteType": "reef",
    "ref": "",
    "osmId": 519024128
  },
  {
    "name": "Exit 4",
    "filename": "exit-4.md",
    "lat": 3.6329424,
    "lng": 72.9580956,
    "difficulty": "Intermediate",
    "maxDepth": 25,
    "entryType": "boat",
    "siteType": "reef",
    "ref": "",
    "osmId": 519024133
  },
  {
    "name": "Halaveli",
    "filename": "halaveli.md",
    "lat": 4.0545578,
    "lng": 72.9116389,
    "difficulty": "Intermediate",
    "maxDepth": 28,
    "entryType": "boat",
    "siteType": "wreck",
    "ref": "",
    "osmId": 663869881
  },
  {
    "name": "HimendhooThila West",
    "filename": "himendhoothila-west.md",
    "lat": 3.9155167,
    "lng": 72.7155667,
    "difficulty": "Intermediate",
    "maxDepth": 28,
    "entryType": "boat",
    "siteType": "pinnacle",
    "ref": "",
    "osmId": 663869883
  },
  {
    "name": "Fish Head",
    "filename": "fish-head.md",
    "lat": 3.9445167,
    "lng": 72.9318167,
    "difficulty": "Advanced",
    "maxDepth": 40,
    "entryType": "boat",
    "siteType": "pinnacle",
    "ref": "",
    "osmId": 663869884
  },
  {
    "name": "Velidhu Hausriff",
    "filename": "velidhu-hausriff.md",
    "lat": 4.192881,
    "lng": 72.819074,
    "difficulty": "Beginner",
    "maxDepth": 12,
    "entryType": "boat",
    "siteType": "reef",
    "ref": "",
    "osmId": 663869885
  },
  {
    "name": "Pineapple Island Hausriff",
    "filename": "pineapple-island-hausriff.md",
    "lat": 3.654217,
    "lng": 72.77895,
    "difficulty": "Beginner",
    "maxDepth": 10,
    "entryType": "boat",
    "siteType": "reef",
    "ref": "",
    "osmId": 663869886
  },
  {
    "name": "Vilamendhoo Housereef",
    "filename": "vilamendhoo-housereef.md",
    "lat": 3.6352812,
    "lng": 72.9571983,
    "difficulty": "Beginner",
    "maxDepth": 15,
    "entryType": "boat",
    "siteType": "reef",
    "ref": "",
    "osmId": 663869887
  },
  {
    "name": "Adam Faru",
    "filename": "adam-faru.md",
    "lat": 3.863813,
    "lng": 73.367845,
    "difficulty": "Intermediate",
    "maxDepth": 25,
    "entryType": "boat",
    "siteType": "reef",
    "ref": "",
    "osmId": 663869888
  },
  {
    "name": "Lhohi Bodu Kandu",
    "filename": "lhohi-bodu-kandu.md",
    "lat": 3.848639,
    "lng": 73.364956,
    "difficulty": "Advanced",
    "maxDepth": 28,
    "entryType": "boat",
    "siteType": "drift",
    "ref": "",
    "osmId": 663869889
  },
  {
    "name": "Lhohi Kandu Tila",
    "filename": "lhohi-kandu-tila.md",
    "lat": 3.856683,
    "lng": 73.363679,
    "difficulty": "Advanced",
    "maxDepth": 30,
    "entryType": "boat",
    "siteType": "pinnacle",
    "ref": "",
    "osmId": 663869890
  },
  {
    "name": "Coral Faru",
    "filename": "coral-faru.md",
    "lat": 3.823702,
    "lng": 73.37201,
    "difficulty": "Intermediate",
    "maxDepth": 25,
    "entryType": "boat",
    "siteType": "reef",
    "ref": "",
    "osmId": 663869891
  },
  {
    "name": "Kunaavashi Kandu",
    "filename": "kunaavashi-kandu.md",
    "lat": 3.666047,
    "lng": 73.382443,
    "difficulty": "Intermediate",
    "maxDepth": 25,
    "entryType": "boat",
    "siteType": "drift",
    "ref": "",
    "osmId": 663869892
  },
  {
    "name": "Boamas Kandu",
    "filename": "boamas-kandu.md",
    "lat": 3.679067,
    "lng": 73.399635,
    "difficulty": "Intermediate",
    "maxDepth": 25,
    "entryType": "boat",
    "siteType": "drift",
    "ref": "",
    "osmId": 663869893
  },
  {
    "name": "Fulhidoo Caves",
    "filename": "fulhidoo-caves.md",
    "lat": 3.683135,
    "lng": 73.417159,
    "difficulty": "Advanced",
    "maxDepth": 22,
    "entryType": "boat",
    "siteType": "cave",
    "ref": "",
    "osmId": 663869894
  },
  {
    "name": "Coral Giri",
    "filename": "coral-giri.md",
    "lat": 3.855119,
    "lng": 73.430742,
    "difficulty": "Intermediate",
    "maxDepth": 28,
    "entryType": "boat",
    "siteType": "pinnacle",
    "ref": "",
    "osmId": 663869895
  },
  {
    "name": "Olhuveli Kuda Giri",
    "filename": "olhuveli-kuda-giri.md",
    "lat": 3.843378,
    "lng": 73.396748,
    "difficulty": "Intermediate",
    "maxDepth": 25,
    "entryType": "boat",
    "siteType": "reef",
    "ref": "",
    "osmId": 663869896
  },
  {
    "name": "Rihiveli Faru",
    "filename": "rihiveli-faru.md",
    "lat": 3.819211,
    "lng": 73.387422,
    "difficulty": "Intermediate",
    "maxDepth": 25,
    "entryType": "boat",
    "siteType": "reef",
    "ref": "",
    "osmId": 663869897
  },
  {
    "name": "Origandu Finolhu",
    "filename": "origandu-finolhu.md",
    "lat": 3.807211,
    "lng": 73.386212,
    "difficulty": "Intermediate",
    "maxDepth": 25,
    "entryType": "boat",
    "siteType": "reef",
    "ref": "",
    "osmId": 663869898
  },
  {
    "name": "Kudarah",
    "filename": "kudarah.md",
    "lat": 3.810294,
    "lng": 73.420358,
    "difficulty": "Intermediate",
    "maxDepth": 30,
    "entryType": "boat",
    "siteType": "reef",
    "ref": "",
    "osmId": 663869899
  },
  {
    "name": "Fihalhohi Hausriff",
    "filename": "fihalhohi-hausriff.md",
    "lat": 3.877139,
    "lng": 73.368477,
    "difficulty": "Beginner",
    "maxDepth": 12,
    "entryType": "boat",
    "siteType": "reef",
    "ref": "",
    "osmId": 663869901
  },
  {
    "name": "Ihi Reef",
    "filename": "ihi-reef.md",
    "lat": 3.887852,
    "lng": 73.355498,
    "difficulty": "Intermediate",
    "maxDepth": 25,
    "entryType": "boat",
    "siteType": "reef",
    "ref": "",
    "osmId": 663869902
  },
  {
    "name": "Enderi Giri",
    "filename": "enderi-giri.md",
    "lat": 3.882887,
    "lng": 73.383658,
    "difficulty": "Intermediate",
    "maxDepth": 26,
    "entryType": "boat",
    "siteType": "pinnacle",
    "ref": "",
    "osmId": 663869903
  },
  {
    "name": "Lhohi Giri",
    "filename": "lhohi-giri.md",
    "lat": 3.886977,
    "lng": 73.37785,
    "difficulty": "Intermediate",
    "maxDepth": 25,
    "entryType": "boat",
    "siteType": "pinnacle",
    "ref": "",
    "osmId": 663869904
  },
  {
    "name": "Ram Faru",
    "filename": "ram-faru.md",
    "lat": 3.883227,
    "lng": 73.357402,
    "difficulty": "Intermediate",
    "maxDepth": 25,
    "entryType": "boat",
    "siteType": "reef",
    "ref": "",
    "osmId": 663869905
  },
  {
    "name": "Lhohi Faru Tila",
    "filename": "lhohi-faru-tila.md",
    "lat": 3.870622,
    "lng": 73.360051,
    "difficulty": "Intermediate",
    "maxDepth": 28,
    "entryType": "boat",
    "siteType": "pinnacle",
    "ref": "",
    "osmId": 663869906
  },
  {
    "name": "Ali Tila",
    "filename": "ali-tila.md",
    "lat": 3.867608,
    "lng": 73.369075,
    "difficulty": "Intermediate",
    "maxDepth": 20,
    "entryType": "boat",
    "siteType": "reef",
    "ref": "",
    "osmId": 663869907
  },
  {
    "name": "Fihalhohi Hausriff Nord",
    "filename": "fihalhohi-hausriff-nord.md",
    "lat": 3.878562,
    "lng": 73.367513,
    "difficulty": "Beginner",
    "maxDepth": 12,
    "entryType": "boat",
    "siteType": "reef",
    "ref": "",
    "osmId": 663869908
  },
  {
    "name": "Fihalhohi Paradies",
    "filename": "fihalhohi-paradies.md",
    "lat": 3.877287,
    "lng": 73.361518,
    "difficulty": "Intermediate",
    "maxDepth": 25,
    "entryType": "boat",
    "siteType": "reef",
    "ref": "",
    "osmId": 663869909
  },
  {
    "name": "Rannalhi Bodu Giri",
    "filename": "rannalhi-bodu-giri.md",
    "lat": 3.906723,
    "lng": 73.360025,
    "difficulty": "Intermediate",
    "maxDepth": 25,
    "entryType": "boat",
    "siteType": "reef",
    "ref": "",
    "osmId": 663869910
  },
  {
    "name": "Alimas Faru",
    "filename": "alimas-faru.md",
    "lat": 3.895935,
    "lng": 73.361892,
    "difficulty": "Intermediate",
    "maxDepth": 25,
    "entryType": "boat",
    "siteType": "reef",
    "ref": "",
    "osmId": 663869911
  },
  {
    "name": "Ramfaru Tulu",
    "filename": "ramfaru-tulu.md",
    "lat": 3.890288,
    "lng": 73.374581,
    "difficulty": "Intermediate",
    "maxDepth": 25,
    "entryType": "boat",
    "siteType": "reef",
    "ref": "",
    "osmId": 663869912
  },
  {
    "name": "Rannalhi Kuda Giri",
    "filename": "rannalhi-kuda-giri.md",
    "lat": 3.90236,
    "lng": 73.36262,
    "difficulty": "Intermediate",
    "maxDepth": 25,
    "entryType": "boat",
    "siteType": "reef",
    "ref": "",
    "osmId": 663869913
  },
  {
    "name": "Lang Giri",
    "filename": "lang-giri.md",
    "lat": 3.907911,
    "lng": 73.373553,
    "difficulty": "Intermediate",
    "maxDepth": 25,
    "entryType": "boat",
    "siteType": "reef",
    "ref": "",
    "osmId": 663869914
  },
  {
    "name": "Rannalhi Faru",
    "filename": "rannalhi-faru.md",
    "lat": 3.902905,
    "lng": 73.350636,
    "difficulty": "Intermediate",
    "maxDepth": 25,
    "entryType": "boat",
    "siteType": "reef",
    "ref": "",
    "osmId": 663869915
  },
  {
    "name": "Dong Giri",
    "filename": "dong-giri.md",
    "lat": 3.905787,
    "lng": 73.379966,
    "difficulty": "Intermediate",
    "maxDepth": 25,
    "entryType": "boat",
    "siteType": "reef",
    "ref": "",
    "osmId": 663869916
  },
  {
    "name": "Jack Faru",
    "filename": "jack-faru.md",
    "lat": 3.894228,
    "lng": 73.355827,
    "difficulty": "Intermediate",
    "maxDepth": 25,
    "entryType": "boat",
    "siteType": "reef",
    "ref": "",
    "osmId": 663869917
  },
  {
    "name": "Vaageli Faru Nord",
    "filename": "vaageli-faru-nord.md",
    "lat": 3.950007,
    "lng": 73.353367,
    "difficulty": "Intermediate",
    "maxDepth": 25,
    "entryType": "boat",
    "siteType": "reef",
    "ref": "",
    "osmId": 663869918
  },
  {
    "name": "Vaageli Faru Süd",
    "filename": "vaageli-faru-süd.md",
    "lat": 3.947749,
    "lng": 73.353433,
    "difficulty": "Intermediate",
    "maxDepth": 25,
    "entryType": "boat",
    "siteType": "reef",
    "ref": "",
    "osmId": 663869919
  },
  {
    "name": "Vaageli Corner",
    "filename": "vaageli-corner.md",
    "lat": 3.953898,
    "lng": 73.355015,
    "difficulty": "Intermediate",
    "maxDepth": 25,
    "entryType": "boat",
    "siteType": "reef",
    "ref": "",
    "osmId": 663869920
  },
  {
    "name": "Vaageli Bodu Faru",
    "filename": "vaageli-bodu-faru.md",
    "lat": 3.938861,
    "lng": 73.360447,
    "difficulty": "Intermediate",
    "maxDepth": 25,
    "entryType": "boat",
    "siteType": "reef",
    "ref": "",
    "osmId": 663869922
  },
  {
    "name": "Kahambu Giri",
    "filename": "kahambu-giri.md",
    "lat": 3.93752,
    "lng": 73.373778,
    "difficulty": "Intermediate",
    "maxDepth": 25,
    "entryType": "boat",
    "siteType": "reef",
    "ref": "",
    "osmId": 663869923
  },
  {
    "name": "Vaageli Faru Tila",
    "filename": "vaageli-faru-tila.md",
    "lat": 3.94373,
    "lng": 73.354366,
    "difficulty": "Intermediate",
    "maxDepth": 25,
    "entryType": "boat",
    "siteType": "pinnacle",
    "ref": "",
    "osmId": 663869924
  },
  {
    "name": "Vaageli Tila",
    "filename": "vaageli-tila.md",
    "lat": 3.94383,
    "lng": 73.362322,
    "difficulty": "Intermediate",
    "maxDepth": 25,
    "entryType": "boat",
    "siteType": "pinnacle",
    "ref": "",
    "osmId": 663869925
  },
  {
    "name": "Vaageli Caves",
    "filename": "vaageli-caves.md",
    "lat": 3.914468,
    "lng": 73.351402,
    "difficulty": "Advanced",
    "maxDepth": 25,
    "entryType": "boat",
    "siteType": "cave",
    "ref": "",
    "osmId": 663869926
  },
  {
    "name": "Vaageli Outside",
    "filename": "vaageli-outside.md",
    "lat": 3.923944,
    "lng": 73.351202,
    "difficulty": "Intermediate",
    "maxDepth": 25,
    "entryType": "boat",
    "siteType": "reef",
    "ref": "",
    "osmId": 663869927
  },
  {
    "name": "Kandoma Corner",
    "filename": "kandoma-corner.md",
    "lat": 3.904682,
    "lng": 73.476225,
    "difficulty": "Intermediate",
    "maxDepth": 25,
    "entryType": "boat",
    "siteType": "reef",
    "ref": "",
    "osmId": 663869928
  },
  {
    "name": "Guradoo Kuda Kandu",
    "filename": "guradoo-kuda-kandu.md",
    "lat": 3.894661,
    "lng": 73.469403,
    "difficulty": "Intermediate",
    "maxDepth": 25,
    "entryType": "boat",
    "siteType": "drift",
    "ref": "",
    "osmId": 663869929
  },
  {
    "name": "Kandoma Beru",
    "filename": "kandoma-beru.md",
    "lat": 3.899039,
    "lng": 73.473792,
    "difficulty": "Intermediate",
    "maxDepth": 25,
    "entryType": "boat",
    "siteType": "reef",
    "ref": "",
    "osmId": 663869930
  },
  {
    "name": "Noomas Giri",
    "filename": "noomas-giri.md",
    "lat": 3.900827,
    "lng": 73.405111,
    "difficulty": "Intermediate",
    "maxDepth": 25,
    "entryType": "boat",
    "siteType": "reef",
    "ref": "",
    "osmId": 663869931
  },
  {
    "name": "Dongmaas Giri",
    "filename": "dongmaas-giri.md",
    "lat": 3.903663,
    "lng": 73.402269,
    "difficulty": "Intermediate",
    "maxDepth": 25,
    "entryType": "boat",
    "siteType": "reef",
    "ref": "",
    "osmId": 663869932
  },
  {
    "name": "Guradoo South",
    "filename": "guradoo-south.md",
    "lat": 3.889913,
    "lng": 73.467287,
    "difficulty": "Intermediate",
    "maxDepth": 25,
    "entryType": "boat",
    "siteType": "reef",
    "ref": "",
    "osmId": 663869933
  },
  {
    "name": "Guradoo North",
    "filename": "guradoo-north.md",
    "lat": 3.891865,
    "lng": 73.468134,
    "difficulty": "Intermediate",
    "maxDepth": 25,
    "entryType": "boat",
    "siteType": "reef",
    "ref": "",
    "osmId": 663869934
  },
  {
    "name": "Biyadoo Kuda Giri",
    "filename": "biyadoo-kuda-giri.md",
    "lat": 3.906479,
    "lng": 73.448786,
    "difficulty": "Intermediate",
    "maxDepth": 25,
    "entryType": "boat",
    "siteType": "reef",
    "ref": "",
    "osmId": 663869935
  },
  {
    "name": "Banner Reef",
    "filename": "banner-reef.md",
    "lat": 3.893078,
    "lng": 73.46935,
    "difficulty": "Intermediate",
    "maxDepth": 22,
    "entryType": "boat",
    "siteType": "reef",
    "ref": "",
    "osmId": 663869936
  },
  {
    "name": "Emmadi Giri (Manta Point)",
    "filename": "emmadi-giri-manta-point.md",
    "lat": 3.895817,
    "lng": 73.456299,
    "difficulty": "Intermediate",
    "maxDepth": 30,
    "entryType": "boat",
    "siteType": "pinnacle",
    "ref": "",
    "osmId": 663869937
  },
  {
    "name": "Guradoo South Outside",
    "filename": "guradoo-south-outside.md",
    "lat": 3.879147,
    "lng": 73.467558,
    "difficulty": "Intermediate",
    "maxDepth": 25,
    "entryType": "boat",
    "siteType": "reef",
    "ref": "",
    "osmId": 663869938
  },
  {
    "name": "Finolhu Faru",
    "filename": "finolhu-faru.md",
    "lat": 3.955979,
    "lng": 73.463725,
    "difficulty": "Intermediate",
    "maxDepth": 25,
    "entryType": "boat",
    "siteType": "reef",
    "ref": "",
    "osmId": 663869939
  },
  {
    "name": "Black Coral Faru",
    "filename": "black-coral-faru.md",
    "lat": 4.014879,
    "lng": 73.364021,
    "difficulty": "Intermediate",
    "maxDepth": 25,
    "entryType": "boat",
    "siteType": "reef",
    "ref": "",
    "osmId": 663869940
  },
  {
    "name": "Velassaru Caves",
    "filename": "velassaru-caves.md",
    "lat": 4.125016,
    "lng": 73.433551,
    "difficulty": "Advanced",
    "maxDepth": 20,
    "entryType": "boat",
    "siteType": "cave",
    "ref": "",
    "osmId": 663869941
  },
  {
    "name": "Vaadho Caves",
    "filename": "vaadho-caves.md",
    "lat": 4.128736,
    "lng": 73.455125,
    "difficulty": "Advanced",
    "maxDepth": 24,
    "entryType": "boat",
    "siteType": "cave",
    "ref": "",
    "osmId": 663869942
  },
  {
    "name": "Bolifushi",
    "filename": "bolifushi.md",
    "lat": 4.099112,
    "lng": 73.400468,
    "difficulty": "Intermediate",
    "maxDepth": 25,
    "entryType": "boat",
    "siteType": "wreck",
    "ref": "",
    "osmId": 663869943
  },
  {
    "name": "Maafushi Thila",
    "filename": "maafushi-thila.md",
    "lat": 3.958439,
    "lng": 73.493256,
    "difficulty": "Intermediate",
    "maxDepth": 28,
    "entryType": "boat",
    "siteType": "pinnacle",
    "ref": "",
    "osmId": 663869944
  },
  {
    "name": "Digu Kuda Giri",
    "filename": "digu-kuda-giri.md",
    "lat": 3.972345,
    "lng": 73.490725,
    "difficulty": "Intermediate",
    "maxDepth": 25,
    "entryType": "boat",
    "siteType": "wreck",
    "ref": "",
    "osmId": 663869945
  },
  {
    "name": "Dhigu Thila",
    "filename": "dhigu-thila.md",
    "lat": 3.981984,
    "lng": 73.510309,
    "difficulty": "Intermediate",
    "maxDepth": 25,
    "entryType": "boat",
    "siteType": "pinnacle",
    "ref": "",
    "osmId": 663869946
  },
  {
    "name": "Shark Point",
    "filename": "shark-point.md",
    "lat": 3.988882,
    "lng": 73.519771,
    "difficulty": "Intermediate",
    "maxDepth": 28,
    "entryType": "boat",
    "siteType": "reef",
    "ref": "",
    "osmId": 663869947
  },
  {
    "name": "Cocoa Tila",
    "filename": "cocoa-tila.md",
    "lat": 3.906159,
    "lng": 73.478393,
    "difficulty": "Intermediate",
    "maxDepth": 28,
    "entryType": "boat",
    "siteType": "pinnacle",
    "ref": "",
    "osmId": 663869948
  },
  {
    "name": "Cocoa Corner",
    "filename": "cocoa-corner.md",
    "lat": 3.909867,
    "lng": 73.481063,
    "difficulty": "Intermediate",
    "maxDepth": 25,
    "entryType": "boat",
    "siteType": "reef",
    "ref": "",
    "osmId": 663869949
  },
  {
    "name": "Embudu Channel / Embudu Express",
    "filename": "embudu-channel-embudu-express.md",
    "lat": 4.0874002,
    "lng": 73.5338869,
    "difficulty": "Advanced",
    "maxDepth": 32,
    "entryType": "boat",
    "siteType": "drift",
    "ref": "",
    "osmId": 663869950
  },
  {
    "name": "Embudu Kandu",
    "filename": "embudu-kandu.md",
    "lat": 4.085491,
    "lng": 73.529577,
    "difficulty": "Advanced",
    "maxDepth": 28,
    "entryType": "boat",
    "siteType": "drift",
    "ref": "",
    "osmId": 663869951
  },
  {
    "name": "house reef",
    "filename": "house-reef.md",
    "lat": 4.5902914,
    "lng": 73.4129734,
    "difficulty": "Beginner",
    "maxDepth": 12,
    "entryType": "boat",
    "siteType": "reef",
    "ref": "",
    "osmId": 672632385
  },
  {
    "name": "Akirifushi",
    "filename": "akirifushi.md",
    "lat": 4.6382329,
    "lng": 73.3971699,
    "difficulty": "Beginner",
    "maxDepth": 25,
    "entryType": "boat",
    "siteType": "reef",
    "ref": "",
    "osmId": 672632386
  },
  {
    "name": "Main jetty exit",
    "filename": "main-jetty-exit.md",
    "lat": 4.0845674,
    "lng": 73.5132801,
    "difficulty": "Intermediate",
    "maxDepth": 25,
    "entryType": "shore",
    "siteType": "reef",
    "ref": "",
    "osmId": 682245383
  },
  {
    "name": "Bungalow 78 exit",
    "filename": "bungalow-78-exit.md",
    "lat": 4.0828312,
    "lng": 73.5139469,
    "difficulty": "Intermediate",
    "maxDepth": 25,
    "entryType": "shore",
    "siteType": "reef",
    "ref": "",
    "osmId": 682245388
  },
  {
    "name": "Entrence 155",
    "filename": "entrence-155.md",
    "lat": 4.5913072,
    "lng": 73.4134729,
    "difficulty": "Intermediate",
    "maxDepth": 25,
    "entryType": "boat",
    "siteType": "reef",
    "ref": "",
    "osmId": 786623654
  },
  {
    "name": "Entrence 110",
    "filename": "entrence-110.md",
    "lat": 4.5894211,
    "lng": 73.4164095,
    "difficulty": "Intermediate",
    "maxDepth": 25,
    "entryType": "boat",
    "siteType": "reef",
    "ref": "",
    "osmId": 786623659
  },
  {
    "name": "Entrence 128",
    "filename": "entrence-128.md",
    "lat": 4.5907743,
    "lng": 73.4155154,
    "difficulty": "Intermediate",
    "maxDepth": 25,
    "entryType": "boat",
    "siteType": "reef",
    "ref": "",
    "osmId": 786623671
  },
  {
    "name": "Entrence base",
    "filename": "entrence-base.md",
    "lat": 4.5891503,
    "lng": 73.4133043,
    "difficulty": "Intermediate",
    "maxDepth": 25,
    "entryType": "boat",
    "siteType": "reef",
    "ref": "",
    "osmId": 786623714
  },
  {
    "name": "Coral garden",
    "filename": "coral-garden.md",
    "lat": 4.0830752,
    "lng": 73.5104942,
    "difficulty": "Intermediate",
    "maxDepth": 25,
    "entryType": "shore",
    "siteType": "reef",
    "ref": "",
    "osmId": 3314137175
  },
  {
    "name": "Guraidhoo Channel",
    "filename": "guraidhoo-channel.md",
    "lat": 3.8960875,
    "lng": 73.4635205,
    "difficulty": "Advanced",
    "maxDepth": 32,
    "entryType": "boat",
    "siteType": "drift",
    "ref": "",
    "osmId": 4584554103
  },
  {
    "name": "Embudu Finolhu Outside",
    "filename": "embudu-finolhu-outside.md",
    "lat": 4.1085996,
    "lng": 73.5325069,
    "difficulty": "Intermediate",
    "maxDepth": 25,
    "entryType": "boat",
    "siteType": "reef",
    "ref": "",
    "osmId": 4584554104
  },
  {
    "name": "Housereef West",
    "filename": "housereef-west.md",
    "lat": 5.255602,
    "lng": 73.1620467,
    "difficulty": "Beginner",
    "maxDepth": 12,
    "entryType": "boat",
    "siteType": "reef",
    "ref": "",
    "osmId": 6013133717
  },
  {
    "name": "Housereef East",
    "filename": "housereef-east.md",
    "lat": 5.2549784,
    "lng": 73.1652935,
    "difficulty": "Beginner",
    "maxDepth": 12,
    "entryType": "boat",
    "siteType": "reef",
    "ref": "",
    "osmId": 6013133718
  },
  {
    "name": "Miyaru Faru",
    "filename": "miyaru-faru.md",
    "lat": 3.989206,
    "lng": 73.5112278,
    "difficulty": "Intermediate",
    "maxDepth": 25,
    "entryType": "boat",
    "siteType": "reef",
    "ref": "",
    "osmId": 7146796385
  },
  {
    "name": "Guraidhoo Corner",
    "filename": "guraidhoo-corner.md",
    "lat": 3.8937988,
    "lng": 73.4691913,
    "difficulty": "Intermediate",
    "maxDepth": 25,
    "entryType": "boat",
    "siteType": "reef",
    "ref": "",
    "osmId": 7146807585
  },
  {
    "name": "Miyaru Kandu",
    "filename": "miyaru-kandu.md",
    "lat": 3.5996409,
    "lng": 73.5042226,
    "difficulty": "Advanced",
    "maxDepth": 31,
    "entryType": "boat",
    "siteType": "drift",
    "ref": "",
    "osmId": 7151743385
  },
  {
    "name": "Maamigili Beyru",
    "filename": "maamigili-beyru.md",
    "lat": 3.4623198,
    "lng": 72.8193017,
    "difficulty": "Intermediate",
    "maxDepth": 25,
    "entryType": "boat",
    "siteType": "reef",
    "ref": "",
    "osmId": 7156015285
  },
  {
    "name": "Kudhi Maa Wreck",
    "filename": "kudhi-maa-wreck.md",
    "lat": 3.5907967,
    "lng": 72.8827411,
    "difficulty": "Intermediate",
    "maxDepth": 30,
    "entryType": "boat",
    "siteType": "wreck",
    "ref": "",
    "osmId": 7156015385
  },
  {
    "name": "Moofushi",
    "filename": "moofushi.md",
    "lat": 3.8814315,
    "lng": 72.7210353,
    "difficulty": "Intermediate",
    "maxDepth": 25,
    "entryType": "boat",
    "siteType": "reef",
    "ref": "",
    "osmId": 7156015386
  },
  {
    "name": "Rangali Madivaru",
    "filename": "rangali-madivaru.md",
    "lat": 3.5954543,
    "lng": 72.7189263,
    "difficulty": "Intermediate",
    "maxDepth": 25,
    "entryType": "boat",
    "siteType": "reef",
    "ref": "",
    "osmId": 7156015485
  },
  {
    "name": "Maaya Lagoon",
    "filename": "maaya-lagoon.md",
    "lat": 4.0745667,
    "lng": 72.8844468,
    "difficulty": "Intermediate",
    "maxDepth": 30,
    "entryType": "boat",
    "siteType": "pinnacle",
    "ref": "",
    "osmId": 7158528485
  },
  {
    "name": "Kuramathi North",
    "filename": "kuramathi-north.md",
    "lat": 4.2776362,
    "lng": 72.9388788,
    "difficulty": "Intermediate",
    "maxDepth": 25,
    "entryType": "boat",
    "siteType": "drift",
    "ref": "",
    "osmId": 8584208529
  },
  {
    "name": "Kuramathi house reef",
    "filename": "kuramathi-house-reef.md",
    "lat": 4.2594906,
    "lng": 72.9682155,
    "difficulty": "Beginner",
    "maxDepth": 15,
    "entryType": "boat",
    "siteType": "reef",
    "ref": "",
    "osmId": 8584208530
  },
  {
    "name": "Rasdhoo Madivaru Corner",
    "filename": "rasdhoo-madivaru-corner.md",
    "lat": 4.2642509,
    "lng": 72.999492,
    "difficulty": "Advanced",
    "maxDepth": 30,
    "entryType": "boat",
    "siteType": "wall",
    "ref": "",
    "osmId": 8584208531
  },
  {
    "name": "Veligandu east",
    "filename": "veligandu-east.md",
    "lat": 4.2889609,
    "lng": 73.0128287,
    "difficulty": "Intermediate",
    "maxDepth": 25,
    "entryType": "boat",
    "siteType": "reef",
    "ref": "",
    "osmId": 8584208532
  },
  {
    "name": "Rangali manta point",
    "filename": "rangali-manta-point.md",
    "lat": 3.5879734,
    "lng": 72.7193872,
    "difficulty": "Intermediate",
    "maxDepth": 28,
    "entryType": "boat",
    "siteType": "pinnacle",
    "ref": "",
    "osmId": 8584302415
  },
  {
    "name": "Kuda Rah thila",
    "filename": "kuda-rah-thila.md",
    "lat": 3.5588012,
    "lng": 72.9230452,
    "difficulty": "Intermediate",
    "maxDepth": 30,
    "entryType": "boat",
    "siteType": "pinnacle",
    "ref": "",
    "osmId": 8584302416
  },
  {
    "name": "Broken rock",
    "filename": "broken-rock.md",
    "lat": 3.5561503,
    "lng": 72.9369047,
    "difficulty": "Intermediate",
    "maxDepth": 25,
    "entryType": "boat",
    "siteType": "pinnacle",
    "ref": "",
    "osmId": 8584320417
  },
  {
    "name": "Gangehi Kandu",
    "filename": "gangehi-kandu.md",
    "lat": 4.2179595,
    "lng": 72.7364113,
    "difficulty": "Advanced",
    "maxDepth": 35,
    "entryType": "boat",
    "siteType": "drift",
    "ref": "",
    "osmId": 8584373032
  },
  {
    "name": "Maalhos Thila",
    "filename": "maalhos-thila.md",
    "lat": 4.0023266,
    "lng": 72.7192917,
    "difficulty": "Intermediate",
    "maxDepth": 28,
    "entryType": "boat",
    "siteType": "pinnacle",
    "ref": "",
    "osmId": 8584458546
  },
  {
    "name": "Ellaidhoo house reef",
    "filename": "ellaidhoo-house-reef.md",
    "lat": 4.0152499,
    "lng": 72.9498129,
    "difficulty": "Beginner",
    "maxDepth": 15,
    "entryType": "boat",
    "siteType": "reef",
    "ref": "",
    "osmId": 8584458549
  },
  {
    "name": "Bidu Thila",
    "filename": "bidu-thila.md",
    "lat": 4.042284,
    "lng": 72.9523073,
    "difficulty": "Intermediate",
    "maxDepth": 30,
    "entryType": "boat",
    "siteType": "pinnacle",
    "ref": "",
    "osmId": 8584458550
  },
  {
    "name": "Bathalaamaagaa Kanthila",
    "filename": "bathalaamaagaa-kanthila.md",
    "lat": 4.0705807,
    "lng": 72.9497539,
    "difficulty": "Intermediate",
    "maxDepth": 32,
    "entryType": "boat",
    "siteType": "pinnacle",
    "ref": "",
    "osmId": 8584458552
  },
  {
    "name": "Maaya Thila",
    "filename": "maaya-thila.md",
    "lat": 4.0913626,
    "lng": 72.8619718,
    "difficulty": "Advanced",
    "maxDepth": 30,
    "entryType": "boat",
    "siteType": "pinnacle",
    "ref": "",
    "osmId": 8584458555
  },
  {
    "name": "Hafsa Thila",
    "filename": "hafsa-thila.md",
    "lat": 4.1291928,
    "lng": 72.8382075,
    "difficulty": "Intermediate",
    "maxDepth": 32,
    "entryType": "boat",
    "siteType": "pinnacle",
    "ref": "",
    "osmId": 8584458557
  },
  {
    "name": "Gangehi North Kandu - manta cleaning station",
    "filename": "gangehi-north-kandu-manta-cleaning-station.md",
    "lat": 4.2814718,
    "lng": 72.7812266,
    "difficulty": "Advanced",
    "maxDepth": 35,
    "entryType": "boat",
    "siteType": "drift",
    "ref": "",
    "osmId": 8584458560
  },
  {
    "name": "Dhonfanu thila",
    "filename": "dhonfanu-thila.md",
    "lat": 5.1720764,
    "lng": 73.115684,
    "difficulty": "Intermediate",
    "maxDepth": 28,
    "entryType": "boat",
    "siteType": "pinnacle",
    "ref": "",
    "osmId": 9180047748
  },
  {
    "name": "Kuda Gaa",
    "filename": "kuda-gaa.md",
    "lat": 5.1837471,
    "lng": 73.121548,
    "difficulty": "Intermediate",
    "maxDepth": 25,
    "entryType": "boat",
    "siteType": "reef",
    "ref": "",
    "osmId": 9180047750
  },
  {
    "name": "Bodu Gaa",
    "filename": "bodu-gaa.md",
    "lat": 5.1833655,
    "lng": 73.1245891,
    "difficulty": "Intermediate",
    "maxDepth": 25,
    "entryType": "boat",
    "siteType": "reef",
    "ref": "",
    "osmId": 9180047751
  },
  {
    "name": "Dharavandhoo thila",
    "filename": "dharavandhoo-thila.md",
    "lat": 5.1612242,
    "lng": 73.121948,
    "difficulty": "Intermediate",
    "maxDepth": 28,
    "entryType": "boat",
    "siteType": "pinnacle",
    "ref": "",
    "osmId": 9180047752
  },
  {
    "name": "Etheremadivaru house reef",
    "filename": "etheremadivaru-house-reef.md",
    "lat": 4.1161509,
    "lng": 72.9368108,
    "difficulty": "Beginner",
    "maxDepth": 12,
    "entryType": "boat",
    "siteType": "reef",
    "ref": "",
    "osmId": 9318704315
  },
  {
    "name": "Farikede Faru",
    "filename": "farikede-faru.md",
    "lat": -0.3259708,
    "lng": 73.4491412,
    "difficulty": "Advanced",
    "maxDepth": 40,
    "entryType": "boat",
    "siteType": "reef",
    "ref": "",
    "osmId": 9516447813
  },
  {
    "name": "Neregando reef",
    "filename": "neregando-reef.md",
    "lat": -0.2933363,
    "lng": 73.4112572,
    "difficulty": "Intermediate",
    "maxDepth": 25,
    "entryType": "boat",
    "siteType": "reef",
    "ref": "",
    "osmId": 9518535640
  },
  {
    "name": "Seafan",
    "filename": "seafan.md",
    "lat": -0.3001317,
    "lng": 73.4365218,
    "difficulty": "Intermediate",
    "maxDepth": 25,
    "entryType": "boat",
    "siteType": "reef",
    "ref": "",
    "osmId": 9521887499
  },
  {
    "name": "Thundi",
    "filename": "thundi.md",
    "lat": -0.2809093,
    "lng": 73.4217,
    "difficulty": "Intermediate",
    "maxDepth": 25,
    "entryType": "boat",
    "siteType": "reef",
    "ref": "",
    "osmId": 9521898155
  },
  {
    "name": "Maa Neyru",
    "filename": "maa-neyru.md",
    "lat": -0.3000826,
    "lng": 73.4205001,
    "difficulty": "Intermediate",
    "maxDepth": 25,
    "entryType": "boat",
    "siteType": "reef",
    "ref": "",
    "osmId": 9524191069
  },
  {
    "name": "Rasgefanno",
    "filename": "rasgefanno.md",
    "lat": -0.2912111,
    "lng": 73.4281061,
    "difficulty": "Advanced",
    "maxDepth": 40,
    "entryType": "boat",
    "siteType": "reef",
    "ref": "",
    "osmId": 9526089944
  },
  {
    "name": "Tiger sharks feeding point",
    "filename": "tiger-sharks-feeding-point.md",
    "lat": -0.3065725,
    "lng": 73.4412596,
    "difficulty": "Intermediate",
    "maxDepth": 25,
    "entryType": "boat",
    "siteType": "reef",
    "ref": "",
    "osmId": 9526089945
  },
  {
    "name": "Fish Bank",
    "filename": "fish-bank.md",
    "lat": 3.5148712,
    "lng": 72.9187866,
    "difficulty": "Intermediate",
    "maxDepth": 25,
    "entryType": "boat",
    "siteType": "reef",
    "ref": "",
    "osmId": 9555754853
  },
  {
    "name": "Dhidhoo corner (out reef)",
    "filename": "dhidhoo-corner-out-reef.md",
    "lat": 3.4790689,
    "lng": 72.8768978,
    "difficulty": "Intermediate",
    "maxDepth": 25,
    "entryType": "boat",
    "siteType": "reef",
    "ref": "",
    "osmId": 9555754854
  },
  {
    "name": "? thila",
    "filename": "thila.md",
    "lat": 3.6088614,
    "lng": 72.8146388,
    "difficulty": "Intermediate",
    "maxDepth": 30,
    "entryType": "boat",
    "siteType": "pinnacle",
    "ref": "",
    "osmId": 9557518245
  },
  {
    "name": "Holiday Beyru",
    "filename": "holiday-beyru.md",
    "lat": 3.4667329,
    "lng": 72.8299005,
    "difficulty": "Intermediate",
    "maxDepth": 25,
    "entryType": "boat",
    "siteType": "reef",
    "ref": "",
    "osmId": 9562069130
  },
  {
    "name": "Dhigurah Arches",
    "filename": "dhigurah-arches.md",
    "lat": 3.5400179,
    "lng": 72.9150945,
    "difficulty": "Intermediate",
    "maxDepth": 25,
    "entryType": "boat",
    "siteType": "cave",
    "ref": "",
    "osmId": 9562074179
  },
  {
    "name": "Hudhu Thila",
    "filename": "hudhu-thila.md",
    "lat": 3.5697576,
    "lng": 72.940986,
    "difficulty": "Intermediate",
    "maxDepth": 28,
    "entryType": "boat",
    "siteType": "pinnacle",
    "ref": "",
    "osmId": 9572676008
  },
  {
    "name": "Hukurudhoo reef",
    "filename": "hukurudhoo-reef.md",
    "lat": 3.5729372,
    "lng": 72.7213988,
    "difficulty": "Intermediate",
    "maxDepth": 25,
    "entryType": "boat",
    "siteType": "reef",
    "ref": "",
    "osmId": 9620859251
  },
  {
    "name": "Five rocks",
    "filename": "five-rocks.md",
    "lat": 3.5688653,
    "lng": 72.9415191,
    "difficulty": "Intermediate",
    "maxDepth": 25,
    "entryType": "boat",
    "siteType": "reef",
    "ref": "",
    "osmId": 10173028869
  },
  {
    "name": "Fesdhoo thila",
    "filename": "fesdhoo-thila.md",
    "lat": 3.9995814,
    "lng": 72.7857358,
    "difficulty": "Intermediate",
    "maxDepth": 26,
    "entryType": "boat",
    "siteType": "pinnacle",
    "ref": "",
    "osmId": 10185709789
  },
  {
    "name": "Victory Wreck",
    "filename": "victory-wreck.md",
    "lat": 4.1798982,
    "lng": 73.52538,
    "difficulty": "Advanced",
    "maxDepth": 37,
    "entryType": "boat",
    "siteType": "wreck",
    "ref": "",
    "osmId": 11300291678
  },
  {
    "name": "Rannamaari Wreck",
    "filename": "rannamaari-wreck.md",
    "lat": 4.3055288,
    "lng": 73.4166647,
    "difficulty": "Intermediate",
    "maxDepth": 26,
    "entryType": "boat",
    "siteType": "wreck",
    "ref": "",
    "osmId": 11300299755
  },
  {
    "name": "Keyodhoo Shipwreck",
    "filename": "keyodhoo-shipwreck.md",
    "lat": 3.4513707,
    "lng": 73.560624,
    "difficulty": "Advanced",
    "maxDepth": 35,
    "entryType": "boat",
    "siteType": "wreck",
    "ref": "",
    "osmId": 1481943981
  }
]
