name,description,lat,lon,country,region,city,website,phone,email,difficulty,max_depth,entry_type,site_type,osm_id,osm_type,tags
Challenger Bay,,-14.9154407,145.6903158,,,,,,,,,,,270800741,node,"{""name"": ""Challenger Bay"", ""scuba_diving:entry:boat"": ""yes"", ""sport"": ""scuba_diving"", ""sport:scuba_diving"": ""yes"", ""tourism"": ""attraction""}"
Pixie Gardens,,-14.9280802,145.6772796,,,,,,,,,,,270802346,node,"{""name"": ""Pixie Gardens"", ""scuba_diving:entry:boat"": ""yes"", ""sport"": ""scuba_diving"", ""sport:scuba_diving"": ""yes"", ""tourism"": ""attraction""}"
Cod Hole,,-14.663675,145.6634652,,,,,,,,,,,270802348,node,"{""name"": ""Cod Hole"", ""scuba_diving:entry:boat"": ""yes"", ""sport"": ""scuba_diving"", ""sport:scuba_diving"": ""yes"", ""tourism"": ""attraction""}"
Round the Bend,,-13.891201,146.5528992,,,,,,,,,,,270802349,node,"{""name"": ""Round the Bend"", ""scuba_diving:entry:boat"": ""yes"", ""sport"": ""scuba_diving"", ""sport:scuba_diving"": ""yes"", ""tourism"": ""attraction""}"
Castle,,-13.851845,146.563382,,,,,,,,,,,270802350,node,"{""name"": ""Castle"", ""scuba_diving:entry:boat"": ""yes"", ""sport"": ""scuba_diving"", ""sport:scuba_diving"": ""yes"", ""tourism"": ""attraction""}"
Halfway Wall,,-13.8487161,146.563876,,,,,,,,,,,270802351,node,"{""name"": ""Halfway Wall"", ""scuba_diving:entry:boat"": ""yes"", ""sport"": ""scuba_diving"", ""sport:scuba_diving"": ""yes"", ""tourism"": ""attraction""}"
North Horn,,-13.8013992,146.5457903,,,,,,,,,,,270802352,node,"{""name"": ""North Horn"", ""scuba_diving:entry:boat"": ""yes"", ""sport"": ""scuba_diving"", ""sport:scuba_diving"": ""yes"", ""tourism"": ""attraction""}"
Steve's Bommie,,-15.5012397,145.7882636,,,,,,,,,,,270802353,node,"{""name"": ""Steve's Bommie"", ""scuba_diving:entry:boat"": ""yes"", ""sport"": ""scuba_diving"", ""sport:scuba_diving"": ""yes"", ""tourism"": ""attraction""}"
Flare Point,,-15.5125869,145.7768157,,,,,,,,,,,270802354,node,"{""name"": ""Flare Point"", ""scuba_diving:entry:boat"": ""yes"", ""sport"": ""scuba_diving"", ""sport:scuba_diving"": ""yes"", ""tourism"": ""attraction""}"
Lighthouse Bommie,,-14.875091,145.689982,,,,,,,,,,,270802401,node,"{""name"": ""Lighthouse Bommie"", ""scuba_diving:entry:boat"": ""yes"", ""sport"": ""scuba_diving"", ""sport:scuba_diving"": ""yes"", ""tourism"": ""attraction""}"
Admiralty Anchorage,,-13.8866784,146.5569376,,,,,,,,,,,270802966,node,"{""name"": ""Admiralty Anchorage"", ""scuba_diving:entry:boat"": ""yes"", ""sport"": ""scuba_diving"", ""sport:scuba_diving"": ""yes"", ""tourism"": ""attraction""}"
Blue Fish Wall,,-33.8021808,151.3031233,,,,,,,,,,,270993431,node,"{""name"": ""Blue Fish Wall"", ""sport"": ""scuba_diving"", ""sport:scuba_diving"": ""yes"", ""tourism"": ""attraction""}"
Plate Top,,-16.4270161,145.9904141,,,,,,,,,,,286279301,node,"{""mooring"": ""yes"", ""name"": ""Plate Top"", ""sport"": ""scuba_diving""}"
Troppo's,,-16.4192277,145.9965038,,,,,,,,,,,286279302,node,"{""mooring"": ""yes"", ""name"": ""Troppo's"", ""sport"": ""scuba_diving""}"
Clipper,,-16.4275949,145.9881647,,,,,,,,,,,286279303,node,"{""mooring"": ""yes"", ""name"": ""Clipper"", ""sport"": ""scuba_diving""}"
SS Duckenfield,,-33.7180876,151.3240346,,,,,,,,,,,429831145,node,"{""historic"": ""wreck"", ""name"": ""SS Duckenfield"", ""scuba_diving:depth"": ""23.5m"", ""scuba_diving:type"": ""wreck"", ""seamark:type"": ""wreck"", ""sport"": ""scuba_diving"", ""wreck:clearance"": ""20m"", ""wreck:depth"": ""23.5m""}"
The Wall,,-33.7377946,151.3284848,,,,,,,,,,,440072729,node,"{""name"": ""The Wall"", ""scuba_diving:divespot"": ""The Wall"", ""scuba_diving:type"": ""wall"", ""sport"": ""scuba_diving""}"
Portsea Hole,,-38.3116785,144.7116777,,,,http://www.dive-links.com/tauchplatz.php?id=1802,,,,,,,663869642,node,"{""name"": ""Portsea Hole"", ""source"": ""www.dive-links.com"", ""sport"": ""scuba_diving"", ""website"": ""http://www.dive-links.com/tauchplatz.php?id=1802""}"
Portsea Pier,,-38.318444,144.713389,,,,http://www.dive-links.com/tauchplatz.php?id=1801,,,,,,,663869644,node,"{""name"": ""Portsea Pier"", ""source"": ""www.dive-links.com"", ""sport"": ""scuba_diving"", ""verified"": ""no, please check and del this tag"", ""website"": ""http://www.dive-links.com/tauchplatz.php?id=1801""}"
Portsea Pier East Reef,,-38.317167,144.717,,,,http://www.dive-links.com/tauchplatz.php?id=1803,,,,,,,663869645,node,"{""name"": ""Portsea Pier East Reef"", ""source"": ""www.dive-links.com"", ""sport"": ""scuba_diving"", ""verified"": ""no, please check and del this tag"", ""website"": ""http://www.dive-links.com/tauchplatz.php?id=1803""}"
Portsea Pier West Reef,,-38.318045,144.711236,,,,http://www.dive-links.com/tauchplatz.php?id=1805,,,,,,,663869649,node,"{""name"": ""Portsea Pier West Reef"", ""source"": ""www.dive-links.com"", ""sport"": ""scuba_diving"", ""verified"": ""no, please check and del this tag"", ""website"": ""http://www.dive-links.com/tauchplatz.php?id=1805""}"
Rye Pier,,-38.366124,144.82296,,,,http://www.dive-links.com/tauchplatz.php?id=1804,,,,,,,663869651,node,"{""name"": ""Rye Pier"", ""source"": ""www.dive-links.com"", ""sport"": ""scuba_diving"", ""verified"": ""no, please check and del this tag"", ""website"": ""http://www.dive-links.com/tauchplatz.php?id=1804""}"
Eliza Ramsden,,-38.295417,144.673077,,,,http://www.dive-links.com/tauchplatz.php?id=1809,,,,,,,663869655,node,"{""historic"": ""wreck"", ""name"": ""Eliza Ramsden"", ""seamark:type"": ""wreck"", ""source"": ""www.dive-links.com"", ""sport"": ""scuba_diving"", ""verified"": ""no, please check and del this tag"", ""website"": ""http://www.dive-links.com/tauchplatz.php?id=1809""}"
Castle Rock,,-38.298333,144.597778,,,,http://www.dive-links.com/tauchplatz.php?id=1811,,,,,,,663869660,node,"{""name"": ""Castle Rock"", ""source"": ""www.dive-links.com"", ""sport"": ""scuba_diving"", ""verified"": ""no, please check and del this tag"", ""website"": ""http://www.dive-links.com/tauchplatz.php?id=1811""}"
Coogee,,-38.30865,144.570333,,,,http://www.dive-links.com/tauchplatz.php?id=1810,,,,,,,663869661,node,"{""historic"": ""wreck"", ""name"": ""Coogee"", ""seamark:type"": ""wreck"", ""source"": ""www.dive-links.com"", ""sport"": ""scuba_diving"", ""verified"": ""no, please check and del this tag"", ""website"": ""http://www.dive-links.com/tauchplatz.php?id=1810""}"
Moore Reef - 5 Ways,,-16.859583,146.2122,,,,http://www.dive-links.com/tauchplatz.php?id=2048,,,,,,,663869669,node,"{""name"": ""Moore Reef - 5 Ways"", ""source"": ""www.dive-links.com"", ""sport"": ""scuba_diving"", ""verified"": ""no, please check and del this tag"", ""website"": ""http://www.dive-links.com/tauchplatz.php?id=2048""}"
Agincourt Reef No. 1 - Trigger Fish City,,-16.039783,145.864417,,,,http://www.dive-links.com/tauchplatz.php?id=2057,,,,,,,663869671,node,"{""name"": ""Agincourt Reef No. 1 - Trigger Fish City"", ""source"": ""www.dive-links.com"", ""sport"": ""scuba_diving"", ""verified"": ""no, please check and del this tag"", ""website"": ""http://www.dive-links.com/tauchplatz.php?id=2057""}"
Agincourt Reef No. 4 - The Point,,-15.9677,145.819717,,,,http://www.dive-links.com/tauchplatz.php?id=2056,,,,,,,663869673,node,"{""name"": ""Agincourt Reef No. 4 - The Point"", ""source"": ""www.dive-links.com"", ""sport"": ""scuba_diving"", ""verified"": ""no, please check and del this tag"", ""website"": ""http://www.dive-links.com/tauchplatz.php?id=2056""}"
Light Reef - Phil`s Bommie,,-16.017967,145.806383,,,,http://www.dive-links.com/tauchplatz.php?id=2055,,,,,,,663869675,node,"{""name"": ""Light Reef - Phil`s Bommie"", ""source"": ""www.dive-links.com"", ""sport"": ""scuba_diving"", ""verified"": ""no, please check and del this tag"", ""website"": ""http://www.dive-links.com/tauchplatz.php?id=2055""}"
Moore Reef - Labyrinth,,-16.875833,146.19845,,,,http://www.dive-links.com/tauchplatz.php?id=2049,,,,,,,663869678,node,"{""name"": ""Moore Reef - Labyrinth"", ""source"": ""www.dive-links.com"", ""sport"": ""scuba_diving"", ""verified"": ""no, please check and del this tag"", ""website"": ""http://www.dive-links.com/tauchplatz.php?id=2049""}"
Gareenup,,-32.0519895,115.7256889,,,,,,,,,,,752206896,node,"{""historic"": ""wreck"", ""name"": ""Gareenup"", ""seamark:type"": ""wreck"", ""sport"": ""scuba_diving"", ""wikidata"": ""Q59506960""}"
Fly Point,,-32.7141474,152.1512394,,,,,,,,,,,773663314,node,"{""name"": ""Fly Point"", ""scuba_diving:attraction:biology"": ""yes"", ""scuba_diving:dangers:current"": ""yes"", ""scuba_diving:divespot"": ""Fly Point"", ""scuba_diving:entry"": ""shore"", ""scuba_diving:entry:shore"": ""yes"", ""scuba_diving:name"": ""Fly Point"", ""scuba_diving:surface:sand"": ""yes"", ""scuba_diving:type:sea"": ""yes"", ""sport"": ""scuba_diving""}"
Halifax,,-32.7102627,152.1589987,,,,,,,,,,,773663327,node,"{""name"": ""Halifax"", ""scuba_diving:attraction:biology"": ""yes"", ""scuba_diving:dangers:current"": ""yes"", ""scuba_diving:divespot"": ""Halifax"", ""scuba_diving:entry"": ""shore"", ""scuba_diving:entry:shore"": ""yes"", ""scuba_diving:name"": ""Halifax"", ""scuba_diving:surface:sand"": ""yes"", ""scuba_diving:type:biology"": ""yes"", ""scuba_diving:type:photography"": ""yes"", ""scuba_diving:type:sea"": ""yes"", ""sport"": ""scuba_diving""}"
Gili Mimpang,"Nearby this area, Living Seas has set up coral reef restoration projects. This is a drift dive, with potential for strong currents. Swim south 5 minutes to get to coral restoration site.",-8.526092,115.576321,,,,,,,,,,,1314452590,node,"{""description"": ""Nearby this area, Living Seas has set up coral reef restoration projects. This is a drift dive, with potential for strong currents. Swim south 5 minutes to get to coral restoration site."", ""name"": ""Gili Mimpang"", ""place"": ""islet"", ""scuba_diving:dangers:current"": ""yes"", ""scuba_diving:depth"": ""20"", ""scuba_diving:entry"": ""boat"", ""scuba_diving:type:boat"": ""yes"", ""sport"": ""scuba_diving""}"
Pantai Merah,,-8.6009657,119.5261842,,,,,,,,,,,1485422409,node,"{""name"": ""Pantai Merah"", ""scuba_diving:type:reef"": ""yes"", ""sport"": ""scuba_diving""}"
Crystal Divers,,-8.6962994,115.2633405,,,,,,,,,,,1573518443,node,"{""amenity"": ""dive_centre"", ""name"": ""Crystal Divers"", ""sport"": ""scuba_diving""}"
Mio Palmo Diving,,-20.6998854,166.4734454,,,,,,,,,,,1779065692,node,"{""fixme"": ""affiner position"", ""name"": ""Mio Palmo Diving"", ""tourism"": ""diving""}"
Snorkeling,,-8.504462,119.7539356,,,,,,,,,,,1889229417,node,"{""name"": ""Snorkeling"", ""sport"": ""scuba_diving""}"
Just Magic,,-16.0213633,145.8070862,,,,,,,,,,,1939562723,node,"{""name"": ""Just Magic"", ""source"": ""survey"", ""sport"": ""scuba_diving""}"
Nursery Bommie,,-16.0309501,145.8563177,,,,,,,,,,,1939562752,node,"{""name"": ""Nursery Bommie"", ""source"": ""survey"", ""sport"": ""scuba_diving""}"
Wreck Bay,,-15.982229,145.8370152,,,,,,,,,,,1939562776,node,"{""name"": ""Wreck Bay"", ""source"": ""survey"", ""sport"": ""scuba_diving""}"
Barolin Point Dive Site,,-24.8833429,152.4896423,,,,,,,,,,,1984208164,node,"{""name"": ""Barolin Point Dive Site"", ""natural"": ""water"", ""sport"": ""scuba_diving""}"
Diving Spot,,-5.7374257,106.6148005,,,,,,,,,,,2132034785,node,"{""name"": ""Diving Spot"", ""sport"": ""scuba_diving"", ""tourism"": ""attraction""}"
Diving Spot,,-5.7381859,106.5909032,,,,,,,,,,,2132034786,node,"{""name"": ""Diving Spot"", ""sport"": ""scuba_diving"", ""tourism"": ""attraction""}"
Diving Spot,,-5.7389038,106.6207854,,,,,,,,,,,2132034787,node,"{""name"": ""Diving Spot"", ""sport"": ""scuba_diving"", ""tourism"": ""attraction""}"
Diving Spot,,-5.7393262,106.6197667,,,,,,,,,,,2132034788,node,"{""name"": ""Diving Spot"", ""sport"": ""scuba_diving"", ""tourism"": ""attraction""}"
Diving Spot,,-5.7457879,106.5892053,,,,,,,,,,,2132034789,node,"{""name"": ""Diving Spot"", ""sport"": ""scuba_diving"", ""tourism"": ""attraction""}"
Diving Spot,,-5.7478151,106.6018119,,,,,,,,,,,2132034790,node,"{""name"": ""Diving Spot"", ""sport"": ""scuba_diving"", ""tourism"": ""attraction""}"
Diving Spot,,-5.7505602,106.6094098,,,,,,,,,,,2132034791,node,"{""name"": ""Diving Spot"", ""sport"": ""scuba_diving"", ""tourism"": ""attraction""}"
Waterfall,,-33.8225912,151.2942526,,,,,,,,,,,2265508703,node,"{""name"": ""Waterfall"", ""scuba_diving:divespot"": ""Waterfall"", ""scuba_diving:entry"": ""boat"", ""scuba_diving:type"": ""wall"", ""sport"": ""scuba_diving""}"
HMAS Hobart (D 39),,-35.4810546,138.1572073,,,,,,,,,,,2272727169,node,"{""historic"": ""wreck"", ""name"": ""HMAS Hobart (D 39)"", ""radius"": ""550m"", ""seamark:restricted_area:category"": ""historic_wreck"", ""seamark:restricted_area:restriction"": ""no_entry"", ""seamark:type"": ""wreck"", ""source"": ""Wikipedia"", ""sport"": ""scuba_diving"", ""wreck:date_commissioned"": ""1965-12-18"", ""wreck:date_sunk"": ""2002-11-05"", ""wreck:gross_tonnage"": ""3370t"", ""wreck:length"": ""134m"", ""wreck:width"": ""14.35m""}"
Seraya Beach Dive Site,,-8.2956657,115.611935,,,,,,,,,,,2327924608,node,"{""amenity"": ""dive_centre"", ""name"": ""Seraya Beach Dive Site"", ""sport"": ""scuba_diving""}"
Looking Glass,,-32.6295271,152.3158042,,,,,,,,,,,2341894279,node,"{""name"": ""Looking Glass"", ""scuba_diving:dangers:surge"": ""yes"", ""scuba_diving:entry:boat"": ""yes"", ""scuba_diving:type:attraction"": ""yes"", ""scuba_diving:type:cave"": ""yes"", ""scuba_diving:type:sharks"": ""yes"", ""sport"": ""scuba_diving""}"
North Rock,,-32.6014473,152.3228858,,,,,,,,,,,2341894286,node,"{""name"": ""North Rock"", ""scuba_diving:entry:boat"": ""yes"", ""scuba_diving:type:ice"": ""no"", ""scuba_diving:type:rocks"": ""no"", ""scuba_diving:type:sharks"": ""yes"", ""scuba_diving:type:wall"": ""yes"", ""sport"": ""scuba_diving""}"
SS Oakland,,-32.6784131,152.2343152,,,,,,,,,,,2341894290,node,"{""historic"": ""wreck"", ""name"": ""SS Oakland"", ""scuba_diving:entry:boat"": ""yes"", ""scuba_diving:maxdepth"": ""28"", ""scuba_diving:type"": ""wreck"", ""scuba_diving:type:sea"": ""yes"", ""scuba_diving:type:wreck"": ""yes"", ""seamark:type"": ""wreck"", ""sport"": ""scuba_diving""}"
Buddha Dive,,-8.3565541,116.0419207,,,,,,,,,,,2380049552,node,"{""add_on_accomodation"": ""has_accomodation"", ""name"": ""Buddha Dive"", ""sport"": ""scuba_diving""}"
Diversia,,-8.353901,116.043225,,,,,,,,,,,2380049819,node,"{""name"": ""Diversia"", ""sport"": ""scuba_diving""}"
Dream Divers,,-8.3556456,116.0423765,,,,,,,,,,,2380049832,node,"{""add_on_accomodation"": ""has_accomodation"", ""amenity"": ""bar"", ""name"": ""Dream Divers"", ""sport"": ""scuba_diving""}"
Gili Divers,,-8.3499681,116.0436071,,,,,,,,,,,2380050044,node,"{""add_on_accomodation"": ""has_accomodation"", ""add_on_restaurant"": ""has_restaurant"", ""name"": ""Gili Divers"", ""sport"": ""scuba_diving""}"
Gili Scuba Diving,Brothers Bungalows and Restaurant is attached,-8.3481208,116.042683,,,,,,,,,,,2380050107,node,"{""add_on_accomodation"": ""has_accomodation"", ""description"": ""Brothers Bungalows and Restaurant is attached"", ""name"": ""Gili Scuba Diving"", ""sport"": ""scuba_diving""}"
IQ Divers,Pondo Windy is the attached accomodation facility,-8.3392471,116.0396139,,,,,,,,,,,2380050249,node,"{""add_on_accomodation"": ""has_accomodation"", ""description"": ""Pondo Windy is the attached accomodation facility"", ""name"": ""IQ Divers"", ""sport"": ""scuba_diving""}"
IQ Divers,"IQ Divers Gili Trawangan, Accomodation in Coral 2 Bungalows",-8.3452962,116.0418864,,,,,,,,,,,2380050253,node,"{""add_on_accomodation"": ""no"", ""description"": ""IQ Divers Gili Trawangan, Accomodation in Coral 2 Bungalows"", ""name"": ""IQ Divers"", ""sport"": ""scuba_diving""}"
Lutwala Dive,"PADI courses, fun dives snorkeling, accommodation",-8.3393817,116.0370424,,,,http://www.lutwala.com/,+62818-0544-0818,lutwaladive@gmail.com,,,,,2380050379,node,"{""add_on_accomodation"": ""has_accomodation"", ""description"": ""PADI courses, fun dives snorkeling, accommodation"", ""email"": ""lutwaladive@gmail.com"", ""name"": ""Lutwala Dive"", ""phone"": ""+62818-0544-0818"", ""sport"": ""scuba_diving"", ""website"": ""http://www.lutwala.com/""}"
Mango Dive,,-8.3471433,116.0423383,,,,,,,,,,,2380050388,node,"{""add_on_accomodation"": ""has_accomodation"", ""add_on_restaurant"": ""no"", ""name"": ""Mango Dive"", ""sport"": ""scuba_diving""}"
Manta Dive Gili Trawangan,Scuba Diving Center and Resort Accommodation,-8.3534138,116.043377,,,,https://manta-dive.com/,,,,,,,2380050395,node,"{""add_on_accomodation"": ""has_accomodation"", ""add_on_restaurant"": ""has_restaurant"", ""description"": ""Scuba Diving Center and Resort Accommodation"", ""name"": ""Manta Dive Gili Trawangan"", ""sport"": ""scuba_diving"", ""website"": ""https://manta-dive.com/""}"
Trawangan Dive,,-8.3494634,116.0432521,,,,https://www.trawangandive.com/,,,,,,,2380051009,node,"{""add_on_accomodation"": ""has_accomodation"", ""add_on_restaurant"": ""has_restaurant"", ""name"": ""Trawangan Dive"", ""sport"": ""scuba_diving"", ""website"": ""https://www.trawangandive.com/""}"
Air Wall,source is Diveschool Notice Board - Location might have to be checked with a GPS,-8.3528396,116.0738278,,,,,,,,,,,2395669745,node,"{""name"": ""Air Wall"", ""note"": ""source is Diveschool Notice Board - Location might have to be checked with a GPS"", ""sport"": ""scuba_diving""}"
Bounty,source is Diveschool Notice Board - Location might have to be checked with a GPS,-8.3568341,116.0512706,,,,,,,,,,,2395669747,node,"{""name"": ""Bounty"", ""note"": ""source is Diveschool Notice Board - Location might have to be checked with a GPS"", ""sport"": ""scuba_diving""}"
Deep Turbo,source is Diveschool Notice Board - Location might have to be checked with a GPS,-8.3367441,116.0462579,,,,,,,,,,,2395669748,node,"{""name"": ""Deep Turbo"", ""note"": ""source is Diveschool Notice Board - Location might have to be checked with a GPS"", ""sport"": ""scuba_diving""}"
Frog Fish Point,source is Diveschool Notice Board - Location might have to be checked with a GPS,-8.3474561,116.0886552,,,,,,,,,,,2395669749,node,"{""name"": ""Frog Fish Point"", ""note"": ""source is Diveschool Notice Board - Location might have to be checked with a GPS"", ""sport"": ""scuba_diving""}"
Halik,source is Diveschool Notice Board - Location might have to be checked with a GPS,-8.336235,116.038308,,,,,,,,,,,2395669750,node,"{""name"": ""Halik"", ""note"": ""source is Diveschool Notice Board - Location might have to be checked with a GPS"", ""scuba_diving:type"": ""snorkeling"", ""sport"": ""scuba_diving"", ""tourism"": ""attraction""}"
Jack Point,source is Diveschool Notice Board - Location might have to be checked with a GPS,-8.337684,116.0255805,,,,,,,,,,,2395669751,node,"{""name"": ""Jack Point"", ""note"": ""source is Diveschool Notice Board - Location might have to be checked with a GPS"", ""sport"": ""scuba_diving""}"
Malang,source is Diveschool Notice Board - Location might have to be checked with a GPS,-8.3296167,116.0701857,,,,,,,,,,,2395669752,node,"{""name"": ""Malang"", ""note"": ""source is Diveschool Notice Board - Location might have to be checked with a GPS"", ""sport"": ""scuba_diving""}"
Manta Point,source is Diveschool Notice Board - Location might have to be checked with a GPS,-8.363335,116.0265987,,,,,,,,,,,2395669753,node,"{""name"": ""Manta Point"", ""note"": ""source is Diveschool Notice Board - Location might have to be checked with a GPS"", ""sport"": ""scuba_diving""}"
Meno Corner,source is Diveschool Notice Board - Location might have to be checked with a GPS,-8.3588705,116.0625884,,,,,,,,,,,2395669754,node,"{""name"": ""Meno Corner"", ""note"": ""source is Diveschool Notice Board - Location might have to be checked with a GPS"", ""sport"": ""scuba_diving""}"
Meno Slope,source is Diveschool Notice Board - Location might have to be checked with a GPS,-8.3517823,116.0500957,,,,,,,,,,,2395669755,node,"{""name"": ""Meno Slope"", ""note"": ""source is Diveschool Notice Board - Location might have to be checked with a GPS"", ""sport"": ""scuba_diving""}"
Meno Wall,source is Diveschool Notice Board - Location might have to be checked with a GPS,-8.3452031,116.0498999,,,,,,,,,,,2395669756,node,"{""name"": ""Meno Wall"", ""note"": ""source is Diveschool Notice Board - Location might have to be checked with a GPS"", ""sport"": ""scuba_diving""}"
Mirkos Reef,source is Diveschool Notice Board - Location might have to be checked with a GPS,-8.3510773,116.0657213,,,,,,,,,,,2395669757,node,"{""name"": ""Mirkos Reef"", ""note"": ""source is Diveschool Notice Board - Location might have to be checked with a GPS"", ""sport"": ""scuba_diving""}"
Shallow Turbo,source is Diveschool Notice Board - Location might have to be checked with a GPS,-8.3395246,116.0440257,,,,,,,,,,,2395669758,node,"{""name"": ""Shallow Turbo"", ""note"": ""source is Diveschool Notice Board - Location might have to be checked with a GPS"", ""scuba_diving:type"": ""snorkeling"", ""sport"": ""scuba_diving"", ""tourism"": ""attraction""}"
Shark Point,source is Diveschool Notice Board - Location might have to be checked with a GPS,-8.3425401,116.0236615,,,,,,,,,,,2395669759,node,"{""name"": ""Shark Point"", ""note"": ""source is Diveschool Notice Board - Location might have to be checked with a GPS"", ""sport"": ""scuba_diving""}"
Simons Reef,source is Diveschool Notice Board - Location might have to be checked with a GPS,-8.3347077,116.065643,,,,,,,,,,,2395669760,node,"{""name"": ""Simons Reef"", ""note"": ""source is Diveschool Notice Board - Location might have to be checked with a GPS"", ""sport"": ""scuba_diving""}"
Segaluh,source is Diveschool Notice Board - Location might have to be checked with a GPS,-8.3344744,116.0982787,,,,,,,,,,,2395670512,node,"{""name"": ""Segaluh"", ""note"": ""source is Diveschool Notice Board - Location might have to be checked with a GPS"", ""sport"": ""scuba_diving""}"
Teluk NBoro,source is Diveschool Notice Board - Location might have to be checked with a GPS,-8.4042153,116.0591248,,,,,,,,,,,2395670513,node,"{""name"": ""Teluk NBoro"", ""note"": ""source is Diveschool Notice Board - Location might have to be checked with a GPS"", ""sport"": ""scuba_diving""}"
Blue Marlin Dive Gili Meno,,-8.3536363,116.0614862,,,,,,,,,,,2400060177,node,"{""amenity"": ""dive_centre"", ""name"": ""Blue Marlin Dive Gili Meno"", ""operator"": ""Blue Marlin Dive"", ""sport"": ""scuba_diving""}"
Gili Meno Divers,,-8.356845,116.061075,,,,,,,,,,,2400060189,node,"{""amenity"": ""dive_centre"", ""name"": ""Gili Meno Divers"", ""sport"": ""scuba_diving""}"
Trawangan Wall,source is Diveschool Notice Board - Location might have to be checked with a GPS,-8.3465756,116.0436158,,,,,,,,,,,2400061876,node,"{""location"": ""underwater"", ""name"": ""Trawangan Wall"", ""note"": ""source is Diveschool Notice Board - Location might have to be checked with a GPS"", ""scuba_diving:type"": ""snorkeling"", ""sport"": ""scuba_diving"", ""tourism"": ""attraction""}"
USAT Liberty Wreck,From underwater 4m down to 35m,-8.2739054,115.5926122,,,,,,,,,,,2480654035,node,"{""description"": ""From underwater 4m down to 35m"", ""name"": ""USAT Liberty Wreck"", ""scuba_diving:type:apnoe"": ""yes"", ""scuba_diving:type:attraction"": ""yes"", ""scuba_diving:type:reef"": ""yes"", ""sport"": ""scuba_diving"", ""tourism"": ""attraction"", ""wikidata"": ""Q2468064"", ""wikimedia_commons"": ""Category:USAT Liberty (ship, 1918)"", ""wikipedia"": ""en:USAT Liberty""}"
Cruise Whitsundays Pontoon,,-19.5714303,149.2695225,,,,,,,,,,,2490191153,node,"{""name"": ""Cruise Whitsundays Pontoon"", ""scuba_diving:entry:boat"": ""yes"", ""sport"": ""scuba_diving"", ""tourism"": ""attraction""}"
Dream Divers,,-8.4992844,116.0494196,,,,,,,,,,,2678338391,node,"{""name"": ""Dream Divers"", ""source"": ""survey"", ""source:date"": ""2013-12-20"", ""sport"": ""scuba_diving""}"
Chowder Bay,,-33.8394641,151.2547765,,,,,,,,,,,2806033751,node,"{""name"": ""Chowder Bay"", ""scuba_diving:entry:ladder"": ""yes"", ""scuba_diving:type:biology"": ""yes"", ""scuba_diving:type:intro"": ""yes"", ""scuba_diving:type:photography"": ""yes"", ""scuba_diving:type:sand"": ""yes"", ""scuba_diving:type:training"": ""yes"", ""sport"": ""scuba_diving""}"
Clifton Gardens,,-33.8398181,151.2537003,,,,,,,,,,,2806033752,node,"{""name"": ""Clifton Gardens"", ""scuba_diving:dangers:ship"": ""yes"", ""scuba_diving:entry:shore"": ""yes"", ""scuba_diving:entry:steps"": ""yes"", ""scuba_diving:type:biology"": ""yes"", ""scuba_diving:type:night"": ""yes"", ""scuba_diving:type:photography"": ""yes"", ""sport"": ""scuba_diving""}"
Swansea Bridge,,-33.0862306,151.6395717,,,,,,,,,,,2806042659,node,"{""name"": ""Swansea Bridge"", ""scuba_diving:dangers:current"": ""yes"", ""scuba_diving:entry:shore"": ""yes"", ""scuba_diving:type:biology"": ""yes"", ""scuba_diving:type:photography"": ""yes"", ""sport"": ""scuba_diving""}"
Coral Garden,,-8.0918367,114.522414,,,,,,,,,,,2888289769,node,"{""name"": ""Coral Garden"", ""sport"": ""scuba_diving""}"
Bat Cave,,-8.093384,114.5289757,,,,,,,,,,,2888289770,node,"{""name"": ""Bat Cave"", ""sport"": ""scuba_diving""}"
Manta Point,,-8.7947861,115.5259217,,,,,,,,,,,2907339692,node,"{""name"": ""Manta Point"", ""sport"": ""scuba_diving"", ""tourism"": ""attraction""}"
Underwater Shrine,,-8.3376207,115.6610709,,,,,,,,,,,2969866045,node,"{""name"": ""Underwater Shrine"", ""scuba_diving:depth"": ""29"", ""scuba_diving:type"": ""artificial_reef"", ""sport"": ""scuba_diving"", ""tourism"": ""attraction""}"
Dive Central Gili,Opened in 2014,-8.3557311,116.042323,,,,https://www.divecentralgili.com/,,,,,,,2991853840,node,"{""amenity"": ""dive_centre"", ""name"": ""Dive Central Gili"", ""note"": ""Opened in 2014"", ""sport"": ""scuba_diving"", ""website"": ""https://www.divecentralgili.com/""}"
Gordons Bay Underwater Trip Start,chain along seafloor as route to follow,-33.915797,151.2648117,,,,,,,,,,,3338691785,node,"{""addr:street"": ""Lowe Street"", ""name"": ""Gordons Bay Underwater Trip Start"", ""note"": ""chain along seafloor as route to follow"", ""note2"": ""No physical tag for this sport tag, because there is a physical sign that this is a scuba/snorkle spot"", ""scuba_diving:entry"": ""stone"", ""sport"": ""scuba_diving"", ""tourism"": ""attraction""}"
Mama Dive,,-8.337772,115.6587537,,,,,,,,,,,3477854124,node,"{""leisure"": ""sports_centre"", ""name"": ""Mama Dive"", ""sport"": ""scuba_diving""}"
Bali Aqua Diving,,-8.7057514,115.2531295,,,,,,,,,,,3546785648,node,"{""name"": ""Bali Aqua Diving"", ""sport"": ""scuba_diving""}"
Bali Scuba,,-8.7057211,115.2528946,,,,,,,,,,,3546785649,node,"{""name"": ""Bali Scuba"", ""sport"": ""scuba_diving""}"
Cabbage Tree Island,,-32.6868842,152.2247997,,,,,,,,,,,3593863240,node,"{""name"": ""Cabbage Tree Island"", ""scuba_diving:attraction:biology"": ""yes"", ""scuba_diving:entry:boat"": ""yes"", ""scuba_diving:surface:sand"": ""yes"", ""scuba_diving:type:sea"": ""yes"", ""sport"": ""scuba_diving""}"
The Pipeline,,-32.7179891,152.1413885,,,,,,,,,,,3593902162,node,"{""name"": ""The Pipeline"", ""scuba_diving:attraction:biology"": ""yes"", ""scuba_diving:attraction:night"": ""yes"", ""scuba_diving:dangers:current"": ""yes"", ""scuba_diving:entry:shore"": ""yes"", ""scuba_diving:surface:sand"": ""yes"", ""scuba_diving:type:sea"": ""yes"", ""sport"": ""scuba_diving""}"
Goggle Gardens,,-14.95076,145.68395,,,,,,,,,,,3712170391,node,"{""name"": ""Goggle Gardens"", ""scuba_diving:entry:boat"": ""yes"", ""sport"": ""scuba_diving"", ""sport:scuba_diving"": ""yes"", ""tourism"": ""attraction""}"
PADI Hammerhead Bali Dive,,-8.7681895,115.2217763,,,,,,,,,,,3739211502,node,"{""name"": ""PADI Hammerhead Bali Dive"", ""sport"": ""scuba_diving""}"
PADI Bali Scuba Masters,,-8.7726382,115.2223979,,,,,,,,,,,3739211534,node,"{""name"": ""PADI Bali Scuba Masters"", ""sport"": ""scuba_diving""}"
Marta Dive,,-8.2753636,115.5904646,,,,,,,,,,,3744065624,node,"{""name"": ""Marta Dive"", ""sport"": ""scuba_diving""}"
Paradise Diving,,-8.2738721,115.5904903,,,,,,,,,,,3744068661,node,"{""amenity"": ""dive_centre"", ""name"": ""Paradise Diving"", ""sport"": ""scuba_diving""}"
Blue Hill Dive Site,,-8.2875992,115.6050638,,,,,,,,,,,3747662782,node,"{""name"": ""Blue Hill Dive Site"", ""sport"": ""scuba_diving""}"
Water Walk,,-8.7065673,115.2631469,,,,,,,,,,,3909173262,node,"{""name"": ""Water Walk"", ""sport"": ""scuba_diving""}"
Manta Point dive site,,-8.5415535,119.5997228,,,,,,,,,,,3948869068,node,"{""name"": ""Manta Point dive site"", ""sport"": ""scuba_diving""}"
Mawan,,-8.558126,119.6361023,,,,,,,,,,,3948869069,node,"{""name"": ""Mawan"", ""sport"": ""scuba_diving""}"
Jevry's Shaft,"Many many fish, oil rig. Open and may be prone to currents. Structures at bottom.",-5.4270349,106.4644693,,,,,,,,,,,4097280131,node,"{""description"": ""Many many fish, oil rig. Open and may be prone to currents. Structures at bottom."", ""name"": ""Jevry's Shaft"", ""scuba_diving:depth"": ""30"", ""scuba_diving:divespot"": ""yes"", ""scuba_diving:maxdepth"": ""30"", ""sport"": ""scuba_diving""}"
Bali International Diving Professionals (BIDP),,-8.7063201,115.2547612,,,Sanur,https://www.bidp-balidiving.com/,+62 361 270759,,,,,,4101520318,node,"{""addr:city"": ""Sanur"", ""addr:housenumber"": ""333"", ""addr:postcode"": ""80228"", ""addr:street"": ""Jalan Blanjong"", ""name"": ""Bali International Diving Professionals (BIDP)"", ""phone"": ""+62 361 270759"", ""sport"": ""scuba_diving"", ""website"": ""https://www.bidp-balidiving.com/""}"
Fananas,Swim south-east with reef on the left.,-5.4155864,106.469434,,,,,,,,,,,4104113955,node,"{""description"": ""Swim south-east with reef on the left."", ""name"": ""Fananas"", ""scuba_diving:depth"": ""15"", ""scuba_diving:divespot"": ""yes"", ""scuba_diving:maxdepth"": ""30"", ""sport"": ""scuba_diving""}"
JC Slope,"Swim south-east, reef on the left. Not much to see, bad below 10 meters.",-5.4205019,106.4890034,,,,,,,,,,,4104113956,node,"{""description"": ""Swim south-east, reef on the left. Not much to see, bad below 10 meters."", ""name"": ""JC Slope"", ""scuba_diving:depth"": ""10"", ""scuba_diving:divespot"": ""yes"", ""source"": ""="", ""sport"": ""scuba_diving""}"
Valley of the tubes,A lot of tube corals going west. Not too good in terms of human damage and silt. Recommend exploring to the east instead. Nice corals at 5 meters depth.,-5.5834614,106.5929807,,,,,,,,,,,4104175036,node,"{""description"": ""A lot of tube corals going west. Not too good in terms of human damage and silt. Recommend exploring to the east instead. Nice corals at 5 meters depth."", ""name"": ""Valley of the tubes"", ""scuba_diving:divespot"": ""yes"", ""sport"": ""scuba_diving""}"
Tuna Can,"10 and 20 meters swim east, observed a large school of tuna here. Best at 10 meters depth.",-5.4666505,106.4388584,,,,,,,,,,,4104175037,node,"{""description"": ""10 and 20 meters swim east, observed a large school of tuna here. Best at 10 meters depth."", ""name"": ""Tuna Can"", ""scuba_diving:depth"": ""10"", ""scuba_diving:divespot"": ""yes"", ""scuba_diving:maxdepth"": ""25"", ""sport"": ""scuba_diving""}"
Jevry's Drop,Jevry and team went reef on right south-west.,-5.6667085,106.571608,,,,,,,,,,,4104180144,node,"{""description"": ""Jevry and team went reef on right south-west."", ""name"": ""Jevry's Drop"", ""scuba_diving:divespot"": ""yes"", ""sport"": ""scuba_diving""}"
Leon's Cloudy Canyon,"Team Leon dropped, drifted west and crossed the valley at 25 meters depth. A lot of human construction damage, but a nice dive nonetheless. Ended up north-west at the outlet of the stream. Bad visibility at bottom, strong current.",-5.6654889,106.570588,,,,,,,,,,,4104180145,node,"{""description"": ""Team Leon dropped, drifted west and crossed the valley at 25 meters depth. A lot of human construction damage, but a nice dive nonetheless. Ended up north-west at the outlet of the stream. Bad visibility at bottom, strong current."", ""name"": ""Leon's Cloudy Canyon"", ""scuba_diving:divespot"": ""yes"", ""sport"": ""scuba_diving""}"
The Cleavage,"Three possible directions, west, south and south-east. South provides a shallow garden of corals that may get impacted by tide. South-east has bigger corals and more sandy bottom at 30 meters. Ending the dive south-west of the island.",-5.6203007,106.5557914,,,,,,,,,,,4104180154,node,"{""description"": ""Three possible directions, west, south and south-east. South provides a shallow garden of corals that may get impacted by tide. South-east has bigger corals and more sandy bottom at 30 meters. Ending the dive south-west of the island."", ""name"": ""The Cleavage"", ""scuba_diving:depth"": ""10"", ""scuba_diving:divespot"": ""yes"", ""scuba_diving:maxdepth"": ""30"", ""sport"": ""scuba_diving""}"
Agus dream,,-5.4165447,106.4719031,,,,,,,,,,,4104620512,node,"{""name"": ""Agus dream"", ""scuba_diving:diveshop"": ""yes"", ""sport"": ""scuba_diving""}"
Jetski Lagoon,Not any good,-5.6196494,106.552117,,,,,,,,,,,4111041430,node,"{""description"": ""Not any good"", ""name"": ""Jetski Lagoon"", ""scuba_diving:depth"": ""15"", ""scuba_diving:divespot"": ""yes"", ""scuba_diving:maxdepth"": ""20"", ""sport"": ""scuba_diving""}"
Kaliage Kecil Selatan,"Drift south-west, rich corals, red anemone, good bio diversity",-5.6181439,106.5767719,,,,,,,,,,,4111041431,node,"{""description"": ""Drift south-west, rich corals, red anemone, good bio diversity"", ""name"": ""Kaliage Kecil Selatan"", ""scuba_diving:depth"": ""20"", ""scuba_diving:divespot"": ""yes"", ""scuba_diving:maxdepth"": ""30"", ""sport"": ""scuba_diving""}"
Kaliage Kecil Utara,"Good conservation site in the middle, corals are good, and rich. Site may have strong currents in between tides. High turbidity in the deepest part of the valley.",-5.6164142,106.5756668,,,,,,,,,,,4111041432,node,"{""description"": ""Good conservation site in the middle, corals are good, and rich. Site may have strong currents in between tides. High turbidity in the deepest part of the valley."", ""name"": ""Kaliage Kecil Utara"", ""scuba_diving:depth"": ""20"", ""scuba_diving:divespot"": ""yes"", ""scuba_diving:maxdepth"": ""30"", ""sport"": ""scuba_diving""}"
Kayuangin Lagoon,Not any good,-5.5856787,106.5503736,,,,,,,,,,,4111041433,node,"{""description"": ""Not any good"", ""name"": ""Kayuangin Lagoon"", ""scuba_diving:depth"": ""15"", ""scuba_diving:divespot"": ""yes"", ""sport"": ""scuba_diving""}"
Leon's Bikini Bottom,"Mini pinnacles, deep dive, going south-east",-5.5850327,106.5485443,,,,,,,,,,,4111041434,node,"{""description"": ""Mini pinnacles, deep dive, going south-east"", ""name"": ""Leon's Bikini Bottom"", ""scuba_diving:depth"": ""20"", ""scuba_diving:divespot"": ""yes"", ""scuba_diving:maxdepth"": ""30"", ""sport"": ""scuba_diving""}"
Maria's Heart,"Rich hard corals, and heart shaped sponges. Some silt.",-5.6897869,106.5382091,,,,,,,,,,,4111041435,node,"{""description"": ""Rich hard corals, and heart shaped sponges. Some silt."", ""name"": ""Maria's Heart"", ""scuba_diving:depth"": ""15"", ""scuba_diving:divespot"": ""yes"", ""scuba_diving:maxdepth"": ""25"", ""sport"": ""scuba_diving""}"
Noodles,"Drift west, Rich Coral, Channels, Jellyfish",-5.7585227,106.5961052,,,,,,,,,,,4111041436,node,"{""description"": ""Drift west, Rich Coral, Channels, Jellyfish"", ""name"": ""Noodles"", ""scuba_diving:depth"": ""15"", ""scuba_diving:divespot"": ""yes"", ""scuba_diving:maxdepth"": ""30"", ""sport"": ""scuba_diving""}"
Sea Garden,"Conservation Swimthroughs, Fishlife, Softcorals",-5.7350752,106.606427,,,,,,,,,,,4111041437,node,"{""description"": ""Conservation Swimthroughs, Fishlife, Softcorals"", ""name"": ""Sea Garden"", ""scuba_diving:depth"": ""15"", ""scuba_diving:divespot"": ""yes"", ""scuba_diving:maxdepth"": ""30"", ""sport"": ""scuba_diving""}"
Spongebob,"Huge Seafans, open water depth limit",-5.6877104,106.5367446,,,,,,,,,,,4111041438,node,"{""description"": ""Huge Seafans, open water depth limit"", ""name"": ""Spongebob"", ""scuba_diving:depth"": ""15"", ""scuba_diving:divespot"": ""yes"", ""scuba_diving:maxdepth"": ""18"", ""sport"": ""scuba_diving""}"
Wreck Trail,,-32.2724841,115.7314191,,,,,,,,,,,4131915095,node,"{""historic"": ""wreck"", ""name"": ""Wreck Trail"", ""scuba_diving:depth"": ""15m"", ""scuba_diving:entry"": ""shore"", ""scuba_diving:entry:shore"": ""yes"", ""scuba_diving:surface:sand"": ""yes"", ""scuba_diving:type:sea"": ""yes"", ""scuba_diving:type:wreck"": ""yes"", ""seamark:type"": ""wreck"", ""sport"": ""scuba_diving""}"
Ammunition Jetty,,-32.1242633,115.758999,,,,,,,,,,,4131919424,node,"{""name"": ""Ammunition Jetty"", ""scuba_diving:attraction:archaeology"": ""no"", ""scuba_diving:attraction:bigfish"": ""no"", ""scuba_diving:attraction:biology"": ""yes"", ""scuba_diving:attraction:cave"": ""no"", ""scuba_diving:attraction:drop off"": ""no"", ""scuba_diving:attraction:night"": ""yes"", ""scuba_diving:attraction:reef"": ""no"", ""scuba_diving:attraction:rocks"": ""no"", ""scuba_diving:attraction:scrap"": ""no"", ""scuba_diving:dangers:current"": ""no"", ""scuba_diving:dangers:dangerous_species"": ""no"", ""scuba_diving:dangers:depth"": ""no"", ""scuba_diving:dangers:explosives"": ""no"", ""scuba_diving:dangers:harpooning"": ""no"", ""scuba_diving:dangers:net"": ""no"", ""scuba_diving:dangers:obstacles"": ""no"", ""scuba_diving:dangers:ship"": ""no"", ""scuba_diving:dangers:stones"": ""no"", ""scuba_diving:dangers:surfers"": ""no"", ""scuba_diving:depth"": ""5"", ""scuba_diving:entry:boat"": ""no"", ""scuba_diving:entry:ladder"": ""no"", ""scuba_diving:entry:shore"": ""yes"", ""scuba_diving:entry:stair"": ""no"", ""scuba_diving:entry:steep"": ""no"", ""scuba_diving:entry:steps"": ""no"", ""scuba_diving:entry:stones"": ""no"", ""scuba_diving:maxdepth"": ""5"", ""scuba_diving:surface:brash"": ""no"", ""scuba_diving:surface:ooze"": ""no"", ""scuba_diving:surface:sand"": ""yes"", ""scuba_diving:type:apnoe"": ""no"", ""scuba_diving:type:children"": ""no"", ""scuba_diving:type:drift"": ""no"", ""scuba_diving:type:flowing waters"": ""no"", ""scuba_diving:type:ice"": ""no"", ""scuba_diving:type:lake"": ""no"", ""scuba_diving:type:mountain"": ""no"", ""scuba_diving:type:sea"": ""yes"", ""short_name"": ""Ammo Jetty"", ""sport"": ""scuba_diving""}"
Turtle Snorkeling Spot,,-8.3401179,116.0419493,,,,www.dare2travel.nl,,,,,,,4201455791,node,"{""location"": ""underwater"", ""name"": ""Turtle Snorkeling Spot"", ""opening_hours"": ""24/7"", ""scuba_diving:type"": ""snorkeling"", ""sport"": ""scuba_diving"", ""tourism"": ""attraction"", ""website"": ""www.dare2travel.nl""}"
Lombok Dive,,-8.3475991,116.0283794,,,,,,,,,,,4270913147,node,"{""name"": ""Lombok Dive"", ""sport"": ""scuba_diving""}"
Underwater Cave,,-8.0974198,114.5263131,,,,,,,,,,,4454995855,node,"{""name"": ""Underwater Cave"", ""natural"": ""cave_entrance"", ""sport"": ""scuba_diving""}"
Blue Corner,,-8.1004242,114.5205089,,,,,,,,,,,4454995856,node,"{""name"": ""Blue Corner"", ""reef"": ""coral"", ""sport"": ""scuba_diving""}"
Post I Jetty,,-8.0963806,114.5031276,,,,,,,,,,,4454995857,node,"{""name"": ""Post I Jetty"", ""reef"": ""coral"", ""sport"": ""scuba_diving""}"
Mangrove Point,,-8.0978736,114.5089187,,,,,,,,,,,4454995858,node,"{""name"": ""Mangrove Point"", ""reef"": ""coral"", ""sport"": ""scuba_diving""}"
Manta Bay,"One of two Manta Bay divesites. Listen to experienced boat captains, these sites have the potential for very strong surges. Do not go too close to the cliffs where the waves break. Only thing here to see is the numerous mantarays usually feeding.",-8.7353445,115.4506577,,,,,,,,,,,4471094391,node,"{""description"": ""One of two Manta Bay divesites. Listen to experienced boat captains, these sites have the potential for very strong surges. Do not go too close to the cliffs where the waves break. Only thing here to see is the numerous mantarays usually feeding."", ""name"": ""Manta Bay"", ""scuba_diving:current"": ""1"", ""scuba_diving:dangers"": ""stones"", ""scuba_diving:depth"": ""10"", ""scuba_diving:difficulty"": ""2"", ""scuba_diving:entry"": ""boat"", ""scuba_diving:maxdepth"": ""20"", ""scuba_diving:type"": ""biology"", ""sport"": ""scuba_diving""}"
Amed wall,,-8.337564,115.6617295,,,,,,,,,,,4527419399,node,"{""name"": ""Amed wall"", ""scuba_diving:type"": ""reef;wall;apnoe"", ""sport"": ""scuba_diving"", ""tourism"": ""attraction""}"
Bali Dive Trek,,-8.3312359,115.6309014,,,,,,,,,,,4694084262,node,"{""leisure"": ""sports_centre"", ""name"": ""Bali Dive Trek"", ""sport"": ""scuba_diving""}"
Blue Lagoon,"Simple divesite, but still can have strong currents. In general bad visibility, OK for beginners. Some underwater statues can be found.",-8.5179074,115.5097974,,,,,,,,,,,4723444230,node,"{""description"": ""Simple divesite, but still can have strong currents. In general bad visibility, OK for beginners. Some underwater statues can be found."", ""name"": ""Blue Lagoon"", ""scuba_diving:depth"": ""20"", ""sport"": ""scuba_diving""}"
Gili Tepekong North,"Dive towards north, some huge boulders to swim among, and open plains of corals.",-8.5311955,115.5858269,,,,,,,,,,,4723444231,node,"{""description"": ""Dive towards north, some huge boulders to swim among, and open plains of corals."", ""name"": ""Gili Tepekong North"", ""scuba_diving:dangers:current"": ""yes"", ""scuba_diving:depth"": ""20"", ""scuba_diving:entry"": ""boat"", ""sport"": ""scuba_diving""}"
Gili Tepekong South,"Dive towards south, a big tunnel and walls.",-8.5316464,115.586138,,,,,,,,,,,4723444232,node,"{""description"": ""Dive towards south, a big tunnel and walls."", ""name"": ""Gili Tepekong South"", ""scuba_diving:dangers:current"": ""yes"", ""scuba_diving:depth"": ""30"", ""scuba_diving:entry"": ""boat"", ""sport"": ""scuba_diving""}"
Crystal Bay,"Also called Penida Bay by some, this divesite condition depends on currents, and may have strong downcurrent. Potential place for Mola-mola.",-8.7155168,115.4574864,,,,,,,,,,,4742534377,node,"{""description"": ""Also called Penida Bay by some, this divesite condition depends on currents, and may have strong downcurrent. Potential place for Mola-mola."", ""name"": ""Crystal Bay"", ""scuba_diving:access_easyness"": ""1"", ""scuba_diving:depth"": ""15"", ""scuba_diving:difficulty"": ""2"", ""scuba_diving:type"": ""reef"", ""sport"": ""scuba_diving""}"
Ped,"Ped, or also known as Peed. A site that can be calm when there is no current, good for photography. Dive as a drift dive in any case, with pickup in another location. A wall goes from around 20 meters and down, but a gentle reef from 0 to 20 meters.",-8.6756914,115.5160285,,,,,,,,,,,4742534378,node,"{""description"": ""Ped, or also known as Peed. A site that can be calm when there is no current, good for photography. Dive as a drift dive in any case, with pickup in another location. A wall goes from around 20 meters and down, but a gentle reef from 0 to 20 meters."", ""name"": ""Ped"", ""scuba_diving:type"": ""reef"", ""sport"": ""scuba_diving""}"
Batu Belah,,-8.3078554,115.6208435,,,,,,,,,,,4747124684,node,"{""name"": ""Batu Belah"", ""sport"": ""scuba_diving""}"
Bulakan,,-8.308309,115.6214953,,,,,,,,,,,4747124685,node,"{""name"": ""Bulakan"", ""sport"": ""scuba_diving""}"
Vila Almarick Biorock,,-8.3461172,116.0433854,,,,,,,,,,,4813305042,node,"{""location"": ""underwater"", ""name"": ""Vila Almarick Biorock"", ""scuba_diving:type"": ""snorkeling"", ""sport"": ""scuba_diving"", ""tourism"": ""attraction""}"
Bale Sampan Biorock,,-8.3479656,116.0438526,,,,,,,,,,,4813305043,node,"{""location"": ""underwater"", ""name"": ""Bale Sampan Biorock"", ""scuba_diving:type"": ""snorkeling"", ""sport"": ""scuba_diving"", ""tourism"": ""attraction""}"
Samba Vilas Biorock,,-8.3481527,116.0439347,,,,,,,,,,,4813305044,node,"{""location"": ""underwater"", ""name"": ""Samba Vilas Biorock"", ""scuba_diving:type"": ""snorkeling"", ""sport"": ""scuba_diving"", ""tourism"": ""attraction""}"
Trawangan Dive Biorock,,-8.3490364,116.0442834,,,,,,,,,,,4813305045,node,"{""location"": ""underwater"", ""name"": ""Trawangan Dive Biorock"", ""scuba_diving:type"": ""snorkeling"", ""sport"": ""scuba_diving"", ""tourism"": ""attraction""}"
Gili Divers Biorock,,-8.3495698,116.0444604,,,,,,,,,,,4813305046,node,"{""location"": ""underwater"", ""name"": ""Gili Divers Biorock"", ""scuba_diving:type"": ""snorkeling"", ""sport"": ""scuba_diving"", ""tourism"": ""attraction""}"
Anemone Bay,,-29.9229925,153.3880012,,,,,,,,,,,4852971260,node,"{""name"": ""Anemone Bay"", ""scuba_diving:entry"": ""boat"", ""scuba_diving:type:boat"": ""yes"", ""scuba_diving:type:reef"": ""yes"", ""seamark:type"": ""mooring"", ""sport"": ""scuba_diving""}"
Bubble Cave,,-29.9276437,153.3894686,,,,,,,,,,,4852975612,node,"{""name"": ""Bubble Cave"", ""scuba_diving:type:reef"": ""yes"", ""sport"": ""scuba_diving""}"
Elbow Cave,,-29.9304561,153.3907159,,,,,,,,,,,4852975613,node,"{""name"": ""Elbow Cave"", ""scuba_diving:type:reef"": ""yes"", ""sport"": ""scuba_diving""}"
The Canyons,,-29.9250421,153.3864504,,,,,,,,,,,4852975614,node,"{""name"": ""The Canyons"", ""scuba_diving:type:reef"": ""yes"", ""sport"": ""scuba_diving""}"
The Mackerel Run,,-29.9230593,153.3859952,,,,,,,,,,,4852975615,node,"{""name"": ""The Mackerel Run"", ""scuba_diving:type:drift"": ""yes"", ""sport"": ""scuba_diving""}"
Centre de plongée de Babou,,-20.6871381,164.9828042,,,,,,,,,,,5033374910,node,"{""name"": ""Centre de plong\u00e9e de Babou"", ""sport"": ""scuba_diving""}"
Drift Divers Nusa Lembonang,Very nice and good dive center with international dive masters and instructors.,-8.6689985,115.4496932,,,,www.driftdiving.blogspot.com,+6281353003933,,,,,,5091152979,node,"{""description"": ""Very nice and good dive center with international dive masters and instructors."", ""name"": ""Drift Divers Nusa Lembonang"", ""opening_hours"": ""Mo-Su 07:00-19:00"", ""phone"": ""+6281353003933"", ""sport"": ""scuba_diving"", ""website"": ""www.driftdiving.blogspot.com""}"
Crystal Bay Dive Site,,-8.4472423,119.5682314,,,,,,,,,,,5114515124,node,"{""name"": ""Crystal Bay Dive Site"", ""sport"": ""scuba_diving"", ""tourism"": ""attraction""}"
Pengah Kecil,,-8.5769535,119.6808266,,,,,,,,,,,5114515322,node,"{""name"": ""Pengah Kecil"", ""name:de"": ""Pengah Kecil"", ""sport"": ""scuba_diving"", ""tourism"": ""attraction""}"
Siaba Besar dive site,,-8.558211,119.6450121,,,,,,,,,,,5114515324,node,"{""name"": ""Siaba Besar dive site"", ""name:de"": ""Siaba Besar"", ""sport"": ""scuba_diving"", ""tourism"": ""attraction""}"
Compass Divers,,-8.3539106,116.0421767,,,,,,,,,,,5140847111,node,"{""name"": ""Compass Divers"", ""sport"": ""scuba_diving""}"
Pyramids,,-8.3341953,115.6536502,,,,,,,,,,,5149607925,node,"{""name"": ""Pyramids"", ""sport"": ""scuba_diving"", ""tourism"": ""attraction""}"
The Gantry,"excellent area for fishing and for inexperienced Scuba divers
",-35.5053868,150.3953764,,,,,,,,,,,5176257160,node,"{""description"": ""excellent area for fishing and for inexperienced Scuba divers\n"", ""ele"": ""0"", ""leisure"": ""fishing"", ""name"": ""The Gantry"", ""sport"": ""scuba_diving""}"
Down Under Diving,,-16.523637,145.9851619,,,,,,,,,,,5229900922,node,"{""name"": ""Down Under Diving"", ""scuba_diving:entry:boat"": ""yes"", ""sport"": ""scuba_diving"", ""tourism"": ""attraction""}"
Turtle snorkeling spot,,-8.3462772,116.0429691,,,,,,,,,,,5315497721,node,"{""location"": ""underwater"", ""name"": ""Turtle snorkeling spot"", ""scuba_diving:type"": ""snorkeling"", ""sport"": ""scuba_diving"", ""tourism"": ""attraction""}"
Pulau Pieh Dive Site,,-0.8762778,100.0976111,,,,,,,,,,,5357980589,node,"{""name"": ""Pulau Pieh Dive Site"", ""scuba_diving:attraction:reef"": ""yes"", ""scuba_diving:dangers:depth"": ""yes"", ""scuba_diving:depth"": ""10"", ""scuba_diving:entry:boat"": ""yes"", ""scuba_diving:maxdepth"": ""30"", ""scuba_diving:type:sea"": ""yes"", ""scuba_diving:visibility"": ""16"", ""seamark:type"": ""restricted_area"", ""sport"": ""scuba_diving""}"
Scuba Center Asia,"Dive Center for Fundives, Courses and Introduction Dives
PADI 5* IDC resort",-8.6839664,115.4341789,,,Nusa Lembongan,,,info@scubacenterasia.com,,,,,5524527679,node,"{""addr:city"": ""Nusa Lembongan"", ""addr:housenumber"": ""Scuba Center Asia"", ""addr:street"": ""Jl. Mushroom Bay"", ""amenity"": ""dive_centre"", ""description"": ""Dive Center for Fundives, Courses and Introduction Dives\nPADI 5* IDC resort"", ""email"": ""info@scubacenterasia.com"", ""name"": ""Scuba Center Asia"", ""name:en"": ""Scuba Center Asia"", ""opening_hours"": ""Mo-Su 07:00-19:00"", ""operator"": ""PADI"", ""payment:cash"": ""yes"", ""payment:credit_cards"": ""yes"", ""sport"": ""scuba_diving""}"
Cystal Rock Dive Site,,-8.4416648,119.5677822,,,,,,,,,,,5767096953,node,"{""name"": ""Cystal Rock Dive Site"", ""scuba_diving:dive_spot"": ""yes"", ""sport"": ""scuba_diving"", ""tourism"": ""attraction""}"
The Cauldron Dive Site,,-8.4609097,119.5633723,,,,,,,,,,,5875544788,node,"{""alt_name"": ""Shot gun"", ""name"": ""The Cauldron Dive Site"", ""name:en"": ""The Cauldron Dive Site"", ""scuba_diving:dive_spot"": ""yes"", ""scuba_diving:entry"": ""Boat"", ""scuba_diving:name"": ""The Cauldron"", ""scuba_diving:type"": ""drift"", ""sport"": ""scuba_diving""}"
Orca Diveclub Lovina,,-8.1290041,115.0603554,,,,,,,,,,,6173934797,node,"{""name"": ""Orca Diveclub Lovina"", ""sport"": ""scuba_diving""}"
Terumbu Karang,,-3.7949859,115.6091796,,,,,,,,,,,6269037398,node,"{""name"": ""Terumbu Karang"", ""operator"": ""Desa Angsana"", ""scuba_diving:entry:boat"": ""yes"", ""sport"": ""scuba_diving"", ""tourism"": ""attraction""}"
Terumbu Karang,,-3.7860882,115.5659345,,,,,,,,,,,6269037399,node,"{""name"": ""Terumbu Karang"", ""operator"": ""Desa Angsana"", ""scuba_diving:entry:boat"": ""yes"", ""sport"": ""scuba_diving"", ""tourism"": ""attraction""}"
Coral garden,,-8.2769163,115.5946864,,,,,,,,,,,6428015268,node,"{""name"": ""Coral garden"", ""sport"": ""scuba_diving""}"
Snorkelling reef,,-8.730319,115.9102648,,,,,,,,,,,6702850596,node,"{""name"": ""Snorkelling reef"", ""sport"": ""scuba_diving""}"
Snorkelling reef,,-8.748698,115.8927602,,,,,,,,,,,6703093158,node,"{""name"": ""Snorkelling reef"", ""sport"": ""scuba_diving""}"
Turtle Point,,-8.3427036,116.0437832,,,,,,,,,,,6750981689,node,"{""location"": ""underwater"", ""name"": ""Turtle Point"", ""name:en"": ""Turtle point"", ""scuba_diving:type"": ""snorkeling"", ""sport"": ""scuba_diving"", ""tourism"": ""attraction""}"
Batu Tiga Dive Site,,-8.5996016,119.5728673,,,,,,,,,,,7182686142,node,"{""name"": ""Batu Tiga Dive Site"", ""sport"": ""scuba_diving""}"
Bonsai dive site,,-8.6034515,119.6544647,,,,,,,,,,,7182733952,node,"{""name"": ""Bonsai dive site"", ""sport"": ""scuba_diving""}"
3 Sisters,,-8.6881122,119.5736556,,,,,,,,,,,7182742081,node,"{""name"": ""3 Sisters"", ""sport"": ""scuba_diving""}"
Sabayor Kecil,,-8.5109788,119.695278,,,,,,,,,,,7182749565,node,"{""name"": ""Sabayor Kecil"", ""sport"": ""scuba_diving""}"
Mini Wall,,-8.5081987,119.7040058,,,,,,,,,,,7182750968,node,"{""name"": ""Mini Wall"", ""sport"": ""scuba_diving""}"
Pillarsteen,,-8.6946259,119.5675945,,,,,,,,,,,7182756520,node,"{""name"": ""Pillarsteen"", ""sport"": ""scuba_diving""}"
Tatawa Besar dive site,,-8.5083587,119.6397238,,,,,,,,,,,7182756978,node,"{""name"": ""Tatawa Besar dive site"", ""sport"": ""scuba_diving""}"
Tatawa Kecil dive site,,-8.5252252,119.6332396,,,,,,,,,,,7182760644,node,"{""name"": ""Tatawa Kecil dive site"", ""sport"": ""scuba_diving""}"
Indihiang,,-8.6520619,119.4960867,,,,,,,,,,,7182760645,node,"{""name"": ""Indihiang"", ""sport"": ""scuba_diving""}"
Gaja Rock dive site,,-8.7451021,119.4825409,,,,,,,,,,,7182762315,node,"{""name"": ""Gaja Rock dive site"", ""sport"": ""scuba_diving""}"
Loh Namu,,-8.641888,119.4868791,,,,,,,,,,,7182769497,node,"{""name"": ""Loh Namu"", ""sport"": ""scuba_diving""}"
Pink Beach,,-8.60391,119.5184013,,,,,,,,,,,7182770013,node,"{""name"": ""Pink Beach"", ""sport"": ""scuba_diving""}"
Wainilu,,-8.6255978,119.7074961,,,,,,,,,,,7182771889,node,"{""name"": ""Wainilu"", ""sport"": ""scuba_diving""}"
Loh Sera dive site,,-8.7355061,119.4569802,,,,,,,,,,,7182771890,node,"{""name"": ""Loh Sera dive site"", ""sport"": ""scuba_diving""}"
Tanjung Loh Sera dive site,,-8.7432085,119.4720907,,,,,,,,,,,7182774875,node,"{""name"": ""Tanjung Loh Sera dive site"", ""sport"": ""scuba_diving""}"
Gindang,,-8.6108571,119.7197489,,,,,,,,,,,7182785203,node,"{""name"": ""Gindang"", ""sport"": ""scuba_diving""}"
Payong,,-8.6804164,119.6057521,,,,,,,,,,,7182786669,node,"{""name"": ""Payong"", ""sport"": ""scuba_diving""}"
Siaba Besar dive site,,-8.5455259,119.6482815,,,,,,,,,,,7242483425,node,"{""name"": ""Siaba Besar dive site"", ""sport"": ""scuba_diving""}"
Sabolon besar dive site,,-8.3926698,119.8068523,,,,,,,,,,,8022562467,node,"{""name"": ""Sabolon besar dive site"", ""sport"": ""scuba_diving""}"
Sabolon kecil dive site,,-8.3896766,119.7984087,,,,,,,,,,,8022562468,node,"{""name"": ""Sabolon kecil dive site"", ""sport"": ""scuba_diving""}"
Lighthouse Reef Dive Site,,-8.4409708,119.5837837,,,,,,,,,,,8022562480,node,"{""name"": ""Lighthouse Reef Dive Site"", ""scuba_diving:dive_spot"": ""yes"", ""sport"": ""scuba_diving""}"
Sebayur dive site,,-8.5046306,119.7078895,,,,,,,,,,,8022733115,node,"{""name"": ""Sebayur dive site"", ""sport"": ""scuba_diving""}"
Seraya kecil dive site,,-8.4181211,119.8625135,,,,,,,,,,,8022733116,node,"{""name"": ""Seraya kecil dive site"", ""sport"": ""scuba_diving""}"
Big Fins TecDiving,,-8.2784946,115.5933629,,,,,,,,,,,9028333855,node,"{""name"": ""Big Fins TecDiving"", ""sport"": ""scuba_diving""}"
Les Pléiades du Sud,"Pierre Kaouma propose de la plongée en bouteille et des randonnées palmées (PMT).
Les excursions se font à partir de palanquée de 4 minimum.
randonnée palmée : 9000 XPF
plongée : 
Possibilité de louer combinaison, palme masques et tubas.",-20.699759,166.4738249,,,,,+687 892326,,,,,,10096798975,node,"{""description"": ""Pierre Kaouma propose de la plong\u00e9e en bouteille et des randonn\u00e9es palm\u00e9es (PMT).\nLes excursions se font \u00e0 partir de palanqu\u00e9e de 4 minimum.\nrandonn\u00e9e palm\u00e9e : 9000 XPF\nplong\u00e9e : \nPossibilit\u00e9 de louer combinaison, palme masques et tubas."", ""name"": ""Les Pl\u00e9iades du Sud"", ""phone"": ""+687 892326"", ""sport"": ""scuba_diving""}"
Makassar Reef (Manta Point),,-8.5335442,119.5905966,,,,,,,,,,,10252897714,node,"{""name"": ""Makassar Reef (Manta Point)"", ""sport"": ""scuba_diving""}"
Menjangan - Pos 2,,-8.0964808,114.5279094,,,,,,,,,,,10874989402,node,"{""name"": ""Menjangan - Pos 2"", ""sport"": ""scuba_diving""}"
Coral Garden,,-8.0912588,114.5220724,,,,,,,,,,,10875039981,node,"{""name"": ""Coral Garden"", ""sport"": ""scuba_diving""}"
Emerald,,-8.2837348,115.6028731,,,,,,,,,,,12052475969,node,"{""name"": ""Emerald"", ""sport"": ""scuba_diving"", ""tourism"": ""attraction""}"
Wai FPW,,-0.7021871,130.7126716,,,,,,,,,,,12182208860,node,"{""name"": ""Wai FPW"", ""sport"": ""scuba_diving""}"
Irvin's Mantas,,-0.7930622,130.5047585,,,,,,,,,,,12185388276,node,"{""name"": ""Irvin's Mantas"", ""sport"": ""scuba_diving""}"
House Reef,,-0.7523122,121.7620927,,,,,,,,,,,12769986290,node,"{""name"": ""House Reef"", ""scuba_diving:divespot"": ""yes"", ""sport"": ""scuba_diving""}"
Cookie Monster,,-0.8259531,121.5938859,,,,,,,,,,,12769990888,node,"{""name"": ""Cookie Monster"", ""scuba_diving:divespot"": ""yes"", ""sport"": ""scuba_diving""}"
Nurek,"Coral garden dive spot. ""Nurek"" means ""diver"" in Polish.",-0.7523651,121.7690837,,,,,,,,,,,12769991804,node,"{""description"": ""Coral garden dive spot. \""Nurek\"" means \""diver\"" in Polish."", ""name"": ""Nurek"", ""scuba_diving:divespot"": ""yes"", ""sport"": ""scuba_diving""}"
Bima Sakti 1,,-0.7377503,121.7734271,,,,,,,,,,,12770023353,node,"{""name"": ""Bima Sakti 1"", ""scuba_diving:divespot"": ""yes"", ""sport"": ""scuba_diving""}"
Tanjung Gurita,,-0.7405208,121.7579097,,,,,,,,,,,12770028729,node,"{""name"": ""Tanjung Gurita"", ""scuba_diving:divespot"": ""yes"", ""sport"": ""scuba_diving""}"
SpaceX,,-0.7363043,121.766766,,,,,,,,,,,12770033185,node,"{""name"": ""SpaceX"", ""scuba_diving:divespot"": ""yes"", ""sport"": ""scuba_diving""}"
Bima Sakti 3,,-0.7379916,121.7659961,,,,,,,,,,,12770036839,node,"{""name"": ""Bima Sakti 3"", ""scuba_diving:divespot"": ""yes"", ""sport"": ""scuba_diving""}"
Survival,,-0.7610055,121.7715927,,,,,,,,,,,12770041807,node,"{""name"": ""Survival"", ""scuba_diving:divespot"": ""yes"", ""sport"": ""scuba_diving""}"
Rap God,,-0.7459502,121.7545824,,,,,,,,,,,12770052101,node,"{""name"": ""Rap God"", ""scuba_diving:divespot"": ""yes"", ""sport"": ""scuba_diving""}"
Tanjung Tampo,,-0.8111953,121.663937,,,,,,,,,,,12787919668,node,"{""name"": ""Tanjung Tampo"", ""scuba_diving:divespot"": ""yes"", ""sport"": ""scuba_diving""}"
Circus,,-0.7532412,121.7658429,,,,,,,,,,,12787932002,node,"{""name"": ""Circus"", ""scuba_diving:divespot"": ""yes"", ""sport"": ""scuba_diving""}"
Explore,,-20.3453233,148.951274,,,,,,,,,,,105243515,way,"{""building"": ""yes"", ""name"": ""Explore"", ""sport"": ""scuba_diving""}"
Merimbula Wharf,,-36.8989231,149.9272261,,,,,,,,,,,202925288,way,"{""man_made"": ""pier"", ""name"": ""Merimbula Wharf"", ""sport"": ""scuba_diving""}"
Nautilus Diving Bali Shop,,-8.6890892,115.1657589,,,,,,,,,,,562955480,way,"{""building"": ""yes"", ""name"": ""Nautilus Diving Bali Shop"", ""sport"": ""scuba_diving""}"
Bintang Beach Club Dive And Water Sport,,-8.7561929,115.2215899,,,,,,,,,,,890776335,way,"{""addr:housenumber"": ""108A"", ""addr:street"": ""Jalan Pratama"", ""building"": ""yes"", ""leisure"": ""sports_centre"", ""name"": ""Bintang Beach Club Dive And Water Sport"", ""sport"": ""scuba_diving""}"
All 4 Diving Indonesia,,-8.6873648,115.167168,,,,,,,,,,,1087124627,way,"{""building"": ""yes"", ""name"": ""All 4 Diving Indonesia"", ""sport"": ""scuba_diving""}"
