name,description,lat,lon,country,region,city,website,phone,email,difficulty,max_depth,entry_type,site_type,osm_id,osm_type,tags
Basis am Blausteinsee,,50.853654,6.2660855,,,,,,,,,,,369967877,node,"{""amenity"": ""dive_centre"", ""name"": ""Basis am Blausteinsee"", ""sport"": ""scuba_diving""}"
Blausteinsee,,50.8541836,6.267369,,,,,,,,,,,778561893,node,"{""name"": ""Blausteinsee"", ""sport"": ""scuba_diving""}"
instap 1,,51.1790899,5.8755015,,,,,,,,,,,838074735,node,"{""name"": ""instap 1"", ""scuba_diving:entry"": ""shore"", ""scuba_diving:name"": ""Boschmolenplas"", ""sport"": ""scuba_diving""}"
Put van Ekeren,,51.2833277,4.3910162,,,,,,,,,,,910356025,node,"{""name"": ""Put van Ekeren"", ""sport"": ""scuba_diving"", ""wikidata"": ""Q24560694""}"
De Nekker,,51.0218325,4.5028339,,,,,,,,,,,1056962833,node,"{""name"": ""De Nekker"", ""scuba_diving:air_fill"": ""no"", ""scuba_diving:maxdepth"": ""12"", ""sport"": ""scuba_diving""}"
Duiklocatie Boschmolenplas,,51.1786366,5.8755969,,,Heel,,,,,,,,4709815476,node,"{""addr:city"": ""Heel"", ""addr:housenumber"": ""3"", ""addr:postcode"": ""6097NG"", ""addr:street"": ""Bosmolenweg"", ""leisure"": ""sport"", ""name"": ""Duiklocatie Boschmolenplas"", ""scuba_diving:air_filling"": ""yes"", ""scuba_diving:filling"": ""yes"", ""source"": ""BAG"", ""source:date"": ""2017-02-28"", ""sport"": ""scuba_diving""}"
Adventure Diving,,50.8418385,4.2803097,,,,https://adventurediving.be,,,,,,,6763214022,node,"{""name"": ""Adventure Diving"", ""sport"": ""scuba_diving"", ""website"": ""https://adventurediving.be""}"
Carrière des trois fontaines,,50.636606,4.6466474,,,,https://timberdiving.be/,,,,,,,7629260491,node,"{""name"": ""Carri\u00e8re des trois fontaines"", ""sport"": ""scuba_diving"", ""website"": ""https://timberdiving.be/""}"
instap 3,,51.1790732,5.8740311,,,,,,,,,,,7902532875,node,"{""name"": ""instap 3"", ""scuba_diving:entry"": ""shore"", ""scuba_diving:name"": ""Boschmolenplas"", ""sport"": ""scuba_diving""}"
instap 4,,51.1789968,5.8732561,,,,,,,,,,,7902532876,node,"{""name"": ""instap 4"", ""scuba_diving:entry"": ""shore"", ""scuba_diving:name"": ""Boschmolenplas"", ""sport"": ""scuba_diving""}"
instap 2,,51.179098,5.8748304,,,,,,,,,,,7902532882,node,"{""name"": ""instap 2"", ""scuba_diving:entry"": ""shore"", ""scuba_diving:name"": ""Boschmolenplas"", ""sport"": ""scuba_diving""}"
bootje,,51.179216,5.8751267,,,,,,,,,,,9652884902,node,"{""name"": ""bootje"", ""name:de"": ""Kleines Boot"", ""scuba_diving:current"": ""0"", ""scuba_diving:depth"": ""4"", ""scuba_diving:entry"": ""shore"", ""scuba_diving:type:attraction"": ""yes"", ""scuba_diving:type:wreck"": ""yes"", ""sport"": ""scuba_diving"", ""tourism"": ""attraction""}"
vliegtuig,,51.1792325,5.8748074,,,,,,,,,,,9652892225,node,"{""alt_name"": ""klimrek"", ""name"": ""vliegtuig"", ""name:de"": ""Flugzeug"", ""scuba_diving:current"": ""0"", ""scuba_diving:depth"": ""4"", ""scuba_diving:entry"": ""shore"", ""scuba_diving:type:attraction"": ""yes"", ""scuba_diving:type:wreck"": ""yes"", ""sport"": ""scuba_diving"", ""tourism"": ""attraction""}"
9m platform (klein),,51.1794553,5.8747619,,,,,,,,,,,9671154513,node,"{""leisure"": ""practice_pitch"", ""name"": ""9m platform (klein)"", ""name:de"": ""9m-Plattform (klein)"", ""scuba_diving:current"": ""0"", ""scuba_diving:depth"": ""9"", ""scuba_diving:entry"": ""shore"", ""scuba_diving:maxdepth"": ""11"", ""scuba_diving:type:attraction"": ""yes"", ""scuba_diving:type:training"": ""yes"", ""sport"": ""scuba_diving"", ""tourism"": ""attraction""}"
9m platform (groot),,51.1795519,5.8753892,,,,,,,,,,,9671154514,node,"{""leisure"": ""practice_pitch"", ""name"": ""9m platform (groot)"", ""name:de"": ""9m-Plattform (gro\u00df)"", ""scuba_diving:current"": ""0"", ""scuba_diving:depth"": ""9"", ""scuba_diving:entry"": ""shore"", ""scuba_diving:maxdepth"": ""11"", ""scuba_diving:type:attraction"": ""yes"", ""scuba_diving:type:training"": ""yes"", ""sport"": ""scuba_diving"", ""tourism"": ""attraction""}"
Kelchterhoef,,51.0337546,5.4171754,,,,,,,,,,,9857593191,node,"{""amenity"": ""dive_centre"", ""name"": ""Kelchterhoef"", ""scuba_diving:current"": ""0"", ""scuba_diving:depth"": ""9m"", ""scuba_diving:divespot"": ""yes"", ""scuba_diving:maxdepth"": ""9m"", ""sport"": ""scuba_diving""}"
Barrage à Bütgenbach,,50.4333372,6.2116164,,,,,,,,,,,9857663706,node,"{""name"": ""Barrage \u00e0 B\u00fctgenbach"", ""scuba_diving:divespot"": ""yes"", ""scuba_diving:maxdepth"": ""18m"", ""sport"": ""scuba_diving""}"
Octopus-Soignies asbl,École de Plongée sub-aquatique LIFRAS,50.5771174,4.0656826,,,,https://www.octopus-soignies.be/,,,,,,,10250540635,node,"{""club"": ""scuba_diving"", ""description"": ""\u00c9cole de Plong\u00e9e sub-aquatique LIFRAS"", ""name"": ""Octopus-Soignies asbl"", ""sport"": ""scuba_diving"", ""website"": ""https://www.octopus-soignies.be/""}"
Plattform 21m,,50.8547834,6.2691593,,,,,,,,,,,11999217846,node,"{""leisure"": ""practice_pitch"", ""name"": ""Plattform 21m"", ""scuba_diving:current"": ""0"", ""scuba_diving:depth"": ""21"", ""scuba_diving:entry"": ""shore"", ""scuba_diving:type:attraction"": ""yes"", ""scuba_diving:type:training"": ""yes"", ""sport"": ""scuba_diving"", ""tourism"": ""attraction""}"
LKW-Kabine 16m,,50.8547675,6.2688088,,,,,,,,,,,11999217847,node,"{""name"": ""LKW-Kabine 16m"", ""scuba_diving:current"": ""0"", ""scuba_diving:depth"": ""16"", ""scuba_diving:entry"": ""shore"", ""scuba_diving:type:attraction"": ""yes"", ""scuba_diving:type:training"": ""yes"", ""sport"": ""scuba_diving"", ""tourism"": ""attraction""}"
Plattform 9m,,50.8544091,6.2681414,,,,,,,,,,,11999217848,node,"{""leisure"": ""practice_pitch"", ""name"": ""Plattform 9m"", ""scuba_diving:current"": ""0"", ""scuba_diving:depth"": ""9"", ""scuba_diving:entry"": ""shore"", ""scuba_diving:type:attraction"": ""yes"", ""scuba_diving:type:training"": ""yes"", ""sport"": ""scuba_diving"", ""tourism"": ""attraction""}"
Plattform 6m,,50.8545099,6.2680274,,,,,,,,,,,11999217849,node,"{""leisure"": ""practice_pitch"", ""name"": ""Plattform 6m"", ""scuba_diving:current"": ""0"", ""scuba_diving:depth"": ""6"", ""scuba_diving:entry"": ""shore"", ""scuba_diving:type:attraction"": ""yes"", ""scuba_diving:type:training"": ""yes"", ""sport"": ""scuba_diving"", ""tourism"": ""attraction""}"
Plattform 2m,,50.8542635,6.2675272,,,,,,,,,,,11999217850,node,"{""leisure"": ""practice_pitch"", ""name"": ""Plattform 2m"", ""scuba_diving:current"": ""0"", ""scuba_diving:depth"": ""2"", ""scuba_diving:entry"": ""shore"", ""scuba_diving:type:attraction"": ""yes"", ""scuba_diving:type:training"": ""yes"", ""sport"": ""scuba_diving"", ""tourism"": ""attraction""}"
Bank 2,,50.6393522,6.4048379,,,,,,,,,,,12050342719,node,"{""name"": ""Bank 2"", ""scuba_diving:entry"": ""stair"", ""scuba_diving:name"": ""Rursee, Bank 2"", ""sport"": ""scuba_diving""}"
Put van Ekeren,,51.2833855,4.3967241,,,,,,,,,,,4323234,way,"{""alt_name"": ""Grote Put"", ""intermittent"": ""no"", ""name"": ""Put van Ekeren"", ""natural"": ""water"", ""salt"": ""no"", ""scuba_diving:current"": ""0"", ""scuba_diving:depth"": ""21m"", ""scuba_diving:divespot"": ""yes"", ""sport"": ""scuba_diving"", ""tidal"": ""no"", ""water"": ""lake""}"
Carrières de Lessines,,50.7040056,3.8470749,,,,http://epsm.divers.be/,,,,,,,8066008,way,"{""name"": ""Carri\u00e8res de Lessines"", ""natural"": ""water"", ""scuba_diving:maxdepth"": ""54"", ""sport"": ""scuba_diving"", ""website"": ""http://epsm.divers.be/""}"
Zilvermeer,,51.2234713,5.17206,,,,,,,,,,,24150076,way,"{""name"": ""Zilvermeer"", ""natural"": ""water"", ""scuba_diving:current"": ""0"", ""scuba_diving:depth"": ""15m"", ""scuba_diving:divespot"": ""yes"", ""scuba_diving:maxdepth"": ""10m"", ""sport"": ""scuba_diving"", ""water"": ""lake""}"
Duikvijver De Kyn,,50.9397278,5.5504577,,,,https://de-kyn.wixsite.com/dekyn,,,,,,,62236450,way,"{""name"": ""Duikvijver De Kyn"", ""natural"": ""water"", ""operator"": ""Duikschool Oceanica"", ""sport"": ""scuba_diving"", ""website"": ""https://de-kyn.wixsite.com/dekyn""}"
Carrière de Vodelée,,50.1654615,4.7272479,,,,,,,,,,,87238482,way,"{""name"": ""Carri\u00e8re de Vodel\u00e9e"", ""natural"": ""water"", ""scuba_diving:air_fill"": ""yes"", ""scuba_diving:maxdepth"": ""40"", ""source"": ""Bing"", ""sport"": ""scuba_diving""}"
Ancienne carrière de Barges - Delwart,,50.590006,3.3966321,,,,,,,,,,,88235119,way,"{""name"": ""Ancienne carri\u00e8re de Barges - Delwart"", ""natural"": ""water"", ""scuba_diving:airfill"": ""no"", ""scuba_diving:divespot"": ""quarry"", ""scuba_diving:platform"": ""yes"", ""sport"": ""scuba_diving""}"
Centre de plongée sous-marine des Barrages de l'Eau d'Heure,,50.1833451,4.3878198,,,,http://www.cpbeh.net/,,,,,,,89278806,way,"{""building"": ""yes"", ""name"": ""Centre de plong\u00e9e sous-marine des Barrages de l'Eau d'Heure"", ""scuba_diving:airfill"": ""yes"", ""scuba_diving:depth"": ""40"", ""source"": ""Bing"", ""source:geometry:date"": ""20170816104339"", ""source:geometry:ref"": ""Picc/3824463"", ""sport"": ""scuba_diving"", ""website"": ""http://www.cpbeh.net/""}"
La Rochefontaine,,50.1829403,4.6425546,,,,,,,,,,,91092292,way,"{""addr:postcode"": ""5600"", ""addr:street"": ""Rue Terne des Coris"", ""building"": ""yes"", ""name"": ""La Rochefontaine"", ""scuba_diving:airfill"": ""yes"", ""sport"": ""scuba_diving""}"
Carrière de la Rochefontaine,,50.1831138,4.6407055,,,,,,,,,,,91092303,way,"{""name"": ""Carri\u00e8re de la Rochefontaine"", ""natural"": ""water"", ""scuba_diving:divespot"": ""yes"", ""scuba_diving:maxdepth"": ""53"", ""sport"": ""scuba_diving""}"
La Croisette,,50.1942459,4.5735906,,,,https://www.croisette.be,,,,32,,,91406235,way,"{""depth"": ""32"", ""name"": ""La Croisette"", ""natural"": ""water"", ""sport"": ""scuba_diving"", ""website"": ""https://www.croisette.be""}"
Carrière de la Gombe,,50.5091542,5.5670163,,,,https://clas.be/,,,,,,,104179672,way,"{""name"": ""Carri\u00e8re de la Gombe"", ""natural"": ""water"", ""scuba_diving:air_filling"": ""yes"", ""scuba_diving:current"": ""0"", ""scuba_diving:divespot"": ""yes"", ""scuba_diving:maxdepth"": ""30m"", ""sport"": ""scuba_diving"", ""water"": ""pond"", ""website"": ""https://clas.be/""}"
Ancienne carrière de Lillé,,50.5014767,5.6483608,,,,https://www.abyssplongee.be/carriere-de-lille.php,,,,,,,116066272,way,"{""disused:landuse"": ""quarry"", ""intermittent"": ""no"", ""name"": ""Ancienne carri\u00e8re de Lill\u00e9"", ""natural"": ""water"", ""scuba_diving:divespot"": ""yes"", ""scuba_diving:maxdepth"": ""28m"", ""scuba_diving:type"": ""quarry"", ""sport"": ""scuba_diving"", ""water"": ""reservoir"", ""website"": ""https://www.abyssplongee.be/carriere-de-lille.php""}"
Centre de Plongée Profonde Lillé,,50.5017371,5.6499468,,,,https://www.abyssplongee.be/carriere-de-lille.php,,,,,,,118951912,way,"{""addr:housenumber"": ""20"", ""addr:postcode"": ""4140"", ""addr:street"": ""Rue de Presseux"", ""building"": ""yes"", ""food"": ""yes"", ""leisure"": ""sports_centre"", ""name"": ""Centre de Plong\u00e9e Profonde Lill\u00e9"", ""sport"": ""scuba_diving"", ""website"": ""https://www.abyssplongee.be/carriere-de-lille.php""}"
De Grote Hegge,,51.1539167,5.8429803,,,,,,,,,,,177423001,way,"{""alt_name"": ""Thorn"", ""name"": ""De Grote Hegge"", ""scuba_diving:access_easyness"": ""1"", ""scuba_diving:depth"": ""7"", ""scuba_diving:difficulty"": ""1"", ""scuba_diving:entry:shore"": ""yes"", ""scuba_diving:type:reef"": ""no"", ""scuba_diving:type:wreck"": ""yes"", ""sport"": ""scuba_diving"", ""tourism"": ""attraction""}"
Santa Maria,,51.1797806,5.8740581,,,,,,,,,,,177733014,way,"{""alt_name"": ""Piratenschip"", ""name"": ""Santa Maria"", ""scuba_diving:access_easyness"": ""2"", ""scuba_diving:depth"": ""13"", ""scuba_diving:difficulty"": ""2"", ""scuba_diving:entry"": ""shore"", ""scuba_diving:maxdepth"": ""15"", ""scuba_diving:type:attraction"": ""yes"", ""scuba_diving:type:wreck"": ""yes"", ""sport"": ""scuba_diving"", ""tourism"": ""attraction""}"
Bank 2,,50.639345,6.4047569,,,,,,,,,,,183692768,way,"{""highway"": ""steps"", ""incline"": ""down"", ""name"": ""Bank 2"", ""scuba_diving:entry"": ""stair"", ""sport"": ""scuba_diving""}"
TODI,,51.0704741,5.2248442,BE,,Beringen,https://www.todi.be/,+32 11 36 40 40,info@todi.be,,,,,314957889,way,"{""addr:city"": ""Beringen"", ""addr:country"": ""BE"", ""addr:housenumber"": ""1"", ""addr:postcode"": ""3582"", ""addr:state"": ""Limburg"", ""addr:street"": ""be-MINE"", ""amenity"": ""dive_centre"", ""building"": ""industrial"", ""email"": ""info@todi.be"", ""historic"": ""building"", ""name"": ""TODI"", ""old_name"": ""Indikkers"", ""opening_hours"": ""We,Fr 12:00-20:00; Sa,Su 10:00-18:00; SH Mo,We 12:00-20:00"", ""operator"": ""Sportoase nv"", ""phone"": ""+32 11 36 40 40"", ""sport"": ""scuba_diving"", ""website"": ""https://www.todi.be/""}"
Duiktank Transfo,,50.8137339,3.3526133,,,,,,,,,,,494106415,way,"{""building"": ""public"", ""leisure"": ""sports_centre"", ""name"": ""Duiktank Transfo"", ""scuba_diving:maxdepth"": ""15"", ""sport"": ""scuba_diving""}"
Oolderhuuske,,51.1930608,5.9455689,,,,,,,,,,,517772804,way,"{""leisure"": ""sports_centre"", ""name"": ""Oolderhuuske"", ""natural"": ""water"", ""scuba_diving:divespot"": ""yes"", ""sport"": ""scuba_diving""}"
Centre de Plongée Dongelberg,,50.6961405,4.8197044,,,,,,,,,,,672538610,way,"{""building"": ""yes"", ""name"": ""Centre de Plong\u00e9e Dongelberg"", ""sport"": ""scuba_diving""}"
Centre de Plongée de Rhisnes,,50.5070142,4.7876373,BE,,Rhisnes,http://www.cp-rhisnes.be/,+32 475 72 86 32,,,,,,800374549,way,"{""addr:city"": ""Rhisnes"", ""addr:country"": ""BE"", ""addr:housename"": ""Centre de Plong\u00e9e de Rhisnes"", ""addr:housenumber"": ""20"", ""addr:postcode"": ""5080"", ""addr:street"": ""Rue de Liesse"", ""building"": ""yes"", ""name"": ""Centre de Plong\u00e9e de Rhisnes"", ""opening_hours"": ""We 18:00-24:00; Sa 14:00-20:00; Su 10:00-20:00"", ""phone"": ""+32 475 72 86 32"", ""sport"": ""scuba_diving"", ""website"": ""http://www.cp-rhisnes.be/""}"
3m platform,,51.1792269,5.8756712,,,,,,,,,,,1050414213,way,"{""leisure"": ""practice_pitch"", ""name"": ""3m platform"", ""name:de"": ""3m-Plattform"", ""scuba_diving:current"": ""0"", ""scuba_diving:depth"": ""3"", ""scuba_diving:entry"": ""shore"", ""scuba_diving:type:attraction"": ""yes"", ""scuba_diving:type:training"": ""yes"", ""sport"": ""scuba_diving"", ""tourism"": ""attraction""}"
5m platform,,51.1793062,5.8750523,,,,,,,,,,,1050414214,way,"{""leisure"": ""practice_pitch"", ""name"": ""5m platform"", ""name:de"": ""5m-Plattform"", ""scuba_diving:current"": ""0"", ""scuba_diving:depth"": ""6"", ""scuba_diving:entry"": ""shore"", ""scuba_diving:type:attraction"": ""yes"", ""scuba_diving:type:training"": ""yes"", ""sport"": ""scuba_diving"", ""tourism"": ""attraction""}"
Container,,51.179442,5.8743419,,,,,,,,,,,1050414215,way,"{""building"": ""container"", ""name"": ""Container"", ""scuba_diving:current"": ""0"", ""scuba_diving:depth"": ""9"", ""scuba_diving:entry"": ""shore"", ""scuba_diving:maxdepth"": ""10"", ""scuba_diving:type:attraction"": ""yes"", ""sport"": ""scuba_diving""}"
Container,,51.179321,5.874374,,,,,,,,,,,1050414216,way,"{""building"": ""container"", ""name"": ""Container"", ""scuba_diving:current"": ""0"", ""scuba_diving:depth"": ""6"", ""scuba_diving:entry"": ""shore"", ""scuba_diving:maxdepth"": ""7"", ""scuba_diving:type:attraction"": ""yes"", ""sport"": ""scuba_diving""}"
Kevin,,51.1794463,5.8757092,,,,,,,,,,,1052337011,way,"{""artwork_type"": ""statue"", ""name"": ""Kevin"", ""scuba_diving:depth"": ""8"", ""scuba_diving:entry"": ""shore"", ""scuba_diving:maxdepth"": ""11"", ""scuba_diving:type:attraction"": ""yes"", ""sport"": ""scuba_diving"", ""tourism"": ""artwork""}"
Duikplas,,51.2321759,5.640099,,,,,,,,,,,1178057498,way,"{""name"": ""Duikplas"", ""natural"": ""water"", ""sport"": ""scuba_diving""}"
