name,description,lat,lon,country,region,city,website,phone,email,difficulty,max_depth,entry_type,site_type,osm_id,osm_type,tags
Emperor Divers,,27.158759,33.8247073,,,,,,,,,,,68531521,node,"{""amenity"": ""dive_centre"", ""name"": ""Emperor Divers"", ""sport"": ""scuba_diving""}"
Light House,,28.4984313,34.5206951,,,,,,,,,,,250735128,node,"{""description:en"": ""House reef for many diveclubs. Elephant statue under the water"", ""description:ru"": ""\u0414\u043e\u043c\u0430\u0448\u043d\u0438\u0439 \u0440\u0438\u0444 \u0434\u043b\u044f \u0434\u0430\u0439\u0432 \u0446\u0435\u043d\u0442\u0440\u043e\u0432. \u0415\u0441\u0442\u044c \u0441\u0442\u0430\u0442\u0443\u044f \u0441\u043b\u043e\u043d\u0430 \u043f\u043e\u0434 \u0432\u043e\u0434\u043e\u0439."", ""name"": ""Light House"", ""scuba_diving:depth"": ""18"", ""scuba_diving:difficulty"": ""1"", ""scuba_diving:entry"": ""shore"", ""sport"": ""scuba_diving"", ""tourism"": ""attraction""}"
Eel Garden,,28.5053487,34.5212322,,,,,,,,,,,251193614,node,"{""description:en"": ""Sand bottom with hundreds of eels"", ""description:ru"": ""\u041f\u0435\u0441\u0447\u0430\u043d\u043e\u0435 \u0434\u043d\u043e \u0441 \u0441\u043e\u0442\u043d\u044f\u043c\u0438 \u0443\u0433\u0440\u0435\u0439."", ""name"": ""Eel Garden"", ""scuba_diving:depth"": ""20"", ""scuba_diving:difficulty"": ""1"", ""scuba_diving:entry"": ""shore"", ""source"": ""local_knowledge"", ""sport"": ""scuba_diving"", ""sport:scuba_diving"": ""yes"", ""tourism"": ""attraction""}"
الجزر,,28.4772304,34.5132459,,,,,,,,,,,251193886,node,"{""alt_name"": ""\u0627\u0644\u062c\u0632\u0631"", ""description:en"": ""Coral underwater islands-reefs, amazing landscape. Good for night diving. Turtle living here."", ""description:ru"": ""\u041f\u043e\u0442\u0440\u044f\u0441\u0430\u044e\u0449\u0438\u0439 \u043f\u043e\u0434\u0432\u043e\u0434\u043d\u044b\u0439 \u043b\u0430\u043d\u0434\u0448\u0430\u0444\u0442 \u0438\u0437 \u043a\u043e\u0440\u0430\u043b\u043b\u043e\u0432\u044b\u0445 \u043e\u0441\u0442\u0440\u043e\u0432\u043a\u043e\u0432. \u041f\u043e\u0434\u0445\u043e\u0434\u0438\u0442 \u0434\u043b\u044f \u043d\u043e\u0447\u043d\u044b\u0445 \u043f\u043e\u0433\u0440\u0443\u0436\u0435\u043d\u0438\u0439. \u041d\u0430 \u0440\u0438\u0444\u0435 \u0436\u0438\u0432\u0435\u0442 \u0447\u0435\u0440\u0435\u043f\u0430\u0445\u0430."", ""name"": ""\u0627\u0644\u062c\u0632\u0631"", ""name:ar"": ""\u0627\u0644\u062c\u0632\u0631"", ""name:ar1"": ""\u0627\u0644\u062c\u0632\u0631"", ""name:en"": ""The Islands"", ""scuba_diving:depth"": ""16"", ""scuba_diving:entry"": ""shore"", ""source"": ""local_knowledge"", ""sport"": ""scuba_diving"", ""sport:scuba_diving"": ""yes"", ""tourism"": ""attraction""}"
SS Thistlegorm,,27.814092,33.9200482,,,,,,,,,,,255316037,node,"{""description:ru"": ""\u0411\u0440\u0438\u0442\u0430\u043d\u0441\u043a\u0438\u0439 \u0432\u043e\u043e\u0440\u0443\u0436\u0435\u043d\u043d\u044b\u0439 \u0441\u0443\u0445\u043e\u0433\u0440\u0443\u0437, \u0437\u0430\u0442\u043e\u043d\u0443\u043b 6 \u043e\u043a\u0442\u044f\u0431\u0440\u044f 1941 \u0433\u043e\u0434\u0430"", ""historic"": ""wreck"", ""name"": ""SS Thistlegorm"", ""seamark:type"": ""wreck"", ""source"": ""survey"", ""sport"": ""scuba_diving"", ""sport:scuba_diving"": ""yes"", ""wikidata"": ""Q32276"", ""wreck:max_depth"": ""31""}"
St John's Caves,,23.6366824,35.8249781,,,,,,,,,,,271178997,node,"{""name"": ""St John's Caves"", ""sport"": ""scuba_diving"", ""sport:scuba_diving"": ""yes""}"
East Abu Dabab 3,,25.3441825,34.7774058,,,,,,,,,,,271180017,node,"{""name"": ""East Abu Dabab 3"", ""scuba_diving:entry:boat"": ""yes"", ""sport"": ""scuba_diving"", ""sport:scuba_diving"": ""yes"", ""tourism"": ""attraction""}"
Sataya South,,24.1564359,35.7108504,,,,,,,,,,,271180391,node,"{""name"": ""Sataya South"", ""scuba_diving:type"": ""reef"", ""sport"": ""scuba_diving"", ""sport:scuba_diving"": ""yes""}"
Shaab Maksour South,,24.238811,35.6542264,,,,,,,,,,,271180623,node,"{""name"": ""Shaab Maksour South"", ""scuba_diving:entry:boat"": ""yes"", ""sport"": ""scuba_diving"", ""sport:scuba_diving"": ""yes"", ""tourism"": ""attraction""}"
Abu Galawa Soraya,,24.2520395,35.5407835,,,,,,,,,,,271180625,node,"{""name"": ""Abu Galawa Soraya"", ""scuba_diving:entry:boat"": ""yes"", ""sport"": ""scuba_diving"", ""sport:scuba_diving"": ""yes"", ""tourism"": ""attraction""}"
"Torfi, Wadi Gamal",,24.674982,35.1457889,,,,,,,,,,,271180721,node,"{""name"": ""Torfi, Wadi Gamal"", ""sport"": ""scuba_diving"", ""sport:scuba_diving"": ""yes"", ""tourism"": ""attraction""}"
Ras Shona,,25.4684135,34.6819826,,,,,,,,,,,271180928,node,"{""name"": ""Ras Shona"", ""sport"": ""scuba_diving"", ""sport:scuba_diving"": ""yes"", ""tourism"": ""attraction""}"
The Bells,,28.5734535,34.5392697,,,,,,,,,,,271181711,node,"{""description:en"": ""Beautiful place with coral arches, narrow entrance. Named for knocking of tank to narrow coral tunnel."", ""description:ru"": ""\u041a\u0440\u0430\u0441\u0438\u0432\u044b\u0439 \u0434\u0430\u0439\u0432\u0441\u0430\u0439\u0442, \u0441 \u0443\u0437\u043a\u0438\u043c \u0442\u0443\u043d\u0435\u043b\u0435\u043c \u0432 \u043a\u043e\u0440\u0430\u043b\u043b\u0435, \u043f\u043e\u0441\u0442\u0435\u043f\u0435\u043d\u043d\u043e \u0443\u0445\u043e\u0434\u044f\u0449\u0435\u043c \u043d\u0430 \u0433\u043b\u0443\u0431\u0438\u043d\u0443 \u0438 \u0430\u0440\u043a\u043e\u0439 \u043d\u0430 \u0433\u043b\u0443\u0431\u0438\u043d\u0435 \u043e\u043a\u043e\u043b\u043e 25\u043c. \u041d\u0430\u0437\u0432\u0430\u043d\u0438\u0435 \u043f\u043e\u043b\u0443\u0447\u0438\u043b \u0437\u0430 \u0445\u0430\u0440\u0430\u043a\u0442\u0435\u0440\u043d\u044b\u0439 \u0437\u0432\u0443\u043a \u0441\u0442\u0443\u043a\u0430 \u0431\u0430\u043b\u043e\u043d\u043e\u0432 \u043e \u043a\u043e\u0440\u0430\u043b\u043b\u043e\u0432\u044b\u0435 \u0441\u0442\u0435\u043d\u043a\u0438."", ""name"": ""The Bells"", ""scuba_diving:depth"": ""31"", ""scuba_diving:entry"": ""shore"", ""sport"": ""scuba_diving"", ""sport:scuba_diving"": ""yes"", ""tourism"": ""attraction""}"
Shark Reef,,27.7257079,34.259035,,,,,,,,,,,271182010,node,"{""name"": ""Shark Reef"", ""name:ru"": ""\u0440\u0438\u0444 \u0410\u043a\u0443\u043b\u0430"", ""scuba_diving:entry:boat"": ""yes"", ""sport"": ""scuba_diving"", ""tourism"": ""attraction""}"
Anemone City,,27.7274421,34.2588554,,,,,,,,,,,271182011,node,"{""name"": ""Anemone City"", ""scuba_diving:entry:boat"": ""yes"", ""sport"": ""scuba_diving"", ""tourism"": ""attraction""}"
Poseidon Reef,,27.3992112,33.8623176,,,,,,,,,,,271188407,node,"{""name"": ""Poseidon Reef"", ""scuba_diving:entry:boat"": ""yes"", ""sport"": ""scuba_diving"", ""tourism"": ""attraction""}"
Shag Rock,,27.7731513,33.8846486,,,,,,,,,,,271188523,node,"{""name"": ""Shag Rock"", ""scuba_diving:entry:boat"": ""yes"", ""sport"": ""scuba_diving"", ""sport:scuba_diving"": ""yes"", ""tourism"": ""attraction""}"
Satellite Reef,,27.7244542,34.2575222,,,,,,,,,,,271195267,node,"{""name"": ""Satellite Reef"", ""scuba_diving:entry:boat"": ""yes"", ""sport"": ""scuba_diving"", ""tourism"": ""attraction""}"
Bluff Point,,27.6812826,33.8080826,,,,,,,,,,,271196006,node,"{""leisure"": ""pitch"", ""name"": ""Bluff Point"", ""scuba_diving:dangers:current"": ""yes"", ""scuba_diving:difficulty"": ""2"", ""scuba_diving:entry:boat"": ""yes"", ""scuba_diving:type:boat"": ""yes"", ""scuba_diving:type:drift"": ""yes"", ""scuba_diving:type:reef"": ""yes"", ""scuba_diving:type:wall"": ""yes"", ""sport"": ""scuba_diving""}"
Yolanda Reef,,27.7247011,34.2583484,,,,,,,,,,,278086478,node,"{""name"": ""Yolanda Reef"", ""scuba_diving:entry:boat"": ""yes"", ""sport"": ""scuba_diving"", ""tourism"": ""attraction""}"
Ras Ghozlani,,27.7894435,34.2619429,,,,,,,,,,,278086479,node,"{""name"": ""Ras Ghozlani"", ""sport"": ""scuba_diving"", ""tourism"": ""attraction""}"
Far Garden,,27.9150053,34.3588754,,,,,,,,,,,278086483,node,"{""name"": ""Far Garden"", ""sport"": ""scuba_diving"", ""tourism"": ""attraction""}"
Jackfish Alley,,27.7441533,34.2569889,,,,,,,,,,,279806505,node,"{""name"": ""Jackfish Alley"", ""source"": ""survey"", ""sport"": ""scuba_diving"", ""tourism"": ""attraction""}"
Near Garden,,27.9081038,34.3467116,,,,,,,,,,,279808469,node,"{""name"": ""Near Garden"", ""source"": ""survey"", ""sport"": ""scuba_diving"", ""tourism"": ""attraction"", ""verified"": ""yes""}"
Red Sea Diving College,,27.9094107,34.3263071,,,,,,,,,,,279809613,node,"{""amenity"": ""dive_centre"", ""name"": ""Red Sea Diving College"", ""source"": ""survey"", ""sport"": ""scuba_diving""}"
Middle Garden,,27.9129604,34.3511212,,,,,,,,,,,279811209,node,"{""name"": ""Middle Garden"", ""source"": ""extrapolation"", ""sport"": ""scuba_diving"", ""tourism"": ""attraction"", ""verified"": ""yes""}"
Louilla,,27.9895604,34.4535007,,,,,,,,,,,280296847,node,"{""historic"": ""wreck"", ""name"": ""Louilla"", ""scuba_diving:entry:boat"": ""yes"", ""seamark:type"": ""wreck"", ""source"": ""Bing"", ""sport"": ""scuba_diving"", ""tourism"": ""attraction""}"
St John's Habili Gaffar,,23.426923,35.8763941,,,,,,,,,,,315493984,node,"{""alt_name"": ""Habili Gaffar;Habili Jaffar;Small Habili"", ""name"": ""St John's Habili Gaffar"", ""natural"": ""reef"", ""scuba_diving:divespot"": ""yes"", ""scuba_diving:entry"": ""boat"", ""sport"": ""scuba_diving""}"
Abu Echera,,23.8147933,35.7858758,,,,,,,,,,,315494001,node,"{""name"": ""Abu Echera"", ""scuba_diving:entry:boat"": ""yes"", ""sport"": ""scuba_diving"", ""sport:scuba_diving"": ""yes"", ""tourism"": ""attraction""}"
Gota Sataia 1,,24.1853193,35.6514175,,,,,,,,,,,315494005,node,"{""name"": ""Gota Sataia 1"", ""scuba_diving:entry:boat"": ""yes"", ""sport"": ""scuba_diving"", ""sport:scuba_diving"": ""yes"", ""tourism"": ""attraction""}"
Gota Sataia 2,,24.1978179,35.6528478,,,,,,,,,,,315494009,node,"{""name"": ""Gota Sataia 2"", ""scuba_diving:entry:boat"": ""yes"", ""sport"": ""scuba_diving"", ""sport:scuba_diving"": ""yes"", ""tourism"": ""attraction""}"
Shilineat,,24.669924,35.133319,,,,,,,,,,,315494013,node,"{""name"": ""Shilineat"", ""scuba_diving:entry:boat"": ""yes"", ""sport"": ""scuba_diving"", ""sport:scuba_diving"": ""yes"", ""tourism"": ""attraction""}"
Abu Dabab 6,,25.3248029,34.7983978,,,,,,,,,,,315494021,node,"{""name"": ""Abu Dabab 6"", ""scuba_diving:entry:boat"": ""yes"", ""sport"": ""scuba_diving"", ""sport:scuba_diving"": ""yes"", ""tourism"": ""attraction""}"
Shaab Shona,,25.4698771,34.6828121,,,,,,,,,,,315494024,node,"{""name"": ""Shaab Shona"", ""sport"": ""scuba_diving"", ""sport:scuba_diving"": ""yes"", ""tourism"": ""attraction""}"
Shaab Claudio,,24.2201005,35.6120577,,,,,,,,,,,408451459,node,"{""name"": ""Shaab Claudio"", ""name:en"": ""Shaab Claudio"", ""scuba_diving:entry:boat"": ""yes"", ""sport"": ""scuba_diving"", ""sport:scuba_diving"": ""yes"", ""tourism"": ""attraction""}"
Shaab Said South,,24.2623827,35.5161726,,,,,,,,,,,416090835,node,"{""name"": ""Shaab Said South"", ""scuba_diving:entry:boat"": ""yes"", ""sport"": ""scuba_diving"", ""sport:scuba_diving"": ""yes"", ""tourism"": ""attraction""}"
Shaab Said North,,24.2681362,35.5118303,,,,,,,,,,,416090839,node,"{""name"": ""Shaab Said North"", ""scuba_diving:entry:boat"": ""yes"", ""sport"": ""scuba_diving"", ""sport:scuba_diving"": ""yes"", ""tourism"": ""attraction""}"
Shaab Maksour North,,24.2422132,35.6498051,,,,,,,,,,,416090842,node,"{""name"": ""Shaab Maksour North"", ""scuba_diving:entry:boat"": ""yes"", ""sport"": ""scuba_diving"", ""sport:scuba_diving"": ""yes"", ""tourism"": ""attraction""}"
Golden Blocks,Only appox position,28.439063,34.4660256,,,,,,,,,,,517332131,node,"{""name"": ""Golden Blocks"", ""note"": ""Only appox position"", ""sport"": ""scuba_diving""}"
Dahayla South,,28.6117235,34.5535349,,,,,,,,,,,517346372,node,"{""name"": ""Dahayla South"", ""sport"": ""scuba_diving""}"
Dahayla North,,28.6147761,34.5600502,,,,,,,,,,,517346399,node,"{""name"": ""Dahayla North"", ""sport"": ""scuba_diving""}"
Neptuna,,23.6186333,36.2037666,,,,,,,,,,,663869750,node,"{""historic"": ""wreck"", ""name"": ""Neptuna"", ""seamark:type"": ""wreck"", ""sport"": ""scuba_diving"", ""verified"": ""no, please check and del this tag""}"
South Point,,23.6186333,36.2037666,,,,,,,,,,,663869751,node,"{""name"": ""South Point"", ""sport"": ""scuba_diving"", ""verified"": ""no, please check and del this tag""}"
Big Stone,,23.6186333,36.2037666,,,,,,,,,,,663869752,node,"{""name"": ""Big Stone"", ""sport"": ""scuba_diving"", ""verified"": ""no, please check and del this tag""}"
East Point,,23.6186333,36.2037666,,,,,,,,,,,663869753,node,"{""name"": ""East Point"", ""sport"": ""scuba_diving"", ""verified"": ""no, please check and del this tag""}"
Rocky North,,23.5658256,36.2454923,,,,,,,,,,,663869756,node,"{""name"": ""Rocky North"", ""sport"": ""scuba_diving"", ""verified"": ""no, please check and del this tag""}"
Rocky South,,23.5611404,36.2462919,,,,,,,,,,,663869757,node,"{""name"": ""Rocky South"", ""sport"": ""scuba_diving"", ""verified"": ""no, please check and del this tag""}"
Rocky East,,23.5644383,36.2492616,,,,,,,,,,,663869758,node,"{""name"": ""Rocky East"", ""sport"": ""scuba_diving"", ""verified"": ""no, please check and del this tag""}"
Rocky West,,23.5630773,36.2422942,,,,,,,,,,,663869759,node,"{""name"": ""Rocky West"", ""sport"": ""scuba_diving"", ""verified"": ""no, please check and del this tag""}"
Zabargad Jetty,,23.6186333,36.2037666,,,,,,,,,,,663869760,node,"{""name"": ""Zabargad Jetty"", ""sport"": ""scuba_diving"", ""verified"": ""no, please check and del this tag""}"
Siyal Island,,22.8,36.183333,,,,,,,,,,,663869761,node,"{""name"": ""Siyal Island"", ""sport"": ""scuba_diving"", ""verified"": ""no, please check and del this tag""}"
Abu Galawa Soraya,,24.2541166,35.5404,,,,,,,,,,,663869763,node,"{""historic"": ""wreck"", ""name"": ""Abu Galawa Soraya"", ""seamark:type"": ""wreck"", ""sport"": ""scuba_diving"", ""verified"": ""no, please check and del this tag""}"
Shaab Sataya,,24.1577,35.7118333,,,,,,,,,,,663869764,node,"{""name"": ""Shaab Sataya"", ""sport"": ""scuba_diving""}"
Abu Galawa Kebir,,24.2286658,35.5727769,,,,,,,,,,,663869765,node,"{""historic"": ""wreck"", ""name"": ""Abu Galawa Kebir"", ""seamark:type"": ""wreck"", ""sport"": ""scuba_diving"", ""verified"": ""no, please check and del this tag""}"
Shaab Sataya Amphoren,,24.1552833,35.685,,,,,,,,,,,663869767,node,"{""name"": ""Shaab Sataya Amphoren"", ""sport"": ""scuba_diving"", ""verified"": ""no, please check and del this tag""}"
Adantia K.,,24.20885,35.56045,,,,,,,,,,,663869768,node,"{""historic"": ""wreck"", ""name"": ""Adantia K."", ""seamark:type"": ""wreck"", ""sport"": ""scuba_diving"", ""verified"": ""no, please check and del this tag""}"
Hamada,,24.4383333,35.2131166,,,,,,,,,,,663869769,node,"{""historic"": ""wreck"", ""name"": ""Hamada"", ""seamark:type"": ""wreck"", ""sport"": ""scuba_diving"", ""verified"": ""no, please check and del this tag""}"
Shaab Ini,,24.2182333,35.5951,,,,,,,,,,,663869771,node,"{""name"": ""Shaab Ini"", ""sport"": ""scuba_diving"", ""verified"": ""no, please check and del this tag""}"
Shaab Malahi,,24.1970524,35.660738,,,,,,,,,,,663869772,node,"{""name"": ""Shaab Malahi"", ""sport"": ""scuba_diving"", ""verified"": ""no, please check and del this tag""}"
Shaab Bohar Soraya,,24.2922333,35.5387833,,,,,,,,,,,663869773,node,"{""name"": ""Shaab Bohar Soraya"", ""sport"": ""scuba_diving"", ""verified"": ""no, please check and del this tag""}"
Shaab Bohar Kebir Ost,,24.295131,35.534869,,,,,,,,,,,663869774,node,"{""name"": ""Shaab Bohar Kebir Ost"", ""sport"": ""scuba_diving"", ""verified"": ""no, please check and del this tag""}"
Shaab Said Nord,,24.27205,35.5085666,,,,,,,,,,,663869775,node,"{""name"": ""Shaab Said Nord"", ""sport"": ""scuba_diving"", ""verified"": ""no, please check and del this tag""}"
Salem Express,,26.6397175,34.0615772,,,,,,,,,,,663869778,node,"{""historic"": ""wreck"", ""name"": ""Salem Express"", ""scuba_diving:divespot"": ""yes"", ""scuba_diving:type"": ""wreck"", ""seamark:type"": ""wreck"", ""sport"": ""scuba_diving"", ""verified"": ""yes, through track"", ""wreck:date_sunk"": ""11:13pm on December 14th, 1991""}"
نوميديا,,26.3156833,34.84145,,,,,,,,,,,663869779,node,"{""historic"": ""wreck"", ""name"": ""\u0646\u0648\u0645\u064a\u062f\u064a\u0627"", ""name:ar"": ""\u0646\u0648\u0645\u064a\u062f\u064a\u0627"", ""name:de"": ""Numidia"", ""name:en"": ""Numidia"", ""name:fr"": ""Numidia"", ""scuba_diving:divespot"": ""yes"", ""scuba_diving:type:wreck"": ""yes"", ""seamark:type"": ""wreck"", ""source"": ""https://www.redseawreckproject.com/2013/08/19/numidia/"", ""sport"": ""scuba_diving""}"
عايدة,,26.3138104,34.8432379,,,,,,,,,,,663869780,node,"{""brand"": ""\u0639\u0627\u064a\u062f\u0629"", ""brand:ar"": ""\u0639\u0627\u064a\u062f\u0629"", ""brand:wikidata"": ""Q293469"", ""brand:wikipedia"": ""ar:\u0639\u0627\u064a\u062f\u0629 (\u0633\u0641\u0646 \u0633\u064a\u0627\u062d\u064a\u0629)"", ""historic"": ""wreck"", ""name"": ""\u0639\u0627\u064a\u062f\u0629"", ""name:ar"": ""\u0639\u0627\u064a\u062f\u0629"", ""name:de"": ""Aida"", ""name:en"": ""Aida"", ""name:fr"": ""Aida"", ""scuba_diving:divespot"": ""yes"", ""scuba_diving:type:wreck"": ""yes"", ""seamark:type"": ""wreck"", ""source"": ""https://www.wrecksite.eu/wreck.aspx?165153;https://www.redseawreckproject.com/2013/08/17/aida/"", ""sport"": ""scuba_diving""}"
Ras Abu Soma,,26.840722,34.000684,,,,,,,,,,,663869787,node,"{""alt_name"": ""Abu Soma Garden"", ""name"": ""Ras Abu Soma"", ""sport"": ""scuba_diving"", ""verified"": ""no, please check and del this tag""}"
Tobia Arbaa,,26.836288,33.991287,,,,,,,,,,,663869788,node,"{""name"": ""Tobia Arbaa"", ""sport"": ""scuba_diving"", ""verified"": ""no, please check and del this tag""}"
Tobia Hamra,,26.8312268,33.9859068,,,,,,,,,,,663869789,node,"{""name"": ""Tobia Hamra"", ""source"": ""local_knowledge"", ""sport"": ""scuba_diving""}"
Sandy Island,,26.8150661,33.9785314,,,,,,,,,,,663869790,node,"{""name"": ""Sandy Island"", ""sport"": ""scuba_diving"", ""verified"": ""no, please check and del this tag""}"
Shaab Sabrina,mooring place for dive boats,27.2142867,33.9531476,,,,,,,,,,,663869792,node,"{""description"": ""mooring place for dive boats"", ""name"": ""Shaab Sabrina"", ""sport"": ""scuba_diving""}"
Shaabruhr Umm Gamar,,27.1925,33.9091666,,,,,,,,,,,663869793,node,"{""historic"": ""wreck"", ""name"": ""Shaabruhr Umm Gamar"", ""seamark:type"": ""wreck"", ""sport"": ""scuba_diving"", ""verified"": ""no, please check and del this tag""}"
Giftun Soraya,mooring place for dive boats,27.1856324,33.9787866,,,,,,,,,,,663869795,node,"{""description"": ""mooring place for dive boats"", ""name"": ""Giftun Soraya"", ""sport"": ""scuba_diving"", ""survey:date"": ""2018-06-08""}"
Abu Ramada South,,27.158319,33.979164,,,,,,,,,,,663869797,node,"{""name"": ""Abu Ramada South"", ""sport"": ""scuba_diving""}"
Abu Ramada Plateau,"alt_name:reference Abu Ramada Plateau ""Red Sea Partners""",27.1734506,33.9846132,,,,,,,,,,,663869798,node,"{""alt_name"": ""Abu Ramada North"", ""alt_name:de"": ""Abu Ramada - Nord"", ""description"": ""alt_name:reference Abu Ramada Plateau \""Red Sea Partners\"""", ""name"": ""Abu Ramada Plateau"", ""sport"": ""scuba_diving"", ""survey:date"": ""2018-06-08""}"
Gota Abu Ramada - Aquarium,mooring place for dive boats,27.139,33.9532666,,,,,,,,,,,663869799,node,"{""description"": ""mooring place for dive boats"", ""name"": ""Gota Abu Ramada - Aquarium"", ""scuba_diving:attraction:night"": ""yes"", ""scuba_diving:attraction:reef"": ""yes"", ""scuba_diving:dangers:ship"": ""yes"", ""scuba_diving:depth"": ""10"", ""scuba_diving:entry:boat"": ""yes"", ""scuba_diving:maxdepth"": ""16"", ""scuba_diving:surface:brash"": ""yes"", ""scuba_diving:surface:sand"": ""yes"", ""scuba_diving:type:drift"": ""yes"", ""scuba_diving:type:lake"": ""no"", ""scuba_diving:type:sea"": ""yes"", ""sport"": ""scuba_diving""}"
Ham Ham,,27.193028,33.984654,,,,,,,,,,,663869800,node,"{""alt_name"": ""Police Station"", ""name"": ""Ham Ham"", ""sport"": ""scuba_diving""}"
Stone Beach,,27.237597,33.928654,,,,,,,,,,,663869801,node,"{""alt_name"": ""Hamda"", ""name"": ""Stone Beach"", ""sport"": ""scuba_diving"", ""verified"": ""no, please check and del this tag""}"
Abu Ramada - Ost,,27.162831,33.984414,,,,,,,,,,,663869802,node,"{""name"": ""Abu Ramada - Ost"", ""sport"": ""scuba_diving"", ""verified"": ""no, please check and del this tag""}"
Sha`ab Quais,,27.167161,33.951024,,,,,,,,,,,663869803,node,"{""name"": ""Sha`ab Quais"", ""sport"": ""scuba_diving""}"
Shaab Umm Gamar,,27.333448,33.9177183,,,,,,,,,,,663869804,node,"{""historic"": ""wreck"", ""name"": ""Shaab Umm Gamar"", ""scuba_diving:attraction:reef"": ""yes"", ""scuba_diving:entry:boat"": ""yes"", ""scuba_diving:surface:brash"": ""yes"", ""scuba_diving:surface:sand"": ""yes"", ""scuba_diving:type:drift"": ""yes"", ""scuba_diving:type:sea"": ""yes"", ""seamark:type"": ""wreck"", ""sport"": ""scuba_diving"", ""survey:date"": ""2015-09-13""}"
Carless Reef,,27.3117631,33.9401961,,,,,,,,,,,663869805,node,"{""name"": ""Carless Reef"", ""scuba_diving:attraction:biology"": ""yes"", ""scuba_diving:attraction:reef"": ""yes"", ""scuba_diving:depth"": ""15"", ""scuba_diving:entry:boat"": ""yes"", ""scuba_diving:maxdepth"": ""30"", ""scuba_diving:type:drift"": ""yes"", ""scuba_diving:type:sea"": ""yes"", ""sport"": ""scuba_diving"", ""survey:date"": ""2018-06-16""}"
El Fanadir Foc,"name_source El Fanadir Fog: ""Red Sea Partners""",27.2963432,33.8311215,,,,,,,,,,,663869807,node,"{""alt_name"": ""El Fanadir Fog"", ""description"": ""name_source El Fanadir Fog: \""Red Sea Partners\"""", ""name"": ""El Fanadir Foc"", ""scuba_diving:attraction:reef"": ""yes"", ""scuba_diving:depth"": ""10"", ""scuba_diving:entry:boat"": ""yes"", ""scuba_diving:maxdepth"": ""16"", ""scuba_diving:surface:sand"": ""yes"", ""scuba_diving:type:drift"": ""yes"", ""scuba_diving:type:sea"": ""yes"", ""sport"": ""scuba_diving"", ""survey:date"": ""2018-06-15""}"
Shaab El Erg,,27.3975,33.872222,,,,,,,,,,,663869808,node,"{""name"": ""Shaab El Erg"", ""sport"": ""scuba_diving"", ""verified"": ""no, please check and del this tag""}"
Carnatic,,27.5792666,33.92695,,,,,,,,,,,663869809,node,"{""historic"": ""wreck"", ""name"": ""Carnatic"", ""seamark:type"": ""wreck"", ""sport"": ""scuba_diving""}"
Chrisoula K,,27.5805307,33.9287744,,,,,,,,,,,663869810,node,"{""alt_name"": ""Krisoula K"", ""historic"": ""wreck"", ""name"": ""Chrisoula K"", ""seamark:type"": ""wreck"", ""sport"": ""scuba_diving""}"
Kimon M,,27.5816666,33.9302166,,,,,,,,,,,663869811,node,"{""historic"": ""wreck"", ""name"": ""Kimon M"", ""seamark:type"": ""wreck"", ""sport"": ""scuba_diving""}"
Giannis D,,27.5774,33.9231833,,,,,,,,,,,663869812,node,"{""historic"": ""wreck"", ""name"": ""Giannis D"", ""seamark:type"": ""wreck"", ""sport"": ""scuba_diving""}"
Manta Point.,,27.422122,33.882601,,,,,,,,,,,663869813,node,"{""name"": ""Manta Point."", ""sport"": ""scuba_diving"", ""verified"": ""no, please check and del this tag""}"
Barge de Gubal,,27.6779833,33.8046,,,,,,,,,,,663869815,node,"{""historic"": ""wreck"", ""name"": ""Barge de Gubal"", ""name:fr"": ""Barge de Gubal"", ""seamark:type"": ""wreck"", ""sport"": ""scuba_diving""}"
Ulysses,,27.6867,33.8021333,,,,,,,,,,,663869816,node,"{""historic"": ""wreck"", ""name"": ""Ulysses"", ""seamark:type"": ""wreck"", ""sport"": ""scuba_diving"", ""verified"": ""no, please check and del this tag""}"
Small Crack,,27.7316476,34.0974959,,,,,,,,,,,663869817,node,"{""mooring"": ""yes"", ""name"": ""Small Crack"", ""sport"": ""scuba_diving""}"
Dunraven,,27.7033333,34.1216666,,,,,,,,,,,663869819,node,"{""historic"": ""wreck"", ""name"": ""Dunraven"", ""scuba_diving:entry:boat"": ""yes"", ""seamark:type"": ""wreck"", ""sport"": ""scuba_diving"", ""tourism"": ""attraction"", ""verified"": ""no, please check and del this tag"", ""wikidata"": ""Q1266243""}"
Ras Katy,,27.8466578,34.3024876,,,,,,,,,,,663869829,node,"{""name"": ""Ras Katy"", ""sport"": ""scuba_diving"", ""tourism"": ""attraction"", ""verified"": ""yes""}"
Ras Umm Sid,,27.847261,34.31648,,,,,,,,,,,663869830,node,"{""name"": ""Ras Umm Sid"", ""name:ar"": ""\u0631\u0623\u0633 \u0623\u0645 \u0633\u062f"", ""name:en"": ""Ras Umm Sid"", ""name:ru"": ""\u0420\u0430\u0441 \u0423\u043c\u043c \u0421\u0438\u0434"", ""sport"": ""scuba_diving"", ""tourism"": ""attraction"", ""verified"": ""yes"", ""wikidata"": ""Q14218645""}"
Pinky Wall,,27.8708333,34.3233333,,,,,,,,,,,663869833,node,"{""name"": ""Pinky Wall"", ""sport"": ""scuba_diving"", ""verified"": ""no, please check and del this tag""}"
Sodfa,,27.898308,34.3300597,,,,,,,,,,,663869837,node,"{""name"": ""Sodfa"", ""sport"": ""scuba_diving"", ""verified"": ""no, please check and del this tag""}"
Ras Bob Reef,,27.963333,34.413333,,,,,,,,,,,663869842,node,"{""name"": ""Ras Bob Reef"", ""natural"": ""reef"", ""sport"": ""scuba_diving"", ""verified"": ""no, please check and del this tag""}"
White Knight,,27.9566666,34.4,,,,,,,,,,,663869843,node,"{""name"": ""White Knight"", ""sport"": ""scuba_diving"", ""verified"": ""no, please check and del this tag""}"
Ras Ghamila Reef,,27.98,34.436667,,,,,,,,,,,663869845,node,"{""name"": ""Ras Ghamila Reef"", ""natural"": ""reef"", ""sport"": ""scuba_diving"", ""verified"": ""no, please check and del this tag""}"
Hey Daroma,,28.0567379,34.4482631,,,,,,,,,,,663869846,node,"{""historic"": ""wreck"", ""name"": ""Hey Daroma"", ""seamark:type"": ""wreck"", ""sport"": ""scuba_diving"", ""verified"": ""no, please check and del this tag""}"
Million Hope,,28.0563889,34.4491711,,,,,,,,,,,663869847,node,"{""historic"": ""wreck"", ""name"": ""Million Hope"", ""seamark:type"": ""wreck"", ""sport"": ""scuba_diving"", ""verified"": ""no, please check and del this tag""}"
Kormoran,,28.0333332,34.4933332,,,,,,,,,,,663869851,node,"{""name"": ""Kormoran"", ""name:ru"": ""\u041a\u043e\u0440\u043c\u043e\u0440\u0430\u043d"", ""sport"": ""scuba_diving"", ""verified"": ""no, please check and del this tag""}"
Kormoran,,28.0166667,34.4933333,,,,,,,,,,,663869852,node,"{""alt_name"": ""Zingara"", ""historic"": ""wreck"", ""name"": ""Kormoran"", ""seamark:type"": ""wreck"", ""sport"": ""scuba_diving"", ""verified"": ""no, please check and del this tag""}"
Gabu El Bint,,28.353708,34.433307,,,,,,,,,,,663869854,node,"{""name"": ""Gabu El Bint"", ""sport"": ""scuba_diving"", ""verified"": ""no, please check and del this tag""}"
Moray Garden,,28.436899,34.4586269,,,,,,,,,,,663869855,node,"{""name"": ""Moray Garden"", ""sport"": ""scuba_diving"", ""verified"": ""no, please check and del this tag""}"
Umm Sid,,28.4206141,34.4576882,,,,,,,,,,,663869857,node,"{""name"": ""Umm Sid"", ""sport"": ""scuba_diving"", ""verified"": ""no, please check and del this tag""}"
3 Pools,,28.4355923,34.4577903,,,,,,,,,,,663869859,node,"{""name"": ""3 Pools"", ""sport"": ""scuba_diving"", ""verified"": ""no, please check and del this tag""}"
Golden Blocks,,28.4385643,34.4626917,,,,https://dive.site/explore/site/golden-blocks-5QmX,,,,,,,663869860,node,"{""name"": ""Golden Blocks"", ""sport"": ""scuba_diving"", ""website"": ""https://dive.site/explore/site/golden-blocks-5QmX""}"
South Oasis,,28.44322,34.469712,,,,,,,,,,,663869861,node,"{""name"": ""South Oasis"", ""sport"": ""scuba_diving"", ""verified"": ""no, please check and del this tag""}"
The Caves,,28.4168114,34.4565242,,,,,,,,,,,663869862,node,"{""name"": ""The Caves"", ""sport"": ""scuba_diving""}"
Napoleon Reef,,28.471104,34.509963,,,,,,,,,,,663869864,node,"{""name"": ""Napoleon Reef"", ""sport"": ""scuba_diving"", ""verified"": ""no, please check and del this tag""}"
Ras Abu Galum,,28.611198,34.555709,,,,,,,,,,,663869865,node,"{""name"": ""Ras Abu Galum"", ""sport"": ""scuba_diving"", ""verified"": ""no, please check and del this tag""}"
Reeks Reef,,28.563914,34.529901,,,,,,,,,,,663869867,node,"{""name"": ""Reeks Reef"", ""sport"": ""scuba_diving"", ""verified"": ""no, please check and del this tag""}"
سنسبلاش هاوس ريف,,28.486668,34.516587,,,,,,,,,,,663869868,node,"{""alt_name"": ""\u0633\u0646\u0633\u0628\u0644\u0627\u0634 \u0647\u0627\u0648\u0633 \u0631\u064a\u0641"", ""name"": ""\u0633\u0646\u0633\u0628\u0644\u0627\u0634 \u0647\u0627\u0648\u0633 \u0631\u064a\u0641"", ""name:ar"": ""\u0633\u0646\u0633\u0628\u0644\u0627\u0634 \u0647\u0627\u0648\u0633 \u0631\u064a\u0641"", ""name:ar1"": ""\u0633\u0646\u0633\u0628\u0644\u0627\u0634 \u0647\u0627\u0648\u0633 \u0631\u064a\u0641"", ""name:en"": ""Sunsplash Housereef"", ""sport"": ""scuba_diving"", ""verified"": ""no, please check and del this tag""}"
Blue Hole,,28.5723028,34.5373553,,,,,,,,100,,,663869869,node,"{""depth"": ""100"", ""description:en"": ""One of the most popular deep dive site in the world. Blue hole arch under 50m depth"", ""description:ru"": ""\u041e\u0434\u043d\u043e \u0438\u0437 \u0441\u0430\u043c\u044b\u0445 \u043f\u043e\u043f\u0443\u043b\u044f\u0440\u043d\u044b\u0445 \u043c\u0435\u0441\u0442 \u0432 \u043c\u0438\u0440\u0435 \u0434\u043b\u044f \u0433\u043b\u0443\u0431\u043e\u043a\u043e\u0432\u043e\u0434\u043d\u044b\u0445 \u043f\u043e\u0433\u0440\u0443\u0436\u0435\u043d\u0438\u0439 - \u0430\u0440\u043a\u0430 \u0413\u043e\u043b\u0443\u0431\u043e\u0439 \u0434\u044b\u0440\u044b \u043d\u0430 \u0433\u043b\u0443\u0431\u0438\u043d\u0435 \u0431\u043e\u043bee 50\u043c"", ""name"": ""Blue Hole"", ""name:de"": ""Blaues Loch"", ""scuba_diving:entry"": ""shore"", ""sport"": ""scuba_diving"", ""sport:scuba_diving"": ""yes"", ""tourism"": ""attraction"", ""wikidata"": ""Q885734"", ""wikipedia"": ""en:Blue Hole (Red Sea)""}"
Abu Helal,,28.542381,34.516867,,,,,,,,,,,663869871,node,"{""name"": ""Abu Helal"", ""sport"": ""scuba_diving"", ""verified"": ""no, please check and del this tag""}"
Canyon,,28.554359,34.5212059,,,,,,,,,,,663869872,node,"{""description:en"": ""Amazing landscape, deep dive polular place."", ""description:ru"": ""\u041f\u043e\u0442\u0440\u044f\u0441\u0430\u044e\u0449\u0438\u0439 \u043b\u0430\u043d\u0434\u0448\u0430\u0444\u0442, \u043f\u043e\u043f\u0443\u043b\u044f\u0440\u043d\u043e\u0435 \u043c\u0435\u0441\u0442\u043e \u0434\u043b\u044f \u0433\u043b\u0443\u0431\u043e\u043a\u043e\u0432\u043e\u0434\u043d\u044b\u0445 \u043f\u043e\u0433\u0440\u0443\u0436\u0435\u043d\u0438\u0439."", ""name"": ""Canyon"", ""scuba_diving:depth"": ""39"", ""scuba_diving:entry"": ""shore"", ""sport"": ""scuba_diving"", ""tourism"": ""attraction""}"
Yatouche,,29.5038889,34.9197222,,,,,,,,,,,663869876,node,"{""historic"": ""wreck"", ""name"": ""Yatouche"", ""name:en"": ""Yatouche"", ""seamark:type"": ""wreck"", ""sport"": ""scuba_diving"", ""verified"": ""no, please check and del this tag""}"
Cedar Pride,,29.5216667,34.9883333,,,,,,,,,,,663869877,node,"{""historic"": ""wreck"", ""name"": ""Cedar Pride"", ""seamark:type"": ""wreck"", ""sport"": ""scuba_diving"", ""verified"": ""no, please check and del this tag""}"
סופה,,29.5447222,34.9539555,,,,,,,,,,,663869878,node,"{""historic"": ""wreck"", ""name"": ""\u05e1\u05d5\u05e4\u05d4"", ""name:en"": ""Soufa"", ""name:he"": ""\u05e1\u05d5\u05e4\u05d4"", ""seamark:type"": ""wreck"", ""sport"": ""scuba_diving"", ""verified"": ""no, please check and del this tag""}"
Ras Disha,,27.0411335,33.9066738,,,,,,,,,,,700934169,node,"{""name"": ""Ras Disha"", ""sport"": ""scuba_diving""}"
Ben El Gebel,mooring place for dive boats,27.2231368,33.9537536,,,,,,,,,,,700934171,node,"{""alt_name"": ""Shaab Dorfa"", ""alt_name:source"": ""referenced as Shaab Dorfa in \""Red Sea Partners\"""", ""description"": ""mooring place for dive boats"", ""name"": ""Ben El Gebel"", ""sport"": ""scuba_diving""}"
Fanous East,,27.267748,33.88751,,,,,,,,,,,700934174,node,"{""alt_name"": ""Dorfa El Fanus East"", ""alt_name:source"": ""Red Sea Partner"", ""name"": ""Fanous East"", ""name:ar"": ""Fanous East"", ""scuba_diving:depth"": ""11"", ""scuba_diving:difficulty"": ""1"", ""scuba_diving:entry"": ""boat"", ""scuba_diving:maxdepth"": ""19"", ""scuba_diving:type"": ""reef"", ""sport"": ""scuba_diving"", ""survey:date"": ""2015-09-18""}"
Abu Hashish Lagoon,,27.01258,33.92393,,,,,,,,,,,700999354,node,"{""name"": ""Abu Hashish Lagoon"", ""sport"": ""scuba_diving""}"
Abu Hashish Drift,,27.016663,33.92424,,,,,,,,,,,700999355,node,"{""name"": ""Abu Hashish Drift"", ""sport"": ""scuba_diving""}"
Erg Abu Hashish,,27.01056,33.92363,,,,,,,,,,,700999356,node,"{""name"": ""Erg Abu Hashish"", ""sport"": ""scuba_diving""}"
El Aruk Gigi,,27.16942,33.95541,,,,,,,,,,,700999358,node,"{""name"": ""El Aruk Gigi"", ""sport"": ""scuba_diving""}"
Abu Ramada Cave,mooring place for dive boats,27.16058,33.98245,,,,,,,,,,,700999359,node,"{""description"": ""mooring place for dive boats"", ""name"": ""Abu Ramada Cave"", ""scuba_diving:attraction:cave"": ""yes"", ""scuba_diving:attraction:reef"": ""yes"", ""scuba_diving:attraction:rocks"": ""yes"", ""scuba_diving:dangers:ship"": ""yes"", ""scuba_diving:entry:boat"": ""yes"", ""scuba_diving:type:drift"": ""yes"", ""scuba_diving:type:sea"": ""yes"", ""sport"": ""scuba_diving""}"
Erg Somaya,,27.19578,33.984,,,,,,,,,,,700999360,node,"{""name"": ""Erg Somaya"", ""sport"": ""scuba_diving""}"
Erg Somaya Drift,,27.19829,33.98408,,,,,,,,,,,700999362,node,"{""name"": ""Erg Somaya Drift"", ""sport"": ""scuba_diving""}"
Erg Sabina,mooring place for dive boats,27.21621,33.95421,,,,,,,,,,,700999363,node,"{""description"": ""mooring place for dive boats"", ""name"": ""Erg Sabina"", ""sport"": ""scuba_diving""}"
Abu Nugar,,27.34571,33.83949,,,,,,,,,,,700999364,node,"{""alt_name"": ""Abo El Nogar"", ""name"": ""Abu Nugar"", ""scuba_diving:divespot"": ""yes"", ""sport"": ""scuba_diving""}"
Dolphin House,,27.40791,33.85376,,,,,,,,,,,700999365,node,"{""name"": ""Dolphin House"", ""sport"": ""scuba_diving""}"
Makadi Garden,,27.00451,33.91343,,,,,,,,,,,701176785,node,"{""name"": ""Makadi Garden"", ""sport"": ""scuba_diving""}"
Tofa Abu Hashish,,27.02569,33.91144,,,,,,,,,,,701176786,node,"{""name"": ""Tofa Abu Hashish"", ""sport"": ""scuba_diving""}"
Sharm Rashid,,26.94517,33.93396,,,,,,,,,,,701176787,node,"{""name"": ""Sharm Rashid"", ""sport"": ""scuba_diving""}"
Dangerous Reef,,23.340197,35.8553141,,,,,,,,,,,701364652,node,"{""name"": ""Dangerous Reef"", ""sport"": ""scuba_diving""}"
Habili Zabargad,,23.60178,36.18395,,,,,,,,,,,701364655,node,"{""name"": ""Habili Zabargad"", ""sport"": ""scuba_diving""}"
Habili Radir,,24.86538,35.11724,,,,,,,,,,,701364658,node,"{""name"": ""Habili Radir"", ""sport"": ""scuba_diving""}"
Abu Diab,,24.05403,35.69067,,,,,,,,,,,701364661,node,"{""name"": ""Abu Diab"", ""sport"": ""scuba_diving""}"
Sataya East,,24.15956,35.71657,,,,,,,,,,,701364664,node,"{""name"": ""Sataya East"", ""sport"": ""scuba_diving""}"
Shaab Hamam,,24.2613,35.51712,,,,,,,,,,,701364666,node,"{""alt_name"": ""Stairway to Heaven"", ""name"": ""Shaab Hamam"", ""sport"": ""scuba_diving""}"
Abu Dabab 4,,25.34062,34.79488,,,,,,,,,,,701364670,node,"{""name"": ""Abu Dabab 4"", ""scuba_diving:entry:boat"": ""yes"", ""sport"": ""scuba_diving"", ""sport:scuba_diving"": ""yes"", ""tourism"": ""attraction""}"
Daedalus Reef South Plateau,,24.9307762,35.8701908,,,,,,,,,,,701594783,node,"{""alt_name"": ""Abu Kizan"", ""name"": ""Daedalus Reef South Plateau"", ""scuba_diving:dangers:current"": ""yes"", ""scuba_diving:dangers:depth"": ""yes"", ""scuba_diving:entry:boat"": ""yes"", ""scuba_diving:type:rocks"": ""yes"", ""scuba_diving:type:sharks"": ""yes"", ""scuba_diving:type:wall"": ""yes"", ""sport"": ""scuba_diving""}"
Shab Sataya N-W,,24.1671377,35.6755429,,,,,,,,,,,765971222,node,"{""name"": ""Shab Sataya N-W"", ""name:en"": ""Shab Sataya N-W"", ""scuba_diving:type"": ""reef"", ""sport"": ""scuba_diving"", ""sport:scuba_diving"": ""yes""}"
Gota Wadi Gamal,,24.6913821,35.1460703,,,,,,,,,,,765971224,node,"{""name"": ""Gota Wadi Gamal"", ""name:en"": ""Gota Wadi Gamal"", ""scuba_diving:entry:boat"": ""yes"", ""sport"": ""scuba_diving"", ""tourism"": ""attraction""}"
شرم الناقة,,26.9,33.966667,,,,,,,,,,,767991726,node,"{""alt_name"": ""\u0634\u0631\u0645 \u0627\u0644\u0646\u0627\u0642\u0629"", ""int_name"": ""Sharm el-N\u00e2qa, Sharm al Naqa"", ""name"": ""\u0634\u0631\u0645 \u0627\u0644\u0646\u0627\u0642\u0629"", ""name:ar"": ""\u0634\u0631\u0645 \u0627\u0644\u0646\u0627\u0642\u0629"", ""name:ar1"": ""\u0634\u0631\u0645 \u0627\u0644\u0646\u0627\u0642\u0629"", ""name:de"": ""Sharm al Naqa"", ""name:en"": ""Sharm al Naqa"", ""name:fr"": ""Sharm al Naqa"", ""natural"": ""bay"", ""sport"": ""scuba_diving""}"
الإسم العربي ؟,,27.7038233,34.127467,,,,,,,,,,,768031212,node,"{""alt_name"": ""\u0627\u0644\u0625\u0633\u0645 \u0627\u0644\u0639\u0631\u0628\u064a \u061f"", ""int_name"": ""Beacon Rock, Beacon Rock"", ""name"": ""\u0627\u0644\u0625\u0633\u0645 \u0627\u0644\u0639\u0631\u0628\u064a \u061f"", ""name:ar"": ""\u0627\u0644\u0625\u0633\u0645 \u0627\u0644\u0639\u0631\u0628\u064a \u061f"", ""name:ar1"": ""\u0627\u0644\u0625\u0633\u0645 \u0627\u0644\u0639\u0631\u0628\u064a \u061f"", ""name:de"": ""Beacon Rock"", ""name:en"": ""Beacon Rock"", ""name:fr"": ""Beacon Rock"", ""place"": ""locality"", ""scuba_diving:type"": ""reef"", ""sport"": ""scuba_diving""}"
Aluminium,,26.7666652,33.946426,,,,,,,,,,,947967822,node,"{""leisure"": ""marina"", ""name"": ""Aluminium"", ""seamark:harbour:category"": ""marina"", ""seamark:type"": ""harbour"", ""sport"": ""scuba_diving""}"
Turbo,,24.0065731,35.6340114,,,,,,,,,,,1068557838,node,"{""alt_name"": ""Atlas"", ""historic"": ""wreck"", ""name"": ""Turbo"", ""seamark:type"": ""wreck"", ""sport"": ""scuba_diving""}"
Khanka,,23.6166601,36.2047145,,,,,,,,,,,1068557880,node,"{""historic"": ""wreck"", ""name"": ""Khanka"", ""seamark:type"": ""wreck"", ""sport"": ""scuba_diving""}"
Shaab Nakari,,24.9425549,34.9851324,,,,,,,,,,,1068557985,node,"{""name"": ""Shaab Nakari"", ""source"": ""GPS"", ""sport"": ""scuba_diving""}"
Sirnaka Island,,23.8292123,35.808667,,,,,,,,,,,1068558027,node,"{""historic"": ""wreck"", ""name"": ""Sirnaka Island"", ""seamark:type"": ""wreck"", ""sport"": ""scuba_diving""}"
خليج القرش,,27.946547,34.3882994,,,,,,,,,,,1149253646,node,"{""alt_name:ar"": ""\u0634\u0627\u0631\u0643\u0633 \u0628\u064a;\u0634\u0627\u0631\u0643\u0633 \u0628\u0627\u064a"", ""name"": ""\u062e\u0644\u064a\u062c \u0627\u0644\u0642\u0631\u0634"", ""name:ar"": ""\u062e\u0644\u064a\u062c \u0627\u0644\u0642\u0631\u0634"", ""name:en"": ""Shark's Bay"", ""sport"": ""scuba_diving""}"
El Sheig Malik,,25.7236346,34.549773,,,,,,,,,,,1493048050,node,"{""name"": ""El Sheig Malik"", ""name:de"": ""El Sheig Malik"", ""sport"": ""scuba_diving"", ""sport:scuba_diving"": ""yes"", ""tourism"": ""attraction""}"
Soug Bahar,,25.9823079,34.3473762,,,,,,,,,,,1493048051,node,"{""name"": ""Soug Bahar"", ""name:de"": ""Soug Bahar"", ""sport"": ""scuba_diving"", ""sport:scuba_diving"": ""yes"", ""tourism"": ""attraction""}"
Sham Fugami,,25.8701711,34.4220774,,,,,,,,,,,1493059692,node,"{""name"": ""Sham Fugami"", ""name:de"": ""Sham Fugami"", ""sport"": ""scuba_diving"", ""sport:scuba_diving"": ""yes"", ""tourism"": ""attraction""}"
Maheleg,,25.9025849,34.4131047,,,,,,,,,,,1493107203,node,"{""name"": ""Maheleg"", ""name:de"": ""Maheleg"", ""sport"": ""scuba_diving"", ""sport:scuba_diving"": ""yes"", ""tourism"": ""attraction""}"
Gordon reef,,27.9848747,34.4535967,,,,,,,,,,,1556398712,node,"{""name"": ""Gordon reef"", ""scuba_diving:entry:boat"": ""yes"", ""sport"": ""scuba_diving"", ""tourism"": ""attraction""}"
Soma Gatden,,26.8382668,33.9964122,,,,,,,,,,,1556438805,node,"{""name"": ""Soma Gatden"", ""sport"": ""scuba_diving""}"
Ras Malah,,28.7289145,34.6257147,,,,,,,,,,,1736403581,node,"{""name"": ""Ras Malah"", ""scuba_diving:entry"": ""steps"", ""scuba_diving:type:cave"": ""yes"", ""sport"": ""scuba_diving""}"
Tower,,27.8822916,34.3262218,,,,,,,,,,,1979293589,node,"{""name"": ""Tower"", ""source"": ""Bing"", ""sport"": ""scuba_diving"", ""tourism"": ""attraction""}"
Coraya Divers,,25.6002623,34.6076739,,,,https://coraya-divers.com/,,,,,,,2242753303,node,"{""amenity"": ""dive_centre"", ""leisure"": ""sports_centre"", ""name"": ""Coraya Divers"", ""opening_hours"": ""08:00-17:00"", ""scuba_diving:courses"": ""yes"", ""scuba_diving:rental"": ""yes"", ""sport"": ""scuba_diving"", ""website"": ""https://coraya-divers.com/""}"
Japanese Gardens Coral Reefs,,29.429928,34.97325,,,,,,,,,,,2374261090,node,"{""name"": ""Japanese Gardens Coral Reefs"", ""sport"": ""scuba_diving""}"
Extradivers,,25.5212136,34.645141,,,,,,,,,,,2379877985,node,"{""amenity"": ""dive_centre"", ""leisure"": ""sports_centre"", ""name"": ""Extradivers"", ""sport"": ""scuba_diving""}"
Nemo,,26.7659865,33.9432729,,,,https://nemodive.com/,,,,,,,2613533331,node,"{""amenity"": ""dive_centre"", ""name"": ""Nemo"", ""scuba_diving:air_fill"": ""yes"", ""scuba_diving:education"": ""yes"", ""scuba_diving:equipment"": ""yes"", ""scuba_diving:nitrox"": ""no"", ""scuba_diving:spoken_languages"": ""EN, DE"", ""sport"": ""scuba_diving"", ""website"": ""https://nemodive.com/""}"
Laguna Reef,,28.0064435,34.4845061,,,,,,,,,,,2628832137,node,"{""image"": ""http://www.freeelements.ru/images/stories/tiran/laguna_reef.gif"", ""name"": ""Laguna Reef"", ""name:ru"": ""\u0440\u0438\u0444 \u041b\u0430\u0433\u0443\u043d\u0430"", ""natural"": ""reef"", ""reef"": ""coral"", ""sport"": ""scuba_diving"", ""wikidata"": ""Q14213694""}"
Abu Salama,,27.3416824,33.7829269,,,,,,,,,,,2894107064,node,"{""name"": ""Abu Salama"", ""name:de"": ""Gummib\u00e4rchenriff"", ""natural"": ""reef"", ""scuba_diving:divespot"": ""yes"", ""scuba_diving:type:reef"": ""yes"", ""sport"": ""scuba_diving""}"
Shaab Samir,,27.3213391,33.8077449,,,,,,,,,,,3395211634,node,"{""name"": ""Shaab Samir"", ""sport"": ""scuba_diving""}"
אקווה ספורט,,29.5124443,34.9248821,,,,,,,,,,,3741890716,node,"{""amenity"": ""dive_centre"", ""name"": ""\u05d0\u05e7\u05d5\u05d5\u05d4 \u05e1\u05e4\u05d5\u05e8\u05d8"", ""name:en"": ""Aqua Sport"", ""name:he"": ""\u05d0\u05e7\u05d5\u05d5\u05d4 \u05e1\u05e4\u05d5\u05e8\u05d8"", ""sport"": ""scuba_diving""}"
El Fanadir Dacht Dacht,,27.275816,33.8334747,,,,,,,,,,,3755841120,node,"{""name"": ""El Fanadir Dacht Dacht"", ""scuba_diving:attraction:reef"": ""yes"", ""scuba_diving:entry:boat"": ""yes"", ""scuba_diving:surface:sand"": ""yes"", ""scuba_diving:type:drift"": ""yes"", ""scuba_diving:type:sea"": ""yes"", ""sport"": ""scuba_diving"", ""survey:date"": ""2015-09-15""}"
El Fanadir Dacht,mooring place for dive boats,27.2847068,33.8317727,,,,,,,,,,,3755841121,node,"{""description"": ""mooring place for dive boats"", ""description:name"": ""\""Red Sea Partners\"""", ""name"": ""El Fanadir Dacht"", ""scuba_diving:attraction:night"": ""yes"", ""scuba_diving:attraction:reef"": ""yes"", ""scuba_diving:depth"": ""10"", ""scuba_diving:entry:boat"": ""yes"", ""scuba_diving:maxdepth"": ""16"", ""scuba_diving:surface:sand"": ""yes"", ""scuba_diving:type:drift"": ""yes"", ""scuba_diving:type:sea"": ""yes"", ""sport"": ""scuba_diving"", ""survey:date"": ""2018-06-10""}"
Banana Reef,mooring place for dive boats,27.2210096,33.9512032,,,,,,,,,,,3755955535,node,"{""description"": ""mooring place for dive boats"", ""name"": ""Banana Reef"", ""scuba_diving:attraction:reef"": ""yes"", ""scuba_diving:depth"": ""14"", ""scuba_diving:entry:boat"": ""yes"", ""scuba_diving:maxdepth"": ""20"", ""scuba_diving:surface:sand"": ""yes"", ""scuba_diving:type:drift"": ""yes"", ""scuba_diving:type:sea"": ""yes"", ""sport"": ""scuba_diving""}"
Dorfa El Fanus West,mooring place for dive boats,27.2645883,33.8816251,,,,,,,,,,,3756288582,node,"{""description"": ""mooring place for dive boats"", ""name"": ""Dorfa El Fanus West"", ""note"": ""alt_name:source \""Red Sea Partner\"""", ""sport"": ""scuba_diving"", ""survey:date"": ""2015-09-18""}"
Umm Gamar,mooring place for dive boats,27.3528822,33.9084369,,,,,,,,,,,3756356153,node,"{""description"": ""mooring place for dive boats"", ""name"": ""Umm Gamar"", ""scuba_diving:attraction:drop_off"": ""yes"", ""scuba_diving:attraction:reef"": ""yes"", ""scuba_diving:attraction:rocks"": ""yes"", ""scuba_diving:entry:boat"": ""yes"", ""scuba_diving:surface:brash"": ""yes"", ""scuba_diving:surface:sand"": ""yes"", ""scuba_diving:type:drift"": ""yes"", ""scuba_diving:type:sea"": ""yes"", ""sport"": ""scuba_diving""}"
Cedar Pride Shipwreck,,29.4310657,34.9731609,,,,,,,,,,,4329102691,node,"{""name"": ""Cedar Pride Shipwreck"", ""sport"": ""scuba_diving"", ""tourism"": ""attraction""}"
Freedom Divers,,26.7659099,33.9429874,,,,https://www.freedom-divers.de/,+2065 325 30 39,office@freedom-divers.de,,,,,4485618798,node,"{""amenity"": ""dive_centre"", ""email"": ""office@freedom-divers.de"", ""name"": ""Freedom Divers"", ""phone"": ""+2065 325 30 39"", ""scuba_diving:courses"": ""yes"", ""scuba_diving:rental"": ""yes"", ""sport"": ""scuba_diving"", ""tourism"": ""hostel"", ""url"": ""https://www.facebook.com/Freedom-Divers-Safaga-127320410672633/"", ""website"": ""https://www.freedom-divers.de/""}"
DECO International hyperbaric chamber,,27.3952768,33.6698643,,,,,,,,,,,4514248455,node,"{""description:en"": ""Decompression chamber DECO International"", ""description:fr"": ""Caisson de d\u00e9compression DECO International"", ""healthcare"": ""hyperbaric_chamber"", ""hyperbaric_chamber:diameter"": ""2"", ""hyperbaric_chamber:length"": ""4"", ""hyperbaric_chamber:maxpressure"": ""5.5"", ""hyperbaric_chamber:places"": ""10"", ""hyperbaric_chamber:scuba_diving"": ""yes"", ""name"": ""DECO International hyperbaric chamber"", ""operator"": ""DECO International"", ""phone:EG:mobile"": ""+20 122 744 5700;+20 122 219 0383"", ""scuba_diving:emergency"": ""yes"", ""sport"": ""scuba_diving""}"
Marsalis Abu Galawa,,27.3114849,33.7999544,,,,,,,,,,,4549503827,node,"{""name"": ""Marsalis Abu Galawa"", ""sport"": ""scuba_diving""}"
Blue Water House Reef,,27.2394085,33.8492709,,,,,,,,,,,4549503828,node,"{""name"": ""Blue Water House Reef"", ""sport"": ""scuba_diving""}"
Gota Abu Galaua,,27.3145926,33.8102405,,,,,,,,,,,4549503829,node,"{""name"": ""Gota Abu Galaua"", ""sport"": ""scuba_diving""}"
Saddle,,28.5720833,34.5375978,,,,,,,,,,,5061967231,node,"{""description:en"": ""Saddle is the part of Blue hole wall destroyed by scientists"", ""description:ru"": ""\u0421\u0435\u0434\u043b\u043e - \u0447\u0430\u0441\u0442\u044c \u0441\u0442\u0435\u043d\u043e\u043a \u043a\u043e\u0440\u0430\u043b\u043b\u043e\u0432\u043e\u0433\u043e \u043a\u043e\u043b\u043e\u0434\u0446\u0430 \u0440\u0430\u0437\u0440\u0443\u0448\u0435\u043d\u043d\u043e\u0435 \u0443\u0447\u0435\u043d\u044b\u043c\u0438."", ""name"": ""Saddle"", ""scuba_diving:depth"": ""6"", ""scuba_diving:entry"": ""shore"", ""sport"": ""scuba_diving"", ""tourism"": ""attraction""}"
Marsa Mubarak,,25.5095405,34.6521265,,,,,,,,,,,5126304822,node,"{""alt_name"": ""Umm Rus"", ""name"": ""Marsa Mubarak"", ""name:en"": ""Marsa Mares Bay"", ""natural"": ""bay"", ""sport"": ""scuba_diving"", ""sport:scuba_diving"": ""yes"", ""tourism"": ""attraction"", ""wikidata"": ""Q23946315""}"
Shaab Pinky,,27.2648011,33.9194156,,,,,,,,,,,5259828621,node,"{""name"": ""Shaab Pinky"", ""scuba_diving:attraction:biology"": ""yes"", ""scuba_diving:attraction:reef"": ""yes"", ""scuba_diving:depth"": ""15"", ""scuba_diving:entry:boat"": ""yes"", ""scuba_diving:maxdepth"": ""30"", ""scuba_diving:type:sea"": ""yes"", ""sport"": ""scuba_diving""}"
Gorgon 1,,29.426193,34.9721236,,,,,,,,,,,5504662457,node,"{""name"": ""Gorgon 1"", ""sport"": ""scuba_diving""}"
Tank,,29.4187751,34.9716597,,,,,,,,,,,5522700737,node,"{""name"": ""Tank"", ""sport"": ""scuba_diving"", ""tourism"": ""attraction""}"
Plane wreck,,29.4180629,34.97162,,,,,,,,,,,5522700738,node,"{""name"": ""Plane wreck"", ""sport"": ""scuba_diving"", ""tourism"": ""attraction""}"
Rainbow reef,,29.4325243,34.9737847,,,,,,,,,,,5603008074,node,"{""name"": ""Rainbow reef"", ""sport"": ""scuba_diving"", ""tourism"": ""attraction""}"
El Casra,,25.5464437,34.6409603,,,,,,,,,,,5610579023,node,"{""name"": ""El Casra"", ""sport"": ""scuba_diving"", ""tourism"": ""attraction""}"
موقع الغوص - جزيرة الأخ الصغير,,26.3007944,34.862559,,,جزر الإخوة,,,,,,,,5610583021,node,"{""addr:city"": ""\u062c\u0632\u0631 \u0627\u0644\u0625\u062e\u0648\u0629"", ""attraction"": ""sport"", ""name"": ""\u0645\u0648\u0642\u0639 \u0627\u0644\u063a\u0648\u0635 - \u062c\u0632\u064a\u0631\u0629 \u0627\u0644\u0623\u062e \u0627\u0644\u0635\u063a\u064a\u0631"", ""name:ar"": ""\u0645\u0648\u0642\u0639 \u0627\u0644\u063a\u0648\u0635 - \u062c\u0632\u064a\u0631\u0629 \u0627\u0644\u0623\u062e \u0627\u0644\u0635\u063a\u064a\u0631"", ""name:en"": ""Little Brother Dive Site"", ""name:fr"": ""Little Brother"", ""name:uk"": ""\u041c\u0430\u043b\u0438\u0439 \u0411\u0440\u0430\u0442 \u043c\u0456\u0441\u0446\u0435 \u0434\u043b\u044f \u0437\u0430\u043d\u0443\u0440\u0435\u043d\u043d\u044f"", ""scuba_diving:divespot"": ""yes"", ""sport"": ""scuba_diving"", ""tourism"": ""attraction""}"
موقع الغوص - جزيرة الأخ الأكبر,,26.3130389,34.8442682,,,جزر الإخوة,,,,,,,,5610583022,node,"{""addr:city"": ""\u062c\u0632\u0631 \u0627\u0644\u0625\u062e\u0648\u0629"", ""name"": ""\u0645\u0648\u0642\u0639 \u0627\u0644\u063a\u0648\u0635 - \u062c\u0632\u064a\u0631\u0629 \u0627\u0644\u0623\u062e \u0627\u0644\u0623\u0643\u0628\u0631"", ""name:ar"": ""\u0645\u0648\u0642\u0639 \u0627\u0644\u063a\u0648\u0635 - \u062c\u0632\u064a\u0631\u0629 \u0627\u0644\u0623\u062e \u0627\u0644\u0623\u0643\u0628\u0631"", ""name:en"": ""Big Brother Dive Site"", ""name:fr"": ""Big Brother"", ""name:uk"": ""\u0412\u0435\u043b\u0438\u043a\u0438\u0439 \u0411\u0440\u0430\u0442 \u043c\u0456\u0441\u0446\u0435 \u0434\u043b\u044f \u0437\u0430\u043d\u0443\u0440\u0435\u043d\u043d\u044f"", ""sport"": ""scuba_diving"", ""tourism"": ""attraction""}"
Shaab Sabrina,mooring place for dive boats,27.2146731,33.9537019,,,,,,,,,,,5708779294,node,"{""description"": ""mooring place for dive boats"", ""name"": ""Shaab Sabrina"", ""sport"": ""scuba_diving""}"
Balena,,27.1782408,33.831981,,,,,,,,,,,5708994007,node,"{""historic"": ""wreck"", ""name"": ""Balena"", ""scuba_diving:dangers:ship"": ""yes"", ""scuba_diving:depth"": ""3"", ""scuba_diving:entry:boat"": ""yes"", ""scuba_diving:maxdepth"": ""8.5"", ""sport"": ""scuba_diving""}"
Umm Gamar West,,27.3676227,33.906362,,,,,,,,,,,5709269770,node,"{""name"": ""Umm Gamar West"", ""scuba_diving:attraction:biology"": ""yes"", ""scuba_diving:attraction:reef"": ""yes"", ""scuba_diving:depth"": ""10"", ""scuba_diving:entry:boat"": ""yes"", ""scuba_diving:maxdepth"": ""25"", ""scuba_diving:type:drift"": ""yes"", ""scuba_diving:type:sea"": ""yes"", ""sport"": ""scuba_diving""}"
Sha'ab Bruce,,27.3032589,33.8262069,,,,,,,,,,,5710652974,node,"{""name"": ""Sha'ab Bruce"", ""scuba_diving:attraction:biology"": ""yes"", ""scuba_diving:attraction:reef"": ""yes"", ""scuba_diving:depth"": ""7"", ""scuba_diving:entry:boat"": ""yes"", ""scuba_diving:maxdepth"": ""13"", ""scuba_diving:type:sea"": ""yes"", ""sport"": ""scuba_diving""}"
Shaab Nenad,,27.227837,33.9352761,,,,,,,,,,,5884434387,node,"{""name"": ""Shaab Nenad"", ""sport"": ""scuba_diving""}"
Aquarium,,27.1393526,33.9546855,,,,,,,,,,,5896280466,node,"{""name"": ""Aquarium"", ""sport"": ""scuba_diving""}"
Flamenco Hausriff,,26.1653439,34.2456192,,,,,,,,,,,6018110087,node,"{""name"": ""Flamenco Hausriff"", ""name:de"": ""Sport-scuba-diving"", ""sport"": ""scuba_diving"", ""tourism"": ""attraction""}"
Black Pearl - Red Sea,,27.8527251,34.2717691,,,,,,,,,,,6247187286,node,"{""amenity"": ""dive_centre"", ""leisure"": ""sports_centre"", ""name"": ""Black Pearl - Red Sea"", ""sport"": ""scuba_diving""}"
Middle Reef,,26.7050917,34.0996195,,,,,,,,,,,6585137657,node,"{""name"": ""Middle Reef"", ""sport"": ""scuba_diving""}"
panorama Reef North,,26.757536,34.0784061,,,,,,,,,,,6585137658,node,"{""name"": ""panorama Reef North"", ""sport"": ""scuba_diving""}"
Panorama Reef East,,26.7539976,34.0827562,,,,,,,,,,,6585137659,node,"{""name"": ""Panorama Reef East"", ""sport"": ""scuba_diving""}"
Shaab Tiffany,,27.1500955,33.8945873,,,,,,,,,,,6661183328,node,"{""name"": ""Shaab Tiffany"", ""sport"": ""scuba_diving""}"
Wadi Lahmy Azur Housereef,,24.2376318,35.416207,,,,,,,,,,,6920738901,node,"{""contact:website"": ""https://www.divessi.com/en/mydiveguide/divesite/232963"", ""name"": ""Wadi Lahmy Azur Housereef"", ""natural"": ""reef"", ""sport"": ""scuba_diving""}"
Shaab Sakara,,24.3747755,35.3662804,,,,,,,,,,,6920738902,node,"{""name"": ""Shaab Sakara"", ""sport"": ""scuba_diving""}"
Siyal South,,24.3784303,35.3846562,,,,,,,,,,,6920738903,node,"{""name"": ""Siyal South"", ""sport"": ""scuba_diving""}"
Um El Sheikh,,24.3127291,35.3990704,,,,,,,,,,,6920738918,node,"{""name"": ""Um El Sheikh"", ""sport"": ""scuba_diving""}"
Elphinstone,,25.3073616,34.8606287,,,,,,,,,,,7006625785,node,"{""name"": ""Elphinstone"", ""name:de"": ""Riff mit Tauchhotspot"", ""name:en"": ""Elphinstone reef"", ""opening_hours"": ""24/7"", ""scuba_diving:entry:boat"": ""yes"", ""sport"": ""scuba_diving"", ""tourism"": ""attraction""}"
Sea Pioneer,,28.4995148,34.5194037,,,,,,,,,,,8288608584,node,"{""amenity"": ""dive_centre"", ""name"": ""Sea Pioneer"", ""sport"": ""scuba_diving""}"
Fun Divers,,28.4993156,34.5196847,,,,,,,,,,,8288608610,node,"{""amenity"": ""dive_centre"", ""name"": ""Fun Divers"", ""sport"": ""scuba_diving""}"
Marsa Bareika,,27.7866024,34.2177797,,,,,,,,,,,8559506181,node,"{""name"": ""Marsa Bareika"", ""sport"": ""scuba_diving"", ""tourism"": ""attraction""}"
Thomas reef,,27.9921659,34.4614807,,,,,,,,,,,8559506183,node,"{""name"": ""Thomas reef"", ""scuba_diving:entry:boat"": ""yes"", ""sport"": ""scuba_diving"", ""tourism"": ""attraction""}"
Jackson reef,,28.0059666,34.472557,,,,,,,,,,,8559506184,node,"{""name"": ""Jackson reef"", ""scuba_diving:entry:boat"": ""yes"", ""sport"": ""scuba_diving"", ""tourism"": ""attraction""}"
"אתר צלילה -סטי""ל (24 מטר)",,29.5145068,34.9270007,,,,https://www.diving.org.il/%D7%94%D7%A1%D7%98%D7%99%D7%9C-%D7%A1%D7%95%D7%A4%D7%94,,,,,,,8577535117,node,"{""historic"": ""wreck"", ""image"": ""https://upload.wikimedia.org/wikipedia/commons/b/b0/IHM_\u05d0\u05ea\u05e8_\u05e6\u05dc\u05d9\u05dc\u05d4_-\u05e1\u05d8\u05d9\""\u05dc_(24_\u05de\u05d8\u05e8).jpeg"", ""image1"": ""https://upload.wikimedia.org/wikipedia/commons/f/f4/IHM_\u05d0\u05ea\u05e8_\u05e6\u05dc\u05d9\u05dc\u05d4_-\u05e1\u05d8\u05d9\""\u05dc_(24_\u05de\u05d8\u05e8)_1.jpeg"", ""image2"": ""https://upload.wikimedia.org/wikipedia/commons/2/2f/IHM_\u05d0\u05ea\u05e8_\u05e6\u05dc\u05d9\u05dc\u05d4_-\u05e1\u05d8\u05d9\""\u05dc_(24_\u05de\u05d8\u05e8)_2.jpeg"", ""image3"": ""https://upload.wikimedia.org/wikipedia/commons/e/eb/IHM_\u05d0\u05ea\u05e8_\u05e6\u05dc\u05d9\u05dc\u05d4_-\u05e1\u05d8\u05d9\""\u05dc_(24_\u05de\u05d8\u05e8)_3.jpeg"", ""image4"": ""https://upload.wikimedia.org/wikipedia/commons/b/b0/IHM_\u05d0\u05ea\u05e8_\u05e6\u05dc\u05d9\u05dc\u05d4_-\u05e1\u05d8\u05d9\""\u05dc_(24_\u05de\u05d8\u05e8).jpeg"", ""image5"": ""https://upload.wikimedia.org/wikipedia/commons/f/f4/IHM_\u05d0\u05ea\u05e8_\u05e6\u05dc\u05d9\u05dc\u05d4_-\u05e1\u05d8\u05d9\""\u05dc_(24_\u05de\u05d8\u05e8)_1.jpeg"", ""image6"": ""https://upload.wikimedia.org/wikipedia/commons/2/2f/IHM_\u05d0\u05ea\u05e8_\u05e6\u05dc\u05d9\u05dc\u05d4_-\u05e1\u05d8\u05d9\""\u05dc_(24_\u05de\u05d8\u05e8)_2.jpeg"", ""image7"": ""https://upload.wikimedia.org/wikipedia/commons/e/eb/IHM_\u05d0\u05ea\u05e8_\u05e6\u05dc\u05d9\u05dc\u05d4_-\u05e1\u05d8\u05d9\""\u05dc_(24_\u05de\u05d8\u05e8)_3.jpeg"", ""name"": ""\u05d0\u05ea\u05e8 \u05e6\u05dc\u05d9\u05dc\u05d4 -\u05e1\u05d8\u05d9\""\u05dc (24 \u05de\u05d8\u05e8)"", ""name:he"": ""\u05d0\u05ea\u05e8 \u05e6\u05dc\u05d9\u05dc\u05d4 -\u05e1\u05d8\u05d9\""\u05dc (24 \u05de\u05d8\u05e8)"", ""seamark:type"": ""wreck"", ""sport"": ""scuba_diving"", ""tourism"": ""attraction"", ""website"": ""https://www.diving.org.il/%D7%94%D7%A1%D7%98%D7%99%D7%9C-%D7%A1%D7%95%D7%A4%D7%94""}"
Ras Za'atar,,27.7644345,34.2557039,,,,,,,,,,,9230615505,node,"{""name"": ""Ras Za'atar"", ""sport"": ""scuba_diving""}"
Shark Observatory,,27.7310555,34.2597859,,,,,,,,,,,9230671030,node,"{""name"": ""Shark Observatory"", ""scuba_diving:entry:boat"": ""yes"", ""sport"": ""scuba_diving"", ""tourism"": ""attraction""}"
Ras Nasrani,,27.9635263,34.4185241,,,,,,,,,,,9235927141,node,"{""name"": ""Ras Nasrani"", ""sport"": ""scuba_diving""}"
Habili Ali,,23.3994861,35.984371,,,,,,,,,,,9720942896,node,"{""name"": ""Habili Ali"", ""sport"": ""scuba_diving""}"
Shark's Bay,,27.9504099,34.3861399,,,,,,,,,,,10095632788,node,"{""name"": ""Shark's Bay"", ""scuba_diving:type"": ""reef"", ""sport"": ""scuba_diving""}"
Barakuda Lahami Bay,,24.2058656,35.4281131,,,,https://barakuda-diving.com/lahami-bay-dive-center/?lang=en,+2 010 000 91 292,lahamibay@barakuda-diving.com,,,,,10247964818,node,"{""amenity"": ""dive_centre"", ""email"": ""lahamibay@barakuda-diving.com"", ""name"": ""Barakuda Lahami Bay"", ""operator"": ""Barakuda Diving Team"", ""phone"": ""+2 010 000 91 292"", ""sport"": ""scuba_diving"", ""website"": ""https://barakuda-diving.com/lahami-bay-dive-center/?lang=en""}"
Novotel House Reef,,25.9540108,34.3817107,,,,,,,,,,,11082801709,node,"{""name"": ""Novotel House Reef"", ""natural"": ""reef"", ""sport"": ""scuba_diving""}"
Sachua Abu Galawa,,27.325622,33.795697,,,,,,,,,,,11093005830,node,"{""name"": ""Sachua Abu Galawa"", ""scuba_diving:depth"": ""13"", ""scuba_diving:difficulty"": ""1"", ""scuba_diving:entry"": ""boat"", ""scuba_diving:maxdepth"": ""26"", ""scuba_diving:type"": ""reef"", ""sport"": ""scuba_diving""}"
Jotao Abu Galawa,,27.31424,33.810292,,,,,,,,,,,11093005831,node,"{""name"": ""Jotao Abu Galawa"", ""scuba_diving:depth"": ""8"", ""scuba_diving:difficulty"": ""1"", ""scuba_diving:entry"": ""boat"", ""scuba_diving:maxdepth"": ""11"", ""scuba_diving:type"": ""reef"", ""sport"": ""scuba_diving""}"
El Fanadir West,,27.299403,33.83123,,,,,,,,,,,11093005833,node,"{""name"": ""El Fanadir West"", ""scuba_diving:depth"": ""11"", ""scuba_diving:difficulty"": ""1"", ""scuba_diving:entry"": ""boat"", ""scuba_diving:maxdepth"": ""30"", ""scuba_diving:type"": ""reef"", ""sport"": ""scuba_diving""}"
Sha'ab El Erg,,27.4128906,33.8560438,,,,,,,,,,,11238324660,node,"{""name"": ""Sha'ab El Erg"", ""natural"": ""reef"", ""sport"": ""scuba_diving""}"
Abu Fendira,,23.661742,35.6964683,,,,,,,,,,,11271483160,node,"{""alt_name"": ""Abu Fendera;Abu Fandira"", ""fixme"": ""Approximative position"", ""name"": ""Abu Fendira"", ""scuba_diving:type"": ""reef"", ""sport"": ""scuba_diving""}"
Habili Omran,,23.515712,35.8143568,,,,,,,,,,,11271483280,node,"{""fixme"": ""Approximative position"", ""name"": ""Habili Omran"", ""scuba_diving:type"": ""reef"", ""sport"": ""scuba_diving""}"
Legend,,25.072444,34.9373952,,,,,,,,,,,11331356919,node,"{""historic"": ""wreck"", ""name"": ""Legend"", ""scuba_diving:divespot"": ""yes"", ""scuba_diving:entry"": ""boat"", ""scuba_diving:type"": ""wreck"", ""seamark:type"": ""wreck"", ""sport"": ""scuba_diving"", ""wreck:date_sunk"": ""2002-10-17""}"
Heaven,,25.3468646,34.7767845,,,,,,,,,,,11331356920,node,"{""name"": ""Heaven"", ""scuba_diving:type"": ""wreck"", ""sport"": ""scuba_diving"", ""wreck:date_sunk"": ""2003""}"
Farsha Ergein Farayed,,23.6333197,35.8874845,,,,,,,,25,,,11332084442,node,"{""alt_name"": ""Sha'ab Hamada"", ""depth"": ""25"", ""fixme"": ""very approximative localization to correct (invisible on aerials)"", ""leisure"": ""pitch"", ""name"": ""Farsha Ergein Farayed"", ""scuba_diving:type"": ""reef"", ""sport"": ""scuba_diving""}"
Marsa Nakari South reef,,24.9262582,34.9635606,,,,,,,,,,,12754199512,node,"{""name"": ""Marsa Nakari South reef"", ""scuba_diving:divespot"": ""yes"", ""sport"": ""scuba_diving""}"
Marsa Nakari North reef,,24.9278382,34.9629789,,,,,,,,,,,12754199513,node,"{""name"": ""Marsa Nakari North reef"", ""scuba_diving:divespot"": ""yes"", ""sport"": ""scuba_diving""}"
شعب توماس,,27.9927336,34.4600961,,,,,,,,,,,23185890,way,"{""name"": ""\u0634\u0639\u0628 \u062a\u0648\u0645\u0627\u0633"", ""name:ar"": ""\u0634\u0639\u0628 \u062a\u0648\u0645\u0627\u0633"", ""name:de"": ""Thomas-Riff"", ""name:en"": ""Thomas Reef"", ""natural"": ""reef"", ""reef"": ""coral"", ""source"": ""landsat"", ""sport"": ""scuba_diving"", ""wikidata"": ""Q14221722""}"
شعب وودهاوس,,28.0012225,34.4649921,,,,,,,,,,,23185891,way,"{""name"": ""\u0634\u0639\u0628 \u0648\u0648\u062f\u0647\u0627\u0648\u0633"", ""name:ar"": ""\u0634\u0639\u0628 \u0648\u0648\u062f\u0647\u0627\u0648\u0633"", ""name:de"": ""Woodhouse-Riff"", ""name:en"": ""Woodhouse Reef"", ""natural"": ""reef"", ""reef"": ""coral"", ""source"": ""landsat"", ""sport"": ""scuba_diving"", ""wikidata"": ""Q14223403""}"
شعب جاكسون,,28.008815,34.4731592,,,,,,,,,,,23185893,way,"{""name"": ""\u0634\u0639\u0628 \u062c\u0627\u0643\u0633\u0648\u0646"", ""name:ar"": ""\u0634\u0639\u0628 \u062c\u0627\u0643\u0633\u0648\u0646"", ""name:de"": ""Jackson-Riff"", ""name:en"": ""Jackson Reef"", ""name:ru"": ""\u0440\u0438\u0444 \u0414\u0436\u0435\u043a\u0441\u043e\u043d"", ""natural"": ""reef"", ""reef"": ""coral"", ""source"": ""landsat"", ""sport"": ""scuba_diving"", ""wikidata"": ""Q14212223""}"
Confined Water Training Area,,28.4988382,34.5193681,,,,,,,,,,,41848234,way,"{""area"": ""yes"", ""name"": ""Confined Water Training Area"", ""sport"": ""scuba_diving""}"
Ducks Diving,,25.8716479,34.4185921,,,,https://www.ducks-quesier.de/index.php,,,,,,,91895351,way,"{""building"": ""yes"", ""building:levels"": ""1"", ""name"": ""Ducks Diving"", ""sport"": ""scuba_diving"", ""website"": ""https://www.ducks-quesier.de/index.php""}"
Extra Divers,,26.1569969,34.2448279,,,,http://www.extradivers-worldwide.com,,,,,,,91907069,way,"{""amenity"": ""dive_centre"", ""check_date"": ""2025-04-13"", ""name"": ""Extra Divers"", ""opening_hours"": ""06:00-18:00"", ""source"": ""Bing Maps"", ""sport"": ""scuba_diving"", ""website"": ""http://www.extradivers-worldwide.com""}"
Shaab Sharm,,24.7885272,35.1787788,,,,,,,,,,,91978564,way,"{""alt_name"": ""Gota Sharm"", ""name"": ""Shaab Sharm"", ""natural"": ""reef"", ""reef"": ""coral"", ""scuba_diving:divespot"": ""yes"", ""scuba_diving:entry"": ""boat"", ""sport"": ""scuba_diving""}"
Diving.de Akassia,,25.9145224,34.4051415,,,,,,,,,,,135984676,way,"{""building"": ""yes"", ""name"": ""Diving.de Akassia"", ""source"": ""Bing"", ""sport"": ""scuba_diving""}"
Diving Medicine Center,,26.7558613,33.9416232,,,,,,,,,,,137670145,way,"{""building"": ""yes"", ""description:en"": ""Decompression chamber DECO International"", ""description:fr"": ""Caisson de d\u00e9compression DECO International"", ""healthcare"": ""hyperbaric_chamber"", ""hyperbaric_chamber:diameter"": ""2"", ""hyperbaric_chamber:length"": ""4.75"", ""hyperbaric_chamber:maxpressure"": ""6"", ""hyperbaric_chamber:places"": ""6"", ""hyperbaric_chamber:scuba_diving"": ""yes"", ""name"": ""Diving Medicine Center"", ""operator"": ""DECO International"", ""phone:EG:mobile"": ""+20 122 174 1533;+20 122 219 0383"", ""scuba_diving:emergency"": ""yes"", ""sport"": ""scuba_diving""}"
الإسم العربي ؟,,26.7070044,34.1001445,,,,,,,,,,,197754185,way,"{""name"": ""\u0627\u0644\u0625\u0633\u0645 \u0627\u0644\u0639\u0631\u0628\u064a \u061f"", ""name:ar"": ""\u0627\u0644\u0625\u0633\u0645 \u0627\u0644\u0639\u0631\u0628\u064a \u061f"", ""name:en"": ""Middle Reef"", ""natural"": ""reef"", ""reef"": ""coral"", ""scuba_diving:divespot"": ""yes"", ""sport"": ""scuba_diving"", ""subsea"": ""reef""}"
Abu Kafan,,26.6556512,34.1076488,,,,,,,,,,,197754187,way,"{""alt_name"": ""Abu Kefan"", ""name"": ""Abu Kafan"", ""natural"": ""reef"", ""scuba_diving:divespot"": ""yes"", ""scuba_diving:entry"": ""boat"", ""sport"": ""scuba_diving"", ""subsea"": ""reef""}"
Panorama Reef,,26.7529844,34.0800887,,,,,,,,,,,197754194,way,"{""int_name"": ""Panorama Reef"", ""name"": ""Panorama Reef"", ""name:ar"": ""\u0627\u0644\u0625\u0633\u0645 \u0627\u0644\u0639\u0631\u0628\u064a \u061f"", ""natural"": ""reef"", ""scuba_diving:divespot"": ""yes"", ""sport"": ""scuba_diving"", ""sub_sea"": ""reef""}"
Abu Dabbab Ithnain,,25.3481926,34.7766537,,,,,,,,,,,307508334,way,"{""alt_name"": ""Abu Dabbab 2"", ""name"": ""Abu Dabbab Ithnain"", ""natural"": ""reef"", ""sport"": ""scuba_diving"", ""subsea"": ""reef"", ""wikidata"": ""Q108884574""}"
Abu Dabbab Thalata,,25.346402,34.7775606,,,,,,,,,,,307508338,way,"{""alt_name"": ""Recif Abu Dabbab 3"", ""name"": ""Abu Dabbab Thalata"", ""natural"": ""reef"", ""sport"": ""scuba_diving"", ""subsea"": ""reef"", ""wikidata"": ""Q108884583""}"
Sharm El Lole Camp,,26.0221419,34.3238777,,,,,,,,,,,318260619,way,"{""name"": ""Sharm El Lole Camp"", ""sport"": ""scuba_diving"", ""tourism"": ""camp_site""}"
Marina Divers,,29.5147484,34.926175,,,,,,,,,,,370491416,way,"{""amenity"": ""dive_centre"", ""building"": ""yes"", ""name"": ""Marina Divers"", ""name:en"": ""Marina Divers"", ""sport"": ""scuba_diving""}"
جيرة ديدلاس,,24.9348279,35.8681459,,,,,,,,,,,374758292,way,"{""alt_name"": ""Abu el Kiz\u00e2n"", ""int_name"": ""Didalas Reef;Daedalus Reef;Jairat Didalas"", ""loc_name"": ""Abu Kizan"", ""name"": ""\u062c\u064a\u0631\u0629 \u062f\u064a\u062f\u0644\u0627\u0633"", ""name:ar"": ""\u062c\u064a\u0631\u0629 \u062f\u064a\u062f\u0644\u0627\u0633"", ""name:de"": ""Daedalus Riff"", ""name:en"": ""Daedalus Reef"", ""name:fr"": ""Daedalus Reef"", ""natural"": ""reef"", ""reef"": ""coral"", ""scuba_diving:divespot"": ""yes"", ""scuba_diving:entry"": ""boat"", ""scuba_diving:type"": ""wall"", ""sport"": ""scuba_diving"", ""wikidata"": ""Q15212511"", ""wikipedia"": ""en:Daedalus Reef""}"
Elphinstone Reef,,25.3093037,34.8607108,,,,,,,,,,,644356549,way,"{""alt_name"": ""Shabrour Shagra"", ""int_name"": ""Abu Hamra"", ""name"": ""Elphinstone Reef"", ""name:de"": ""Elphinstone-Riff"", ""name:en"": ""Elphinstone Reef"", ""name:fr"": ""R\u00e9cif d'Elphinstone"", ""natural"": ""reef"", ""scuba_diving:divespot"": ""yes"", ""sport"": ""scuba_diving"", ""wikidata"": ""Q1333272"", ""wikipedia"": ""de:Elphinstone-Riff""}"
Marsa Shagra - Diving Shade,air_tanks;gear_lockers;nitox_tanks;scuba_gear_drying_hangers;scuba_gear_washing_tanks;showers;tanks,25.2449787,34.7945167,,,,,,,,,,,674592475,way,"{""amenity"": ""dive_centre"", ""building"": ""roof"", ""description"": ""air_tanks;gear_lockers;nitox_tanks;scuba_gear_drying_hangers;scuba_gear_washing_tanks;showers;tanks"", ""name"": ""Marsa Shagra - Diving Shade"", ""operator"": ""Red Sea Diving Safari"", ""scuba_diving:air_filling"": ""yes"", ""scuba_diving:courses"": ""yes"", ""scuba_diving:filling"": ""yes"", ""scuba_diving:nitrox_filling"": ""yes"", ""scuba_diving:rental"": ""yes"", ""sport"": ""scuba_diving""}"
Red Sea Diving Safari - Wadi Lahami,,24.2161287,35.4257354,,,,https://www.redsea-divingsafari.com/diving/wadi-lahami,,,,,,,677218452,way,"{""building"": ""yes"", ""leisure"": ""resort"", ""name"": ""Red Sea Diving Safari - Wadi Lahami"", ""sport"": ""scuba_diving"", ""website"": ""https://www.redsea-divingsafari.com/diving/wadi-lahami""}"
Fandera Hemera,,23.3864466,35.7560084,,,,,,,,,,,1062701168,way,"{""name"": ""Fandera Hemera"", ""natural"": ""reef"", ""scuba_diving:type"": ""reef"", ""sport"": ""scuba_diving""}"
Paradise Divers,,26.7959108,33.9412876,,,,https://www.safaga-paradise.de/,+201068056464,info@safaga-paradise.de,,,,,1175864170,way,"{""amenity"": ""dive_centre"", ""building"": ""yes"", ""email"": ""info@safaga-paradise.de"", ""name"": ""Paradise Divers"", ""operator"": ""Volkert"", ""phone"": ""+201068056464"", ""sport"": ""scuba_diving"", ""website"": ""https://www.safaga-paradise.de/""}"
St John's Small Gota,,23.4295735,35.9033203,,,,,,,,,,,1213850349,way,"{""alt_name"": ""Gota Soraya"", ""name"": ""St John's Small Gota"", ""natural"": ""reef"", ""reef"": ""coral"", ""scuba_diving:divespot"": ""yes"", ""scuba_diving:entry"": ""boat"", ""sport"": ""scuba_diving""}"
Habili Ali,,23.4175138,35.9872198,,,,,,,,,,,1213850350,way,"{""alt_name"": ""Shark Point"", ""name"": ""Habili Ali"", ""natural"": ""reef"", ""reef"": ""coral"", ""scuba_diving:divespot"": ""yes"", ""scuba_diving:entry"": ""boat"", ""sport"": ""scuba_diving""}"
St John's Gota Kebir,,23.4146981,35.9306143,,,,,,,,,,,1213850351,way,"{""name"": ""St John's Gota Kebir"", ""natural"": ""reef"", ""reef"": ""coral"", ""scuba_diving:divespot"": ""yes"", ""scuba_diving:entry"": ""boat"", ""sport"": ""scuba_diving""}"
Gotta Hemera,,23.4120497,35.7029484,,,,,,,,,,,1216458194,way,"{""name"": ""Gotta Hemera"", ""natural"": ""reef"", ""scuba_diving:type"": ""reef"", ""sport"": ""scuba_diving""}"
Abu Dabbab Wahid,,25.3475966,34.7723284,,,,,,,,,,,1221542877,way,"{""alt_name"": ""Abu Dabbab 1"", ""name"": ""Abu Dabbab Wahid"", ""natural"": ""reef"", ""sport"": ""scuba_diving"", ""wikidata"": ""Q108884558""}"
جولد ستارز دايفنج سنتر,,27.9418858,34.3858197,,,,,,,,,,,1230789440,way,"{""amenity"": ""dive_centre"", ""building"": ""yes"", ""name"": ""\u062c\u0648\u0644\u062f \u0633\u062a\u0627\u0631\u0632 \u062f\u0627\u064a\u0641\u0646\u062c \u0633\u0646\u062a\u0631"", ""name:ar"": ""\u062c\u0648\u0644\u062f \u0633\u062a\u0627\u0631\u0632 \u062f\u0627\u064a\u0641\u0646\u062c \u0633\u0646\u062a\u0631"", ""name:en"": ""Gold Stars Diving Center"", ""operator"": ""Sunrise Arabian Beach Resort"", ""sport"": ""scuba_diving""}"
"Lagona Divers, Dahab North",,28.5519543,34.5181376,,,,,,,,,,,1247686915,way,"{""amenity"": ""dive_centre"", ""name"": ""Lagona Divers, Dahab North"", ""sport"": ""scuba_diving""}"
Safaga Soraya,,26.7740091,33.9924096,,,,,,,,,,,1396277160,way,"{""name"": ""Safaga Soraya"", ""natural"": ""reef"", ""reef"": ""coral"", ""scuba_diving:divespot"": ""yes"", ""scuba_diving:entry"": ""boat"", ""sport"": ""scuba_diving""}"
Dimensions Bleues-Ducks,,26.7977954,33.942548,,,,https://dimensionsbleues-ducks.com/,,,,,,,1396277161,way,"{""alt_name"": ""Ducks Diving Safaga;Dimensions Bleues"", ""amenity"": ""dive_centre"", ""building"": ""yes"", ""name"": ""Dimensions Bleues-Ducks"", ""scuba_diving:air_filling"": ""yes"", ""scuba_diving:courses"": ""yes"", ""scuba_diving:nitrox_filling"": ""yes"", ""scuba_diving:organization"": ""PADI"", ""sport"": ""scuba_diving"", ""website"": ""https://dimensionsbleues-ducks.com/""}"
Shaab Sheer Soraya,,26.6434815,34.0496239,,,,,,,,,,,1396426964,way,"{""name"": ""Shaab Sheer Soraya"", ""natural"": ""reef"", ""reef"": ""coral"", ""scuba_diving:divespot"": ""yes"", ""scuba_diving:entry"": ""boat"", ""sport"": ""scuba_diving""}"
Shaab Hamdallah,,26.6300218,34.0612306,,,,,,,,,,,1396426968,way,"{""name"": ""Shaab Hamdallah"", ""natural"": ""reef"", ""reef"": ""coral"", ""scuba_diving:divespot"": ""yes"", ""scuba_diving:entry"": ""boat"", ""sport"": ""scuba_diving""}"
St John's Um Arouk,,23.4310407,35.8645841,,,,,,,,,,multipolygon,16660674,relation,"{""alt_name"": ""Um Arouk;Um Erug"", ""name"": ""St John's Um Arouk"", ""natural"": ""reef"", ""reef"": ""coral"", ""scuba_diving:divespot"": ""yes"", ""scuba_diving:entry"": ""boat"", ""sport"": ""scuba_diving"", ""type"": ""multipolygon""}"
Abu Bassala,,23.3878184,35.8109352,,,,,,,,,,multipolygon,16662755,relation,"{""name"": ""Abu Bassala"", ""natural"": ""reef"", ""scuba_diving:type"": ""reef"", ""sport"": ""scuba_diving"", ""type"": ""multipolygon""}"
Alternatives,,27.7311529,34.1968345,,,,,,,,,,site,16662982,relation,"{""name"": ""Alternatives"", ""scuba_diving:type"": ""reef"", ""sport"": ""scuba_diving"", ""type"": ""site""}"
Farewell Reef,,24.2108294,35.558871,,,,,,,,,,site,16663971,relation,"{""alt_name"": ""Shaab Malkout"", ""name"": ""Farewell Reef"", ""scuba_diving:type"": ""reef"", ""sport"": ""scuba_diving"", ""type"": ""site""}"
Gamul Soraya,,26.7958246,33.992026,,,,,,,,,,multipolygon,19266049,relation,"{""name"": ""Gamul Soraya"", ""natural"": ""reef"", ""reef"": ""coral"", ""scuba_diving:divespot"": ""yes"", ""scuba_diving:entry"": ""boat"", ""sport"": ""scuba_diving"", ""type"": ""multipolygon""}"
Tobia Soraya,,26.8050512,33.9943083,,,,,,,,,,multipolygon,19266139,relation,"{""name"": ""Tobia Soraya"", ""natural"": ""reef"", ""reef"": ""coral"", ""scuba_diving:divespot"": ""yes"", ""scuba_diving:entry"": ""boat"", ""sport"": ""scuba_diving"", ""type"": ""multipolygon""}"
Tobia Kebir,,26.8103188,33.9950932,,,,,,,,,,multipolygon,19266140,relation,"{""name"": ""Tobia Kebir"", ""natural"": ""reef"", ""reef"": ""coral"", ""scuba_diving:divespot"": ""yes"", ""scuba_diving:entry"": ""boat"", ""sport"": ""scuba_diving"", ""type"": ""multipolygon""}"
Gamul Kebir,,26.7864131,33.9871618,,,,,,,,,,multipolygon,19266162,relation,"{""name"": ""Gamul Kebir"", ""natural"": ""reef"", ""reef"": ""coral"", ""scuba_diving:divespot"": ""yes"", ""scuba_diving:entry"": ""boat"", ""sport"": ""scuba_diving"", ""type"": ""multipolygon""}"
Tobia Araba,,26.8366775,33.9913097,,,,,,,,,,multipolygon,19266688,relation,"{""name"": ""Tobia Araba"", ""natural"": ""reef"", ""reef"": ""coral"", ""scuba_diving:divespot"": ""yes"", ""scuba_diving:entry"": ""boat"", ""sport"": ""scuba_diving"", ""type"": ""multipolygon""}"
Shaab Sheer,,26.6573803,34.0487575,,,,,,,,,,multipolygon,19266689,relation,"{""name"": ""Shaab Sheer"", ""name:eg"": ""Shoab Sheer"", ""natural"": ""reef"", ""reef"": ""coral"", ""scuba_diving:divespot"": ""yes"", ""scuba_diving:entry"": ""boat"", ""sport"": ""scuba_diving"", ""type"": ""multipolygon""}"
Shaab Claude,,26.6515025,34.0635483,,,,,,,,,,multipolygon,19266690,relation,"{""name"": ""Shaab Claude"", ""natural"": ""reef"", ""reef"": ""coral"", ""scuba_diving:divespot"": ""yes"", ""scuba_diving:entry"": ""boat"", ""sport"": ""scuba_diving"", ""type"": ""multipolygon""}"
الإسم العربي ؟,,26.6568311,33.9912338,,,,,,,,,,multipolygon,19266691,relation,"{""alt_name"": ""Shaab Bagul"", ""name"": ""\u0627\u0644\u0625\u0633\u0645 \u0627\u0644\u0639\u0631\u0628\u064a \u061f"", ""name:ar"": ""\u0627\u0644\u0625\u0633\u0645 \u0627\u0644\u0639\u0631\u0628\u064a \u061f"", ""name:en"": ""Cannon Reef"", ""name:fr"": ""Cannon Reef"", ""natural"": ""reef"", ""reef"": ""coral"", ""scuba_diving:divespot"": ""yes"", ""scuba_diving:entry"": ""boat"", ""sport"": ""scuba_diving"", ""type"": ""multipolygon"", ""wikidata"": ""Q23952048"", ""wikipedia"": ""ceb:Cannon Reef""}"
Shaab Marsa Alam,,25.0742697,34.9357909,,,,,,,,,,multipolygon,19269583,relation,"{""name"": ""Shaab Marsa Alam"", ""natural"": ""reef"", ""reef"": ""coral"", ""scuba_diving:divespot"": ""yes"", ""scuba_diving:entry"": ""boat"", ""sport"": ""scuba_diving"", ""subsea"": ""reef"", ""type"": ""multipolygon"", ""wikidata"": ""Q108898080""}"
Paradise Reef,,23.6284921,35.8220587,,,,,,,,,,multipolygon,19269652,relation,"{""alt_name"": ""Orabi"", ""name"": ""Paradise Reef"", ""natural"": ""reef"", ""reef"": ""coral"", ""scuba_diving:divespot"": ""yes"", ""scuba_diving:entry"": ""boat"", ""sport"": ""scuba_diving"", ""type"": ""multipolygon""}"
