name,description,lat,lon,country,region,city,website,phone,email,difficulty,max_depth,entry_type,site_type,osm_id,osm_type,tags
Wassersportzentrum Zürich (WZT),,47.3459602,8.5634754,,,,http://www.dive-links.com/tauchplatz.php?id=2620,,,,,,,76474160,node,"{""alt_name"": ""WZT"", ""name"": ""Wassersportzentrum Z\u00fcrich (WZT)"", ""scuba_diving:access_easyness"": ""1"", ""scuba_diving:dangers"": ""ship,obstacles"", ""scuba_diving:depth"": ""8,24"", ""scuba_diving:difficulty"": ""1"", ""scuba_diving:entry"": ""shore"", ""scuba_diving:entry:stair"": ""yes"", ""scuba_diving:platform"": ""8"", ""scuba_diving:type"": ""training;attraction"", ""scuba_diving:type:attraction"": ""yes"", ""scuba_diving:type:ooze"": ""yes"", ""scuba_diving:type:training"": ""yes"", ""scuba_diving:type:wreck"": ""yes"", ""sport"": ""scuba_diving"", ""website"": ""http://www.dive-links.com/tauchplatz.php?id=2620""}"
Steinrad,,47.2914183,8.600592,,,,http://www.dive-links.com/tauchplatz.php?id=2572,,,,,,,107455894,node,"{""alt_name"": ""Seeterasse"", ""name"": ""Steinrad"", ""scuba_diving:dangers"": ""depth"", ""scuba_diving:depth"": ""36"", ""scuba_diving:difficulty"": ""2"", ""scuba_diving:entry"": ""shore"", ""scuba_diving:type"": ""wall"", ""sport"": ""scuba_diving"", ""website"": ""http://www.dive-links.com/tauchplatz.php?id=2572""}"
WZT;Luftverbund,,47.3471382,8.5624224,,,,,,,,,,,107469050,node,"{""amenity"": ""compressed_air"", ""name"": ""WZT;Luftverbund"", ""sport"": ""scuba_diving""}"
Kleiner Parkplatz Erlenbach Schipfe,,47.2940307,8.5981208,,,,http://www.dive-links.com/tauchplatz.php?id=2582,,,,,,,107474583,node,"{""name"": ""Kleiner Parkplatz Erlenbach Schipfe"", ""scuba_diving:dangers"": ""depth"", ""scuba_diving:depth"": ""35"", ""scuba_diving:difficulty"": ""2"", ""scuba_diving:entry"": ""stair"", ""scuba_diving:type"": ""wall"", ""sport"": ""scuba_diving"", ""website"": ""http://www.dive-links.com/tauchplatz.php?id=2582""}"
Ermitage,,47.3220766,8.5768045,,,,http://www.dive-links.com/tauchplatz.php?id=2577,,,,,,,207937370,node,"{""name"": ""Ermitage"", ""scuba_diving:dangers"": ""obstacles"", ""scuba_diving:depth"": ""15;30"", ""scuba_diving:difficulty"": ""1"", ""scuba_diving:entry"": ""shore"", ""scuba_diving:type"": ""attraction;biology"", ""sport"": ""scuba_diving"", ""website"": ""http://www.dive-links.com/tauchplatz.php?id=2577""}"
Riff Williams,,47.2848478,8.6084105,,,,http://www.dive-links.com/tauchplatz.php?id=2601,,,,,,,241788315,node,"{""name"": ""Riff Williams"", ""scuba_diving:depth"": ""30"", ""scuba_diving:difficulty"": ""2"", ""scuba_diving:entry"": ""ladder"", ""sport"": ""scuba_diving"", ""website"": ""http://www.dive-links.com/tauchplatz.php?id=2601""}"
Brechtsee,,49.2177202,8.4047528,DE,,,,,,,,,,291209539,node,"{""addr:country"": ""DE"", ""name"": ""Brechtsee"", ""sport"": ""scuba_diving""}"
Taucherkiste Freiburg,,48.0643717,7.8150303,,,,,,,,,,,310181002,node,"{""amenity"": ""compressed_air"", ""name"": ""Taucherkiste Freiburg"", ""sport"": ""scuba_diving""}"
Les Joyeux Corsaires,,45.9817397,-1.3928517,,,,,,,,,,,322672765,node,"{""name"": ""Les Joyeux Corsaires"", ""sport"": ""scuba_diving""}"
Bocchiaplatz,,47.2932113,8.5989117,,,,http://www.dive-links.com/tauchplatz.php?id=2569,,,,,,,344403290,node,"{""name"": ""Bocchiaplatz"", ""scuba_diving:dangers"": ""depth"", ""scuba_diving:depth"": ""35"", ""scuba_diving:difficulty"": ""2"", ""scuba_diving:entry"": ""shore"", ""scuba_diving:type"": ""wall,attraction"", ""sport"": ""scuba_diving"", ""website"": ""http://www.dive-links.com/tauchplatz.php?id=2569""}"
SC WÖRTH Taucher,,49.0895026,8.2928303,,,,,,,,,,,344865782,node,"{""name"": ""SC W\u00d6RTH Taucher"", ""sport"": ""scuba_diving""}"
Basis am Blausteinsee,,50.853654,6.2660855,,,,,,,,,,,369967877,node,"{""amenity"": ""dive_centre"", ""name"": ""Basis am Blausteinsee"", ""sport"": ""scuba_diving""}"
Terlinden,,47.3289869,8.5728282,,,,http://www.dive-links.com/tauchplatz.php?id=2616,,,,,,,371470562,node,"{""name"": ""Terlinden"", ""scuba_diving:access_easyness"": ""1"", ""scuba_diving:dangers:depth"": ""yes"", ""scuba_diving:dangers:ship"": ""yes"", ""scuba_diving:depth"": ""40"", ""scuba_diving:difficulty"": ""3"", ""scuba_diving:entry"": ""ladder"", ""scuba_diving:entry:ladder"": ""yes"", ""scuba_diving:type:attraction"": ""yes"", ""scuba_diving:type:deep"": ""yes"", ""scuba_diving:type:wall"": ""yes"", ""sport"": ""scuba_diving"", ""website"": ""http://www.dive-links.com/tauchplatz.php?id=2616""}"
Outer Mulberry,Accuracy only about 100m,50.7451906,-0.7043666,,,,,,,,,,,379613894,node,"{""historic"": ""wreck"", ""name"": ""Outer Mulberry"", ""note"": ""Accuracy only about 100m"", ""seamark:type"": ""wreck"", ""source"": ""gps"", ""sport"": ""scuba_diving""}"
See Widdauen 2,,51.0835344,6.9459334,,,,,,,,,,,428839098,node,"{""access"": ""private"", ""leisure"": ""pitch"", ""name"": ""See Widdauen 2"", ""sport"": ""scuba_diving""}"
Pumpwerk Moos,,47.302825,8.5611346,,,,http://www.dive-links.com/tauchplatz.php?id=2597,,,,,,,471207418,node,"{""alt_name"": ""R\u00fcschlikon Marbach"", ""name"": ""Pumpwerk Moos"", ""scuba_diving:depth"": ""32"", ""scuba_diving:difficulty"": ""1"", ""scuba_diving:entry"": ""steps"", ""scuba_diving:type"": ""biology"", ""sport"": ""scuba_diving"", ""website"": ""http://www.dive-links.com/tauchplatz.php?id=2597""}"
Lopper 1,,46.9789051,8.3222832,,,,http://www.dive-links.com/tauchplatz.php?id=1963,,,,,,,476791890,node,"{""ele"": ""435.359497"", ""name"": ""Lopper 1"", ""scuba_diving:dangers"": ""depth"", ""scuba_diving:depth"": ""30"", ""scuba_diving:difficulty"": ""2"", ""scuba_diving:entry"": ""steps"", ""scuba_diving:type"": ""rock;deep;wall"", ""sport"": ""scuba_diving"", ""website"": ""http://www.dive-links.com/tauchplatz.php?id=1963""}"
Düsseldorfer Tauchverband,Gelände des Düsseldorfer Tauchverbandes mit Zugang zum Elbsee für Taucher,51.1821324,6.909428,,,,,,,,,,,514558983,node,"{""club"": ""sport"", ""contact:website"": ""http://dtv-ev.de"", ""description"": ""Gel\u00e4nde des D\u00fcsseldorfer Tauchverbandes mit Zugang zum Elbsee f\u00fcr Taucher"", ""name"": ""D\u00fcsseldorfer Tauchverband"", ""scuba_diving:attraction:biology"": ""yes"", ""scuba_diving:dangers:surfers"": ""yes"", ""scuba_diving:entry:stair"": ""yes"", ""scuba_diving:maxdepth"": ""23m"", ""scuba_diving:type:lake"": ""yes"", ""short_name"": ""DTV"", ""sport"": ""scuba_diving"", ""wheelchair"": ""yes""}"
La Graule Subaquatique,,46.4357615,1.9008211,,,,http://subaquatique-club-saranais.com/lagraule.html,,,,,,,521836264,node,"{""leisure"": ""sports_centre"", ""name"": ""La Graule Subaquatique"", ""sport"": ""scuba_diving"", ""url"": ""http://subaquatique-club-saranais.com/lagraule.html""}"
Berry Plongée,,47.2259421,2.0751623,,,,,,,,,,,530563260,node,"{""name"": ""Berry Plong\u00e9e"", ""sport"": ""scuba_diving""}"
Beckenried Rütenen Einstieg 1,Einstieg 1,46.9636173,8.5094553,,,,http://www.dive-links.com/tauchplatz.php?id=1962,,,,,,,613742457,node,"{""name"": ""Beckenried R\u00fctenen Einstieg 1"", ""note"": ""Einstieg 1"", ""scuba_diving:dangers"": ""depth"", ""scuba_diving:depth"": ""35"", ""scuba_diving:difficulty"": ""2"", ""scuba_diving:entry"": ""steps"", ""scuba_diving:maxdepth"": "">50"", ""scuba_diving:type"": ""wall;attraction;deep"", ""sport"": ""scuba_diving"", ""website"": ""http://www.dive-links.com/tauchplatz.php?id=1962""}"
Beckenried Rütenen Einstieg 2,Einstieg 2 über Steine,46.9637825,8.5106356,,,,,,,,,,,613753248,node,"{""name"": ""Beckenried R\u00fctenen Einstieg 2"", ""note"": ""Einstieg 2 \u00fcber Steine"", ""scuba_diving:dangers"": ""depth"", ""scuba_diving:depth"": ""35"", ""scuba_diving:difficulty"": ""2"", ""scuba_diving:entry"": ""stone"", ""scuba_diving:maxdepth"": "">50"", ""scuba_diving:type"": ""wall;attraction;deep"", ""sport"": ""scuba_diving""}"
Tresorfabrik,,47.06536,8.51095,,,,http://www.dive-links.com/tauchplatz.php?id=2561,,,,,,,663452008,node,"{""name"": ""Tresorfabrik"", ""source"": ""www.dive-links.com"", ""sport"": ""scuba_diving"", ""website"": ""http://www.dive-links.com/tauchplatz.php?id=2561""}"
Fischchratte,,47.0790088,8.4870116,,,,,,,,,,,663452011,node,"{""name"": ""Fischchratte"", ""sport"": ""scuba_diving"", ""verified"": ""yes""}"
Baumgärtli,,47.1046827,8.4755164,,,,,,,,,,,663452014,node,"{""alt_name"": ""Baumgarten"", ""name"": ""Baumg\u00e4rtli"", ""scuba_diving:entry"": ""steps"", ""scuba_diving:hazard"": ""fairway"", ""sport"": ""scuba_diving"", ""verified"": ""yes""}"
Morgarten Denkmal,Achtung Schiffanlegestelle!,47.1064045,8.6414154,,,,http://www.dive-links.com/tauchplatz.php?id=2230,,,,,,,663452015,node,"{""name"": ""Morgarten Denkmal"", ""note"": ""Achtung Schiffanlegestelle!"", ""scuba_diving:access_easyness"": ""1"", ""scuba_diving:dangers:ship"": ""yes"", ""scuba_diving:entry:stair"": ""yes"", ""scuba_diving:type:high"": ""yes"", ""source"": ""www.dive-links.com;survey"", ""sport"": ""scuba_diving"", ""website"": ""http://www.dive-links.com/tauchplatz.php?id=2230""}"
Zigeunerplätzli,,47.1176616,8.497633,,,,,,,,,,,663452016,node,"{""alt_name"": ""Zigeunerplatz"", ""name"": ""Zigeunerpl\u00e4tzli"", ""scuba_diving:entry"": ""shore"", ""scuba_diving:type"": ""wall"", ""sport"": ""scuba_diving"", ""verified"": ""yes""}"
Vorstad,,47.1692812,8.5140772,,,,,,,,,,,663452017,node,"{""loc_name"": ""Katastrophenbucht"", ""name"": ""Vorstad"", ""sport"": ""scuba_diving""}"
Lothenbach,,47.11555,8.4996686,,,,,,,,,,,663452018,node,"{""name"": ""Lothenbach"", ""sport"": ""scuba_diving"", ""verified"": ""yes""}"
Pumpwerk Horgen,,47.25703,8.6101399,,,,,,,,,,,663452031,node,"{""name"": ""Pumpwerk Horgen"", ""source"": ""www.dive-links.com"", ""sport"": ""scuba_diving""}"
Kurheim Ländli,,47.12689,8.63197,,,,,,,,,,,663452040,node,"{""name"": ""Kurheim L\u00e4ndli"", ""source"": ""www.dive-links.com"", ""sport"": ""scuba_diving""}"
Vordere Au,,47.2490333,8.651674,,,,,,,,,,,663452047,node,"{""alt_name"": ""Vorder-Au Ost"", ""name"": ""Vordere Au"", ""sport"": ""scuba_diving""}"
Halbinsel,,47.277758,8.615927,,,,,,,,,,,663452056,node,"{""name"": ""Halbinsel"", ""source"": ""www.dive-links.com"", ""sport"": ""scuba_diving""}"
Haus am See,,47.2772099,8.6171101,,,,,,,,,,,663452057,node,"{""name"": ""Haus am See"", ""source"": ""www.dive-links.com"", ""sport"": ""scuba_diving""}"
Seebad Rüschlikon,,47.3116,8.55667,,,,,,,,,,,663452068,node,"{""name"": ""Seebad R\u00fcschlikon"", ""source"": ""www.dive-links.com"", ""sport"": ""scuba_diving""}"
Schoggiwand,,47.31974,8.55306,,,,,,,,,,,663452069,node,"{""alt_name"": ""Clubhaus TC Gaukos"", ""name"": ""Schoggiwand"", ""scuba_diving:dangers"": ""depth"", ""scuba_diving:depth"": ""40"", ""scuba_diving:difficulty"": ""2"", ""scuba_diving:entry"": ""shore"", ""scuba_diving:type"": ""ooze, wall, attraction"", ""source"": ""www.dive-links.com"", ""sport"": ""scuba_diving""}"
Landungssteg Rüschlikon,,47.3095,8.55847,,,,,,,,,,,663452071,node,"{""name"": ""Landungssteg R\u00fcschlikon"", ""source"": ""www.dive-links.com"", ""sport"": ""scuba_diving""}"
Kleiner Hafen Küsnacht,,47.325766,8.575007,,,,,,,,,,,663452083,node,"{""name"": ""Kleiner Hafen K\u00fcsnacht"", ""source"": ""www.dive-links.com"", ""sport"": ""scuba_diving""}"
Schiffli,,47.325167,8.575436,,,,,,,,,,,663452085,node,"{""name"": ""Schiffli"", ""source"": ""www.dive-links.com"", ""sport"": ""scuba_diving""}"
Bellerive 55,,47.3241674,8.5760836,,,,,,,,,,,663452088,node,"{""name"": ""Bellerive 55"", ""source"": ""www.dive-links.com"", ""sport"": ""scuba_diving""}"
Hafen Küsnacht,,47.32022,8.57798,,,,,,,,,,,663452089,node,"{""name"": ""Hafen K\u00fcsnacht"", ""source"": ""www.dive-links.com"", ""sport"": ""scuba_diving""}"
Widmerland,,47.33147,8.54595,,,,,,,,,,,663452091,node,"{""name"": ""Widmerland"", ""source"": ""www.dive-links.com"", ""sport"": ""scuba_diving""}"
Strandbad Niederuster,,47.34252,8.69072,,,,,,,,,,,663452094,node,"{""name"": ""Strandbad Niederuster"", ""source"": ""www.dive-links.com"", ""sport"": ""scuba_diving""}"
Strandbad Maur,,47.34564,8.67508,,,,,,,,,,,663452095,node,"{""name"": ""Strandbad Maur"", ""source"": ""www.dive-links.com"", ""sport"": ""scuba_diving""}"
Hafen,,47.34025,8.67872,,,,,,,,,,,663452096,node,"{""name"": ""Hafen"", ""source"": ""www.dive-links.com"", ""sport"": ""scuba_diving""}"
Bad Egg,,47.3212816,8.6966024,,,,,,,,,,,663452097,node,"{""name"": ""Bad Egg"", ""source"": ""www.dive-links.com"", ""sport"": ""scuba_diving""}"
UB-81,,50.4894444,-0.97,,,,http://www.dive-links.com/tauchplatz.php?id=1764,,,,,,,663869549,node,"{""historic"": ""wreck"", ""name"": ""UB-81"", ""seamark:type"": ""wreck"", ""source"": ""www.dive-links.com"", ""sport"": ""scuba_diving"", ""verified"": ""no, please check and del this tag"", ""website"": ""http://www.dive-links.com/tauchplatz.php?id=1764"", ""wikidata"": ""Q2207226"", ""wikipedia"": ""en:SM UB-81""}"
Candia,,50.5716666,-0.5113888,,,,http://www.dive-links.com/tauchplatz.php?id=1769,,,,,,,663869550,node,"{""historic"": ""wreck"", ""name"": ""Candia"", ""seamark:type"": ""wreck"", ""source"": ""www.dive-links.com"", ""sport"": ""scuba_diving"", ""verified"": ""no, please check and del this tag"", ""website"": ""http://www.dive-links.com/tauchplatz.php?id=1769""}"
HMS Moldavia,,50.3855555,-0.4786111,,,,http://www.dive-links.com/tauchplatz.php?id=1770,,,,,,,663869551,node,"{""historic"": ""wreck"", ""name"": ""HMS Moldavia"", ""seamark:type"": ""wreck"", ""source"": ""www.dive-links.com"", ""sport"": ""scuba_diving"", ""verified"": ""no, please check and del this tag"", ""website"": ""http://www.dive-links.com/tauchplatz.php?id=1770""}"
Arno,,50.7,-0.75,,,,http://www.dive-links.com/tauchplatz.php?id=1732,,,,,,,663869566,node,"{""historic"": ""wreck"", ""name"": ""Arno"", ""seamark:type"": ""wreck"", ""source"": ""www.dive-links.com"", ""sport"": ""scuba_diving"", ""verified"": ""no, please check and del this tag"", ""website"": ""http://www.dive-links.com/tauchplatz.php?id=1732""}"
Caulonia,,50.9208333,0.8372222,,,,http://www.dive-links.com/tauchplatz.php?id=1784,,,,,,,663869567,node,"{""historic"": ""wreck"", ""name"": ""Caulonia"", ""seamark:type"": ""wreck"", ""source"": ""www.dive-links.com"", ""sport"": ""scuba_diving"", ""verified"": ""no, please check and del this tag"", ""website"": ""http://www.dive-links.com/tauchplatz.php?id=1784""}"
Britsum,,50.6727777,-0.7941666,,,,http://www.dive-links.com/tauchplatz.php?id=1761,,,,,,,663869568,node,"{""historic"": ""wreck"", ""name"": ""Britsum"", ""seamark:type"": ""wreck"", ""source"": ""www.dive-links.com"", ""sport"": ""scuba_diving"", ""verified"": ""no, please check and del this tag"", ""website"": ""http://www.dive-links.com/tauchplatz.php?id=1761""}"
Edenwood,,50.6752777,-0.9025,,,,http://www.dive-links.com/tauchplatz.php?id=1762,,,,,,,663869569,node,"{""historic"": ""wreck"", ""name"": ""Edenwood"", ""seamark:type"": ""wreck"", ""source"": ""www.dive-links.com"", ""sport"": ""scuba_diving"", ""url"": ""http://www.dive-links.com/tauchplatz.php?id=1762"", ""verified"": ""no, please check and del this tag""}"
Dresden,,50.6316666,-0.7283333,,,,http://www.dive-links.com/tauchplatz.php?id=1763,,,,,,,663869570,node,"{""historic"": ""wreck"", ""name"": ""Dresden"", ""seamark:type"": ""wreck"", ""source"": ""www.dive-links.com"", ""sport"": ""scuba_diving"", ""verified"": ""no, please check and del this tag"", ""website"": ""http://www.dive-links.com/tauchplatz.php?id=1763""}"
Cuckoo,,50.7436111,-0.7066666,,,,http://www.dive-links.com/tauchplatz.php?id=1765,,,,,,,663869571,node,"{""historic"": ""wreck"", ""name"": ""Cuckoo"", ""seamark:type"": ""wreck"", ""source"": ""www.dive-links.com"", ""sport"": ""scuba_diving"", ""verified"": ""no, please check and del this tag"", ""website"": ""http://www.dive-links.com/tauchplatz.php?id=1765""}"
Oceana (Wreck),,50.7052778,-0.4291666,,,,http://www.dive-links.com/tauchplatz.php?id=1781,,,,,,,663869572,node,"{""name"": ""Oceana (Wreck)"", ""source"": ""www.dive-links.com"", ""sport"": ""scuba_diving"", ""verified"": ""no, please check and del this tag"", ""website"": ""http://www.dive-links.com/tauchplatz.php?id=1781""}"
HMS Ariadne (Wreck),,50.7144444,-0.3913889,,,,http://www.dive-links.com/tauchplatz.php?id=1782,,,,,,,663869573,node,"{""name"": ""HMS Ariadne (Wreck)"", ""source"": ""www.dive-links.com"", ""sport"": ""scuba_diving"", ""verified"": ""no, please check and del this tag"", ""website"": ""http://www.dive-links.com/tauchplatz.php?id=1782""}"
Wittering,,50.7169444,-0.61,,,,http://www.dive-links.com/tauchplatz.php?id=1786,,,,,,,663869574,node,"{""historic"": ""wreck"", ""name"": ""Wittering"", ""seamark:type"": ""wreck"", ""source"": ""www.dive-links.com"", ""sport"": ""scuba_diving"", ""verified"": ""no, please check and del this tag"", ""website"": ""http://www.dive-links.com/tauchplatz.php?id=1786""}"
Alaunia (Wreck),,50.6841666,-0.4547222,,,,http://www.dive-links.com/tauchplatz.php?id=1783,,,,,,,663869575,node,"{""name"": ""Alaunia (Wreck)"", ""source"": ""www.dive-links.com"", ""sport"": ""scuba_diving"", ""verified"": ""no, please check and del this tag"", ""website"": ""http://www.dive-links.com/tauchplatz.php?id=1783""}"
Broderick,,50.7711111,-0.6297222,,,,http://www.dive-links.com/tauchplatz.php?id=1785,,,,,,,663869576,node,"{""historic"": ""wreck"", ""name"": ""Broderick"", ""seamark:type"": ""wreck"", ""source"": ""www.dive-links.com"", ""sport"": ""scuba_diving"", ""verified"": ""no, please check and del this tag"", ""website"": ""http://www.dive-links.com/tauchplatz.php?id=1785""}"
Gascogny,,50.6575,-0.6586111,,,,http://www.dive-links.com/tauchplatz.php?id=1759,,,,,,,663869577,node,"{""historic"": ""wreck"", ""name"": ""Gascogny"", ""seamark:type"": ""wreck"", ""source"": ""www.dive-links.com"", ""sport"": ""scuba_diving"", ""verified"": ""no, please check and del this tag"", ""website"": ""http://www.dive-links.com/tauchplatz.php?id=1759""}"
Axwell,,50.6466666,-0.6763888,,,,http://www.dive-links.com/tauchplatz.php?id=1760,,,,,,,663869578,node,"{""historic"": ""wreck"", ""name"": ""Axwell"", ""seamark:type"": ""wreck"", ""source"": ""www.dive-links.com"", ""sport"": ""scuba_diving"", ""verified"": ""no, please check and del this tag"", ""website"": ""http://www.dive-links.com/tauchplatz.php?id=1760""}"
Frode,,50.7683333,-0.4816666,,,,http://www.dive-links.com/tauchplatz.php?id=1766,,,,,,,663869579,node,"{""historic"": ""wreck"", ""name"": ""Frode"", ""seamark:type"": ""wreck"", ""source"": ""www.dive-links.com"", ""sport"": ""scuba_diving"", ""verified"": ""no, please check and del this tag"", ""website"": ""http://www.dive-links.com/tauchplatz.php?id=1766""}"
HMS Pine,,50.7180555,-0.6194444,,,,http://www.dive-links.com/tauchplatz.php?id=1768,,,,,,,663869581,node,"{""historic"": ""wreck"", ""name"": ""HMS Pine"", ""seamark:type"": ""wreck"", ""source"": ""www.dive-links.com"", ""sport"": ""scuba_diving"", ""verified"": ""no, please check and del this tag"", ""website"": ""http://www.dive-links.com/tauchplatz.php?id=1768""}"
Indiana,,50.7841666,-0.37,,,,http://www.dive-links.com/tauchplatz.php?id=1771,,,,,,,663869582,node,"{""historic"": ""wreck"", ""name"": ""Indiana"", ""seamark:type"": ""wreck"", ""source"": ""www.dive-links.com"", ""sport"": ""scuba_diving"", ""verified"": ""no, please check and del this tag"", ""website"": ""http://www.dive-links.com/tauchplatz.php?id=1771""}"
HMT Ocean Sunlight,,50.7691666,-0.0677777,,,,http://www.dive-links.com/tauchplatz.php?id=1777,,,,,,,663869584,node,"{""historic"": ""wreck"", ""name"": ""HMT Ocean Sunlight"", ""seamark:type"": ""wreck"", ""source"": ""www.dive-links.com"", ""sport"": ""scuba_diving"", ""verified"": ""no, please check and del this tag"", ""website"": ""http://www.dive-links.com/tauchplatz.php?id=1777"", ""wreck:date_sunk"": ""1940-06-13""}"
Mira,,50.6863888,-0.14,,,,http://www.dive-links.com/tauchplatz.php?id=1778,,,,,,,663869585,node,"{""historic"": ""wreck"", ""name"": ""Mira"", ""seamark:type"": ""wreck"", ""source"": ""www.dive-links.com"", ""sport"": ""scuba_diving"", ""verified"": ""no, please check and del this tag"", ""website"": ""http://www.dive-links.com/tauchplatz.php?id=1778""}"
Clan Macmillan,,50.7261111,-0.0119444,,,,http://www.dive-links.com/tauchplatz.php?id=1775,,,,,,,663869587,node,"{""historic"": ""wreck"", ""name"": ""Clan Macmillan"", ""seamark:type"": ""wreck"", ""source"": ""www.dive-links.com"", ""sport"": ""scuba_diving"", ""verified"": ""no, please check and del this tag"", ""website"": ""http://www.dive-links.com/tauchplatz.php?id=1775""}"
City of Waterford,,50.675,-0.1105555,,,,http://www.dive-links.com/tauchplatz.php?id=1776,,,,,,,663869589,node,"{""historic"": ""wreck"", ""name"": ""City of Waterford"", ""seamark:type"": ""wreck"", ""source"": ""www.dive-links.com"", ""sport"": ""scuba_diving"", ""verified"": ""no, please check and del this tag"", ""website"": ""http://www.dive-links.com/tauchplatz.php?id=1776""}"
HMS Minion,,50.6436111,-0.2313888,,,,http://www.dive-links.com/tauchplatz.php?id=1773,,,,,,,663869591,node,"{""historic"": ""wreck"", ""name"": ""HMS Minion"", ""seamark:type"": ""wreck"", ""source"": ""www.dive-links.com"", ""sport"": ""scuba_diving"", ""verified"": ""no, please check and del this tag"", ""website"": ""http://www.dive-links.com/tauchplatz.php?id=1773"", ""wreck:date_sunk"": ""1917-10-11"", ""wreck:depth"": ""54""}"
City of Brisbane,,50.7425,-0.0138888,,,,http://www.dive-links.com/tauchplatz.php?id=1774,,,,,,,663869593,node,"{""historic"": ""wreck"", ""name"": ""City of Brisbane"", ""seamark:type"": ""wreck"", ""source"": ""www.dive-links.com"", ""sport"": ""scuba_diving"", ""verified"": ""no, please check and del this tag"", ""website"": ""http://www.dive-links.com/tauchplatz.php?id=1774""}"
HMS Keryado,,50.6427777,-0.1286111,,,,http://www.dive-links.com/tauchplatz.php?id=1779,,,,,,,663869596,node,"{""historic"": ""wreck"", ""name"": ""HMS Keryado"", ""seamark:type"": ""wreck"", ""source"": ""www.dive-links.com"", ""sport"": ""scuba_diving"", ""verified"": ""no, please check and del this tag"", ""website"": ""http://www.dive-links.com/tauchplatz.php?id=1779""}"
Barn Hill,,50.7897222,-0.3388888,,,,http://www.dive-links.com/tauchplatz.php?id=1780,,,,,,,663869598,node,"{""historic"": ""wreck"", ""name"": ""Barn Hill"", ""seamark:type"": ""wreck"", ""source"": ""www.dive-links.com"", ""sport"": ""scuba_diving"", ""verified"": ""no, please check and del this tag"", ""website"": ""http://www.dive-links.com/tauchplatz.php?id=1780""}"
City of London,,50.705,-0.2380555,,,,http://www.dive-links.com/tauchplatz.php?id=1772,,,,,,,663869600,node,"{""historic"": ""wreck"", ""name"": ""City of London"", ""seamark:type"": ""wreck"", ""source"": ""www.dive-links.com"", ""sport"": ""scuba_diving"", ""verified"": ""no, please check and del this tag"", ""website"": ""http://www.dive-links.com/tauchplatz.php?id=1772""}"
la Pedrosa,,42.073431,3.2048378,,,,http://www.dive-links.com/tauchplatz.php?id=1835,,,,,,,663869682,node,"{""location"": ""underwater"", ""name"": ""la Pedrosa"", ""natural"": ""cave_entrance"", ""scuba_diving:divespot"": ""yes"", ""source"": ""www.dive-links.com"", ""sport"": ""scuba_diving"", ""verified"": ""no, please check and del this tag"", ""website"": ""http://www.dive-links.com/tauchplatz.php?id=1835""}"
Massa d'Or (la Rata),,42.319954,3.3314833,,,,http://www.dive-links.com/tauchplatz.php?id=1834,,,,,,,663869684,node,"{""name"": ""Massa d'Or (la Rata)"", ""source"": ""www.dive-links.com"", ""sport"": ""scuba_diving"", ""verified"": ""no, please check and del this tag"", ""website"": ""http://www.dive-links.com/tauchplatz.php?id=1834""}"
Le Liban,,43.2073445,5.3370887,,,,http://www.dive-links.com/tauchplatz.php?id=1286,,,,,,,663869688,node,"{""historic"": ""wreck"", ""name"": ""Le Liban"", ""scuba_diving:type"": ""wreck"", ""seamark:type"": ""wreck"", ""source"": ""www.dive-links.com"", ""sport"": ""scuba_diving"", ""website"": ""http://www.dive-links.com/tauchplatz.php?id=1286"", ""wikidata"": ""Q684484"", ""wikipedia"": ""fr:Liban (bateau de 1882)""}"
Vickers Viking,,41.5225,8.8725,,,,http://www.dive-links.com/tauchplatz.php?id=1423,,,,,,,663869691,node,"{""historic"": ""wreck"", ""name"": ""Vickers Viking"", ""seamark:type"": ""wreck"", ""source"": ""www.dive-links.com"", ""sport"": ""scuba_diving"", ""verified"": ""no, please check and del this tag"", ""website"": ""http://www.dive-links.com/tauchplatz.php?id=1423"", ""wreck:type"": ""aircraft""}"
Canadair Wreck,,42.1019333,8.6869333,,,,http://www.dive-links.com/tauchplatz.php?id=1424,,,,,,,663869692,node,"{""alt_name"": ""Canadair CL 215 F-ZBBG"", ""historic"": ""wreck"", ""name"": ""Canadair Wreck"", ""seamark:type"": ""wreck"", ""source"": ""www.dive-links.com"", ""sport"": ""scuba_diving"", ""website"": ""http://www.dive-links.com/tauchplatz.php?id=1424"", ""wreck:date_sunk"": ""1971-08-03"", ""wreck:type"": ""aircraft""}"
Wrack 'Sagona' (Le Grec),,42.9932666,6.2739333,,,,http://www.dive-links.com/tauchplatz.php?id=1415,,,,,,,663869693,node,"{""name"": ""Wrack 'Sagona' (Le Grec)"", ""source"": ""www.dive-links.com"", ""sport"": ""scuba_diving"", ""verified"": ""no, please check and del this tag"", ""website"": ""http://www.dive-links.com/tauchplatz.php?id=1415"", ""wreck:depth"": ""35m""}"
Arroyo,,43.0483396,5.8697301,,,,http://scubaspot.free.fr/epaves/arroyo.html,,,,,,,663869694,node,"{""historic"": ""wreck"", ""name"": ""Arroyo"", ""scuba_diving:divespot"": ""yes"", ""scuba_diving:entry:boat"": ""yes"", ""scuba_diving:maxdepth"": ""36"", ""scuba_diving:mindepth"": ""20"", ""scuba_diving:type:sea"": ""yes"", ""seamark:type"": ""wreck"", ""source"": ""www.dive-links.com"", ""sport"": ""scuba_diving"", ""url"": ""http://scubaspot.free.fr/epaves/arroyo.html""}"
Wreck `Mohawk Deer`,"GPS coordinates in http://www.dive-links.com/tauchplatz.php?id=1425 are totally wrong, this is an estimation of its position",44.308127,9.1902937,,,,,,,,,,,663869695,node,"{""historic"": ""wreck"", ""name"": ""Wreck `Mohawk Deer`"", ""note"": ""GPS coordinates in http://www.dive-links.com/tauchplatz.php?id=1425 are totally wrong, this is an estimation of its position"", ""seamark:type"": ""wreck"", ""source"": ""www.dive-links.com"", ""sport"": ""scuba_diving""}"
Wrack `Genova`,,44.3144333,9.2297166,,,,http://www.dive-links.com/tauchplatz.php?id=1426,,,,,,,663869696,node,"{""historic"": ""wreck"", ""name"": ""Wrack `Genova`"", ""seamark:type"": ""wreck"", ""source"": ""www.dive-links.com"", ""sport"": ""scuba_diving"", ""verified"": ""no, please check and del this tag"", ""website"": ""http://www.dive-links.com/tauchplatz.php?id=1426""}"
Rubis,,43.1879935,6.7007442,,,,http://www.dive-links.com/tauchplatz.php?id=1420,,,,,,,663869697,node,"{""historic"": ""wreck"", ""name"": ""Rubis"", ""scuba_diving:type:sea"": ""yes"", ""scuba_diving:type:wreck"": ""yes"", ""seamark:type"": ""wreck"", ""source"": ""www.dive-links.com"", ""sport"": ""scuba_diving"", ""website"": ""http://www.dive-links.com/tauchplatz.php?id=1420"", ""wikidata"": ""Q2171666"", ""wikipedia"": ""fr:Rubis (1931)"", ""wreck:date_sunk"": ""1958-07-31""}"
Pinassen,,43.4221833,6.9048833,,,,http://www.dive-links.com/tauchplatz.php?id=1421,,,,,,,663869698,node,"{""historic"": ""wreck"", ""name"": ""Pinassen"", ""seamark:type"": ""wreck"", ""source"": ""www.dive-links.com"", ""sport"": ""scuba_diving"", ""verified"": ""no, please check and del this tag"", ""website"": ""http://www.dive-links.com/tauchplatz.php?id=1421""}"
Wrack 'Prosper Schiaffino' (Alias Donator),,42.9941166,6.2783333,,,,http://www.dive-links.com/tauchplatz.php?id=1416,,,,,,,663869699,node,"{""name"": ""Wrack 'Prosper Schiaffino' (Alias Donator)"", ""source"": ""www.dive-links.com"", ""sport"": ""scuba_diving"", ""verified"": ""no, please check and del this tag"", ""website"": ""http://www.dive-links.com/tauchplatz.php?id=1416"", ""wreck:depth"": ""25m""}"
La Tantine,please check and del this tag,43.0244334,6.3611,,,,http://www.dive-links.com/tauchplatz.php?id=1417,,,,,,,663869700,node,"{""alt_name"": ""La Barge aux congres"", ""historic"": ""wreck"", ""name"": ""La Tantine"", ""name:en"": ""Wrack 'Tantine'"", ""note"": ""please check and del this tag"", ""seamark:type"": ""wreck"", ""source"": ""www.dive-links.com"", ""sport"": ""scuba_diving"", ""verified"": ""no"", ""website"": ""http://www.dive-links.com/tauchplatz.php?id=1417""}"
Wildcat,,43.09185,6.3962166,,,,http://www.dive-links.com/tauchplatz.php?id=1418,,,,,,,663869701,node,"{""historic"": ""wreck"", ""name"": ""Wildcat"", ""seamark:type"": ""wreck"", ""source"": ""www.dive-links.com"", ""sport"": ""scuba_diving"", ""verified"": ""no, please check and del this tag"", ""website"": ""http://www.dive-links.com/tauchplatz.php?id=1418"", ""wreck:type"": ""aircraft""}"
Togo,,43.1680513,6.5925729,,,,,,,,,,,663869702,node,"{""historic"": ""wreck"", ""name"": ""Togo"", ""scuba_diving:type:sea"": ""yes"", ""scuba_diving:type:wreck"": ""yes"", ""seamark:type"": ""wreck"", ""sport"": ""scuba_diving""}"
La Croix,,46.3885012,6.8193459,,,,,,,,,,,663869953,node,"{""name"": ""La Croix"", ""source"": ""www.dive-links.com"", ""sport"": ""scuba_diving""}"
Ecole de Mission,,46.38839,6.8453,,,,,,,,,,,663869956,node,"{""name"": ""Ecole de Mission"", ""source"": ""www.dive-links.com"", ""sport"": ""scuba_diving""}"
Falaise Bikini,,46.38856,6.81925,,,,,,,,,,,663869957,node,"{""name"": ""Falaise Bikini"", ""source"": ""www.dive-links.com"", ""sport"": ""scuba_diving""}"
Lac de Taney,,46.3446999,6.8348079,,,,,,,,,,,663869958,node,"{""name"": ""Lac de Taney"", ""source"": ""www.dive-links.com"", ""sport"": ""scuba_diving""}"
Plage d'Hermance,,46.30359,6.24091,,,,http://www.dive-links.com/tauchplatz.php?id=2353,,,,,,,663869959,node,"{""name"": ""Plage d'Hermance"", ""source"": ""www.dive-links.com"", ""sport"": ""scuba_diving"", ""website"": ""http://www.dive-links.com/tauchplatz.php?id=2353""}"
Lac Léman-Le Boesch,,46.2638518,6.1635616,,,,,,,,,,,663869960,node,"{""name"": ""Lac L\u00e9man-Le Boesch"", ""source"": ""www.dive-links.com"", ""sport"": ""scuba_diving""}"
Lac Léman-Le Creux-de-Genthod,,46.2638416,6.1635482,,,,,,,,,,,663869961,node,"{""name"": ""Lac L\u00e9man-Le Creux-de-Genthod"", ""source"": ""www.dive-links.com"", ""sport"": ""scuba_diving""}"
Lac Léman-Le Paradis,,46.26385,6.1635499,,,,,,,,,,,663869962,node,"{""name"": ""Lac L\u00e9man-Le Paradis"", ""source"": ""www.dive-links.com"", ""sport"": ""scuba_diving""}"
Le Duzillet-Gouille Duzillet,,46.28901,6.96165,,,,,,,,,,,663869963,node,"{""name"": ""Le Duzillet-Gouille Duzillet"", ""source"": ""www.dive-links.com"", ""sport"": ""scuba_diving""}"
Arnensee-West,,46.39372,7.2178,,,,,,,,,,,663869965,node,"{""name"": ""Arnensee-West"", ""source"": ""www.dive-links.com"", ""sport"": ""scuba_diving""}"
Arnensee-Ost,,46.39397,7.22083,,,,,,,,,,,663869966,node,"{""name"": ""Arnensee-Ost"", ""source"": ""www.dive-links.com"", ""sport"": ""scuba_diving""}"
Lac de Moiry-Rochers de Paris,,46.12352,7.57191,,,,,,,,,,,663869967,node,"{""name"": ""Lac de Moiry-Rochers de Paris"", ""source"": ""www.dive-links.com"", ""sport"": ""scuba_diving""}"
Lac de Géronde-Plage,,46.28742,7.54135,,,,,,,,,,,663869968,node,"{""name"": ""Lac de G\u00e9ronde-Plage"", ""source"": ""www.dive-links.com"", ""sport"": ""scuba_diving""}"
"Diving ""Lac de Neuchâtel-De la Lé""",,46.35305,7.28966,,,,,,,,,,,663869969,node,"{""name"": ""Diving \""Lac de Neuch\u00e2tel-De la L\u00e9\"""", ""source"": ""www.dive-links.com"", ""sport"": ""scuba_diving""}"
Lac Lioson,,46.387512,7.1280562,,,,http://www.dive-links.com/tauchplatz.php?id=2357,,,,,,,663869970,node,"{""name"": ""Lac Lioson"", ""source"": ""www.dive-links.com"", ""sport"": ""scuba_diving"", ""website"": ""http://www.dive-links.com/tauchplatz.php?id=2357""}"
Les Iles,,46.2138,7.33133,,,,,,,,,,,663869971,node,"{""name"": ""Les Iles"", ""source"": ""www.dive-links.com"", ""sport"": ""scuba_diving""}"
Lac du Joux,,46.6677216,6.3251517,,,,,,,,,,,663869972,node,"{""name"": ""Lac du Joux"", ""source"": ""www.dive-links.com"", ""sport"": ""scuba_diving""}"
Lac Léman-Falaise de Glaise,,46.50542,6.65419,,,,,,,,,,,663869973,node,"{""name"": ""Lac L\u00e9man-Falaise de Glaise"", ""source"": ""www.dive-links.com"", ""sport"": ""scuba_diving""}"
Lac Léman-Point du Suchet,,46.4785887,6.4619548,,,,http://www.dive-links.com/tauchplatz.php?id=2354,,,,,,,663869974,node,"{""name"": ""Lac L\u00e9man-Point du Suchet"", ""source"": ""www.dive-links.com"", ""sport"": ""scuba_diving"", ""website"": ""http://www.dive-links.com/tauchplatz.php?id=2354""}"
Grotte de Vallorbe,,46.6980176,6.345543,,,,https://grottesdevallorbe.ch/,,,,,,,663869976,node,"{""image"": ""http://www.vallorbe.ch/fr/images/598445c8b4dfc.jpg"", ""name"": ""Grotte de Vallorbe"", ""natural"": ""cave_entrance"", ""sport"": ""scuba_diving"", ""verified"": ""yes"", ""website"": ""https://grottesdevallorbe.ch/""}"
Lac Léman-Gare St. Saphorin,,46.47212,6.79802,,,,,,,,,,,663869977,node,"{""name"": ""Lac L\u00e9man-Gare St. Saphorin"", ""source"": ""www.dive-links.com"", ""sport"": ""scuba_diving"", ""verified"": ""no, please check and del this tag""}"
Lac Léman - Hirondelle,,46.4479887,6.8619214,,,,http://www.dive-links.com/tauchplatz.php?id=2339,,,,,,,663869978,node,"{""name"": ""Lac L\u00e9man - Hirondelle"", ""scuba_diving:type"": ""wreck"", ""source"": ""www.dive-links.com;Zingg Dive"", ""sport"": ""scuba_diving"", ""website"": ""http://www.dive-links.com/tauchplatz.php?id=2339""}"
Lac Léman-Rivaz Gare,,46.4735387,6.7848321,,,,,,,,,,,663869979,node,"{""name"": ""Lac L\u00e9man-Rivaz Gare"", ""scuba_diving:dangers"": ""ship"", ""scuba_diving:entry"": ""shore"", ""scuba_diving:maxdepth"": ""48"", ""scuba_diving:type"": ""wall"", ""source"": ""www.dive-links.com"", ""sport"": ""scuba_diving""}"
Lac Léman-Crépine,,46.4996291,6.6919749,,,,,,,,,,,663869981,node,"{""name"": ""Lac L\u00e9man-Cr\u00e9pine"", ""source"": ""www.dive-links.com"", ""sport"": ""scuba_diving""}"
Lac Léman-Port,,46.45214,6.85489,,,,,,,,,,,663869984,node,"{""name"": ""Lac L\u00e9man-Port"", ""source"": ""www.dive-links.com"", ""sport"": ""scuba_diving""}"
Lac Léman-Piscine,,46.450481,6.8582785,,,,,,,,,,,663869986,node,"{""name"": ""Lac L\u00e9man-Piscine"", ""source"": ""www.dive-links.com"", ""sport"": ""scuba_diving""}"
Lac Léman-Minoteries,,46.47415,6.77819,,,,,,,,,,,663869987,node,"{""name"": ""Lac L\u00e9man-Minoteries"", ""source"": ""www.dive-links.com"", ""sport"": ""scuba_diving"", ""verified"": ""no, please check and del this tag""}"
Plage Cully,,46.48895,6.74141,,,,,,,,,,,663869988,node,"{""name"": ""Plage Cully"", ""source"": ""www.dive-links.com"", ""sport"": ""scuba_diving""}"
La Pichette,,46.47008,6.81049,,,,,,,,,,,663869989,node,"{""name"": ""La Pichette"", ""source"": ""www.dive-links.com"", ""sport"": ""scuba_diving"", ""verified"": ""no, please check and del this tag""}"
Les Gonelles,,46.46987,6.81539,,,,,,,,,,,663869990,node,"{""name"": ""Les Gonelles"", ""source"": ""www.dive-links.com"", ""sport"": ""scuba_diving"", ""verified"": ""no, please check and del this tag""}"
Lac Léman-Lutry Plage,,46.50092,6.68982,,,,,,,,,,,663869991,node,"{""name"": ""Lac L\u00e9man-Lutry Plage"", ""source"": ""www.dive-links.com"", ""sport"": ""scuba_diving""}"
Gorges de l'Areuse,,46.9625879,6.8210554,,,,,,,,,,,663869993,node,"{""name"": ""Gorges de l'Areuse"", ""name:de"": ""Areuse-Schlucht"", ""source"": ""www.dive-links.com"", ""sport"": ""scuba_diving""}"
Boudry Plage,,46.9490376,6.8709418,,,,,,,,,,,663869994,node,"{""name"": ""Boudry Plage"", ""source"": ""www.dive-links.com;Swiss-divers, SirRichi"", ""sport"": ""scuba_diving""}"
La Madonne,,46.94573,6.97767,,,,,,,,,,,663869995,node,"{""name"": ""La Madonne"", ""source"": ""www.dive-links.com"", ""sport"": ""scuba_diving""}"
Pointe du Grain,,46.92576,6.8372,,,,,,,,,,,663869996,node,"{""name"": ""Pointe du Grain"", ""natural"": ""cape"", ""source"": ""www.dive-links.com"", ""sport"": ""scuba_diving""}"
Port,,46.8774744,6.7603914,,,,http://www.dive-links.com/tauchplatz.php?id=2326,,,,,,,663869997,node,"{""name"": ""Port"", ""source"": ""www.dive-links.com"", ""sport"": ""scuba_diving"", ""website"": ""http://www.dive-links.com/tauchplatz.php?id=2326""}"
La Motte,,46.94278,6.90409,,,,,,,,,,,663869999,node,"{""name"": ""La Motte"", ""source"": ""www.dive-links.com"", ""sport"": ""scuba_diving""}"
Maison du Plongeur,,46.99412,6.94803,,,,,,,,,,,663870000,node,"{""name"": ""Maison du Plongeur"", ""source"": ""www.dive-links.com"", ""sport"": ""scuba_diving""}"
Pointe d'Areuse,,46.9457997,6.8710239,,,,,,,,,,,663870002,node,"{""fixme"": ""Website down, removed. Give a reference or delete."", ""name"": ""Pointe d'Areuse"", ""source"": ""www.dive-links.com"", ""sport"": ""scuba_diving"", ""verified"": ""no, please check and del this tag""}"
Creugenat,"Doline, die unregelmässig mit Wasser füllt",47.3963465,7.0272154,,,,,,,,,,,663870003,node,"{""description"": ""Doline, die unregelm\u00e4ssig mit Wasser f\u00fcllt"", ""name"": ""Creugenat"", ""natural"": ""sinkhole"", ""source"": ""www.dive-links.com;survey"", ""sport"": ""scuba_diving""}"
Les Crêtes,,46.42808,7.04938,,,,,,,,,,,663870005,node,"{""name"": ""Les Cr\u00eates"", ""source"": ""www.dive-links.com"", ""sport"": ""scuba_diving""}"
Sur Momont,,46.69155,7.11139,,,,,,,,,,,663870006,node,"{""name"": ""Sur Momont"", ""source"": ""www.dive-links.com"", ""sport"": ""scuba_diving""}"
Pont Thusy,,46.688886,7.1078071,,,,,,,,,,,663870007,node,"{""name"": ""Pont Thusy"", ""source"": ""www.dive-links.com"", ""sport"": ""scuba_diving""}"
Presqu`ile,,46.61875,7.15125,,,,,,,,,,,663870008,node,"{""name"": ""Presqu`ile"", ""source"": ""www.dive-links.com"", ""sport"": ""scuba_diving""}"
Schwarzsee,,46.669852,7.2871572,,,,,,,,,,,663870010,node,"{""name"": ""Schwarzsee"", ""source"": ""www.dive-links.com"", ""sport"": ""scuba_diving""}"
Blausee,,46.5327019,7.6648956,,,,https://www.blausee.ch/de/naturpark/tauchen/,,,,,,,663870011,node,"{""name"": ""Blausee"", ""sport"": ""scuba_diving"", ""website"": ""https://www.blausee.ch/de/naturpark/tauchen/""}"
Öschinensee-West,,46.49769,7.71539,,,,,,,,,,,663870013,node,"{""name"": ""\u00d6schinensee-West"", ""source"": ""www.dive-links.com"", ""sport"": ""scuba_diving""}"
Öschinensee-Ost,,46.49496,7.72189,,,,,,,,,,,663870014,node,"{""name"": ""\u00d6schinensee-Ost"", ""source"": ""www.dive-links.com"", ""sport"": ""scuba_diving""}"
Churchillplatz,,46.72755,7.67064,,,,,,,,,,,663870016,node,"{""name"": ""Churchillplatz"", ""scuba_diving:difficulty"": ""1"", ""scuba_diving:entry"": ""shore"", ""scuba_diving:type"": ""ooze"", ""source"": ""role@dekostop.ch"", ""sport"": ""scuba_diving""}"
Aarebecken,,46.75177,7.63698,,,,,,,,,,,663870017,node,"{""name"": ""Aarebecken"", ""sport"": ""scuba_diving"", ""verified"": ""no, please check and del this tag""}"
Hagneckkanal,,47.06042,7.17512,,,,,,,,,,,663870034,node,"{""name"": ""Hagneckkanal"", ""source"": ""www.dive-links.com"", ""sport"": ""scuba_diving""}"
Hammerschmitte,,46.97658,7.46392,,,,,,,,,,,663870035,node,"{""name"": ""Hammerschmitte"", ""source"": ""www.dive-links.com"", ""sport"": ""scuba_diving""}"
St. Joux,,47.06667,7.10942,,,,,,,,,,,663870036,node,"{""name"": ""St. Joux"", ""source"": ""www.dive-links.com"", ""sport"": ""scuba_diving""}"
Strandbad,,47.09531,7.16326,,,,,,,,,,,663870038,node,"{""name"": ""Strandbad"", ""source"": ""www.dive-links.com"", ""sport"": ""scuba_diving""}"
Kleingurmels,,46.88086,7.18454,,,,,,,,,,,663870039,node,"{""name"": ""Kleingurmels"", ""source"": ""www.dive-links.com"", ""sport"": ""scuba_diving""}"
Schneckeninsel,,46.7161787,7.9723976,,,,,,,,,,,663870040,node,"{""name"": ""Schneckeninsel"", ""source"": ""www.dive-links.com"", ""sport"": ""scuba_diving""}"
Schulhaus,,46.7179574,7.9320611,,,,,,,,,,,663870041,node,"{""name"": ""Schulhaus"", ""source"": ""www.dive-links.com"", ""sport"": ""scuba_diving""}"
Schifflände,,46.711775,7.9626917,,,,,,,,,,,663870042,node,"{""name"": ""Schiffl\u00e4nde"", ""source"": ""www.dive-links.com"", ""sport"": ""scuba_diving""}"
Ehem. Seepolizei),,46.69602,7.93617,,,,,,,,,,,663870044,node,"{""name"": ""Ehem. Seepolizei)"", ""source"": ""www.dive-links.com"", ""sport"": ""scuba_diving""}"
Bätterichhöhle,,46.6835069,7.799878,,,,,,,,,,,663870047,node,"{""name"": ""B\u00e4tterichh\u00f6hle"", ""scuba_diving:dangers"": ""depth"", ""scuba_diving:difficulty"": ""3"", ""scuba_diving:entry"": ""boat"", ""scuba_diving:maxdepth"": ""85"", ""scuba_diving:type"": ""cave"", ""source"": ""role@dekostop.ch"", ""sport"": ""scuba_diving""}"
Grosse gelbe Wand,,46.6809885,7.7589372,,,,,,,,,,,663870048,node,"{""name"": ""Grosse gelbe Wand"", ""scuba_diving:dangers"": ""depth"", ""scuba_diving:difficulty"": ""3"", ""scuba_diving:entry"": ""boat"", ""scuba_diving:type"": ""wall"", ""source"": ""role@dekostop.ch"", ""sport"": ""scuba_diving""}"
Kleine gelbe Wand,,46.6814082,7.7502659,,,,,,,,,,,663870050,node,"{""name"": ""Kleine gelbe Wand"", ""scuba_diving:dangers"": ""depth"", ""scuba_diving:difficulty"": ""3"", ""scuba_diving:entry"": ""boat"", ""scuba_diving:type"": ""wall"", ""source"": ""role@dekostop.ch"", ""sport"": ""scuba_diving""}"
Wasserfall,,46.6832912,7.7838446,,,,,,,,,,,663870055,node,"{""name"": ""Wasserfall"", ""scuba_diving:dangers"": ""depth"", ""scuba_diving:difficulty"": ""3"", ""scuba_diving:entry"": ""boat"", ""scuba_diving:type"": ""wall"", ""source"": ""role@dekostop.ch"", ""sport"": ""scuba_diving""}"
Bootsplatz,,46.7738822,8.3501952,,,,,,,,,,,663870060,node,"{""name"": ""Bootsplatz"", ""source"": ""www.dive-links.com"", ""sport"": ""scuba_diving""}"
Hafen Sust,,46.88769,8.24306,,,,,,,,,,,663870061,node,"{""name"": ""Hafen Sust"", ""source"": ""www.dive-links.com"", ""sport"": ""scuba_diving""}"
Rechte Dammseite,,46.77522,8.30152,,,,,,,,,,,663870062,node,"{""name"": ""Rechte Dammseite"", ""source"": ""www.dive-links.com"", ""sport"": ""scuba_diving""}"
Seemitte,,46.77527,8.30683,,,,,,,,,,,663870063,node,"{""name"": ""Seemitte"", ""source"": ""www.dive-links.com"", ""sport"": ""scuba_diving""}"
Trübsee,,46.792934,8.3946593,,,,,,,,,,,663870064,node,"{""name"": ""Tr\u00fcbsee"", ""source"": ""www.dive-links.com"", ""sport"": ""scuba_diving""}"
Lauenen,,46.80136,8.16945,,,,,,,,,,,663870065,node,"{""name"": ""Lauenen"", ""sport"": ""scuba_diving""}"
Kiesstrand,,46.7741,8.274,,,,,,,,,,,663870068,node,"{""name"": ""Kiesstrand"", ""source"": ""www.dive-links.com"", ""sport"": ""scuba_diving""}"
Grenzstein,,46.96952,8.30972,,,,,,,,,,,663870069,node,"{""name"": ""Grenzstein"", ""source"": ""www.dive-links.com"", ""sport"": ""scuba_diving""}"
Schiessüberwachung,,46.95425,8.30272,,,,,,,,,,,663870070,node,"{""name"": ""Schiess\u00fcberwachung"", ""source"": ""www.dive-links.com"", ""sport"": ""scuba_diving""}"
Badeplatz,,46.9716961,8.322819,,,,,,,,,,,663870071,node,"{""name"": ""Badeplatz"", ""source"": ""www.dive-links.com"", ""sport"": ""scuba_diving""}"
Kehrsiten Forrest,,46.99421,8.3562,,,,,,,,,,,663870076,node,"{""name"": ""Kehrsiten Forrest"", ""source"": ""www.dive-links.com"", ""sport"": ""scuba_diving""}"
Holzlager,,47.0538304,8.4275429,,,,,,,,,,,663870078,node,"{""name"": ""Holzlager"", ""source"": ""www.dive-links.com"", ""sport"": ""scuba_diving""}"
Lopper Rote Route 1,,46.98125,8.31192,,,,,,,,,,,663870079,node,"{""name"": ""Lopper Rote Route 1"", ""source"": ""www.dive-links.com"", ""sport"": ""scuba_diving""}"
Lopper Känzeli,,46.98013,8.32836,,,,http://www.dive-links.com/tauchplatz.php?id=2514,,,,,,,663870080,node,"{""name"": ""Lopper K\u00e4nzeli"", ""source"": ""www.dive-links.com"", ""sport"": ""scuba_diving"", ""website"": ""http://www.dive-links.com/tauchplatz.php?id=2514""}"
Lopper Acheregg,,46.9793182,8.3308221,,,,http://www.dive-links.com/tauchplatz.php?id=2513,,,,,,,663870081,node,"{""name"": ""Lopper Acheregg"", ""sport"": ""scuba_diving"", ""website"": ""http://www.dive-links.com/tauchplatz.php?id=2513""}"
Chrüztrichter,,47.0273,8.38672,,,,,,,,,,,663870082,node,"{""name"": ""Chr\u00fcztrichter"", ""source"": ""www.dive-links.com"", ""sport"": ""scuba_diving""}"
Rest. Grüner Aff,,47.18925,7.4476,,,,,,,,,,,663870087,node,"{""name"": ""Rest. Gr\u00fcner Aff"", ""source"": ""www.dive-links.com"", ""sport"": ""scuba_diving""}"
Stadt Solothurn,,47.20375,7.5342,,,,,,,,,,,663870089,node,"{""name"": ""Stadt Solothurn"", ""source"": ""www.dive-links.com"", ""sport"": ""scuba_diving""}"
Wengibrücke,,47.20608,7.53635,,,,,,,,,,,663870090,node,"{""name"": ""Wengibr\u00fccke"", ""source"": ""www.dive-links.com"", ""sport"": ""scuba_diving""}"
Pontonierhaus,,47.2371138,7.6542326,,,,,,,,,,,663870091,node,"{""name"": ""Pontonierhaus"", ""sport"": ""scuba_diving"", ""verified"": ""no, please check and del this tag""}"
Nidaukanal Rest. Blue Marlin,,47.12441,7.22948,,,,,,,,,,,663870092,node,"{""name"": ""Nidaukanal Rest. Blue Marlin"", ""source"": ""www.dive-links.com"", ""sport"": ""scuba_diving""}"
Leuzigen,,47.1815,7.44965,,,,,,,,,,,663870093,node,"{""name"": ""Leuzigen"", ""source"": ""www.dive-links.com"", ""sport"": ""scuba_diving""}"
Insel,,47.19441,7.48634,,,,,,,,,,,663870094,node,"{""name"": ""Insel"", ""source"": ""www.dive-links.com"", ""sport"": ""scuba_diving""}"
Neue Brücke,,47.17286,7.4216,,,,,,,,,,,663870095,node,"{""name"": ""Neue Br\u00fccke"", ""source"": ""www.dive-links.com"", ""sport"": ""scuba_diving""}"
Burgäschisee-Strandbad,,47.171489,7.6704258,,,,,,,,,,,663870096,node,"{""name"": ""Burg\u00e4schisee-Strandbad"", ""source"": ""www.dive-links.com"", ""sport"": ""scuba_diving""}"
Nidaukanal,,47.12469,7.22935,,,,,,,,,,,663870097,node,"{""name"": ""Nidaukanal"", ""source"": ""www.dive-links.com"", ""sport"": ""scuba_diving""}"
Tüscherz Bahnhof,,47.1138526,7.1961718,,,,,,,,,,,663870098,node,"{""name"": ""T\u00fcscherz Bahnhof"", ""scuba_diving:access_easyness"": ""1"", ""scuba_diving:depth"": ""8;25"", ""scuba_diving:difficulty"": ""1"", ""scuba_diving:entry:steps"": ""yes"", ""scuba_diving:maxdepth"": ""40"", ""scuba_diving:type:intro"": ""yes"", ""scuba_diving:type:ooze"": ""yes"", ""scuba_diving:type:training"": ""yes"", ""source"": ""role@dekostop.ch"", ""sport"": ""scuba_diving""}"
Risi,,47.23841,7.74506,,,,,,,,,,,663870099,node,"{""name"": ""Risi"", ""source"": ""www.dive-links.com"", ""sport"": ""scuba_diving""}"
Rüchligwehr,,47.39944,8.05351,,,,https://tcaarau.ch/newtca/index.php/sichtweiten/sichtweiten-tauchplatzliste?view=location&id=5102,,,,,,,663870101,node,"{""name"": ""R\u00fcchligwehr"", ""source"": ""https://tcaarau.ch"", ""sport"": ""scuba_diving"", ""website"": ""https://tcaarau.ch/newtca/index.php/sichtweiten/sichtweiten-tauchplatzliste?view=location&id=5102""}"
Kraftwerk Ruppoldingen,,47.31108,7.8814,,,,,,,,,,,663870102,node,"{""name"": ""Kraftwerk Ruppoldingen"", ""source"": ""www.dive-links.com"", ""sport"": ""scuba_diving""}"
Kraftwerk,,47.36397,7.92187,,,,,,,,,,,663870103,node,"{""name"": ""Kraftwerk"", ""source"": ""www.dive-links.com"", ""sport"": ""scuba_diving""}"
Ballypark,,47.36838,7.99561,,,,,,,,,,,663870104,node,"{""name"": ""Ballypark"", ""source"": ""www.dive-links.com"", ""sport"": ""scuba_diving""}"
Badi Schützenmatt,,47.34119,7.90753,,,,,,,,,,,663870105,node,"{""name"": ""Badi Sch\u00fctzenmatt"", ""source"": ""www.dive-links.com"", ""sport"": ""scuba_diving""}"
Mosenwäldli,,47.2513393,8.2205,,,,,,,,,,,663870113,node,"{""name"": ""Mosenw\u00e4ldli"", ""source"": ""www.dive-links.com"", ""sport"": ""scuba_diving""}"
Landungssteg Aesch,,47.25861,8.22998,,,,,,,,,,,663870114,node,"{""name"": ""Landungssteg Aesch"", ""source"": ""www.dive-links.com"", ""sport"": ""scuba_diving""}"
Strandbad,,47.18611,8.27681,,,,,,,,,,,663870115,node,"{""name"": ""Strandbad"", ""source"": ""www.dive-links.com"", ""sport"": ""scuba_diving""}"
Schifflände,,47.29083,8.20294,,,,,,,,,,,663870119,node,"{""name"": ""Schiffl\u00e4nde"", ""source"": ""www.dive-links.com"", ""sport"": ""scuba_diving""}"
Restaurant Delphin,,47.29489,8.219,,,,,,,,,,,663870120,node,"{""name"": ""Restaurant Delphin"", ""source"": ""www.dive-links.com"", ""sport"": ""scuba_diving""}"
Autobahnbrücke,,47.45453,8.32975,,,,,,,,,,,663870121,node,"{""name"": ""Autobahnbr\u00fccke"", ""source"": ""www.dive-links.com"", ""sport"": ""scuba_diving""}"
Wird,,47.31805,8.37294,,,,,,,,,,,663870123,node,"{""name"": ""Wird"", ""source"": ""www.dive-links.com"", ""sport"": ""scuba_diving""}"
Alter Aarelauf,,47.47872,8.19408,,,,,,,,,,,663870124,node,"{""name"": ""Alter Aarelauf"", ""source"": ""www.dive-links.com"", ""sport"": ""scuba_diving""}"
Strandbad,,47.55164,7.7767,,,,,,,,,,,663870126,node,"{""name"": ""Strandbad"", ""source"": ""www.dive-links.com"", ""sport"": ""scuba_diving""}"
Wasserstelz,,47.578,8.39994,,,,http://www.dive-links.com/tauchplatz.php?id=2209,,,,,,,663870127,node,"{""name"": ""Wasserstelz"", ""source"": ""www.dive-links.com"", ""sport"": ""scuba_diving"", ""verified"": ""no, please check and del this tag"", ""website"": ""http://www.dive-links.com/tauchplatz.php?id=2209""}"
Schluchsee,,47.80305,8.1908333,,,,http://www.dive-links.com/tauchplatz.php?id=1161,,,,,,,663870129,node,"{""name"": ""Schluchsee"", ""source"": ""www.dive-links.com"", ""sport"": ""scuba_diving"", ""verified"": ""no, please check and del this tag"", ""website"": ""http://www.dive-links.com/tauchplatz.php?id=1161""}"
Lago di Lugano-Parete di Caslano,,45.96411,8.88666,,,,,,,,,,,663870130,node,"{""name"": ""Lago di Lugano-Parete di Caslano"", ""source"": ""www.dive-links.com"", ""sport"": ""scuba_diving""}"
Lago di Lugano-Il Deserto,,45.95952,8.88019,,,,,,,,,,,663870131,node,"{""name"": ""Lago di Lugano-Il Deserto"", ""source"": ""www.dive-links.com"", ""sport"": ""scuba_diving""}"
Lago di Lugano-Le Macchine,,45.96247,8.87034,,,,,,,,,,,663870133,node,"{""name"": ""Lago di Lugano-Le Macchine"", ""source"": ""www.dive-links.com"", ""sport"": ""scuba_diving""}"
Lago di Lugano-Lugano-Sub,,45.98572,8.95624,,,,,,,,,,,663870137,node,"{""name"": ""Lago di Lugano-Lugano-Sub"", ""source"": ""www.dive-links.com"", ""sport"": ""scuba_diving""}"
Foce del Casserate,,46.0019908,8.9619869,,,,,,,,,,,663870138,node,"{""name"": ""Foce del Casserate"", ""source"": ""www.dive-links.com"", ""sport"": ""scuba_diving""}"
Lago di Lugano-Acquedetto,,45.98656,8.95633,,,,,,,,,,,663870140,node,"{""name"": ""Lago di Lugano-Acquedetto"", ""source"": ""www.dive-links.com"", ""sport"": ""scuba_diving""}"
Lago di Lugano-Relitto Milano,,45.90542,8.97972,,,,,,,,,,,663870141,node,"{""name"": ""Lago di Lugano-Relitto Milano"", ""source"": ""www.dive-links.com"", ""sport"": ""scuba_diving""}"
Lago di Lugano-Parete di Riva,,45.92197,8.97039,,,,,,,,,,,663870143,node,"{""name"": ""Lago di Lugano-Parete di Riva"", ""source"": ""www.dive-links.com"", ""sport"": ""scuba_diving""}"
Lago di Lugano-Lido di Riva S. Vitale,,45.9065088,8.9739802,,,,,,,,,,,663870144,node,"{""name"": ""Lago di Lugano-Lido di Riva S. Vitale"", ""source"": ""www.dive-links.com"", ""sport"": ""scuba_diving""}"
Lago di Lugano-Campeggio Paradiso,,45.9228576,8.9786354,,,,,,,,,,,663870146,node,"{""name"": ""Lago di Lugano-Campeggio Paradiso"", ""source"": ""www.dive-links.com"", ""sport"": ""scuba_diving""}"
Sorgente Bossi-Sorgente Bossi,,45.95658,8.99413,,,,,,,,,,,663870148,node,"{""name"": ""Sorgente Bossi-Sorgente Bossi"", ""source"": ""www.dive-links.com"", ""sport"": ""scuba_diving""}"
Sentiero di Gandria,,46.0011259,8.9853452,,,,,,,,,,,663870150,node,"{""name"": ""Sentiero di Gandria"", ""source"": ""www.dive-links.com"", ""sport"": ""scuba_diving""}"
Ponte del Diavolo,,46.0028918,8.9710879,,,,http://www.dive-links.com/tauchplatz.php?id=2380,,,,,,,663870151,node,"{""leisure"": ""swimming"", ""name"": ""Ponte del Diavolo"", ""noexit"": ""yes"", ""source"": ""www.dive-links.com"", ""sport"": ""scuba_diving"", ""supervised"": ""no"", ""website"": ""http://www.dive-links.com/tauchplatz.php?id=2380""}"
Porto,,46.11792,8.71011,,,,,,,,,,,663870155,node,"{""name"": ""Porto"", ""source"": ""www.dive-links.com"", ""sport"": ""scuba_diving""}"
Porto alla Ressiga,,46.1205,8.714,,,,,,,,,,,663870156,node,"{""name"": ""Porto alla Ressiga"", ""source"": ""www.dive-links.com"", ""sport"": ""scuba_diving""}"
Lago Maggiore-Sud,,46.12069,8.78216,,,,,,,,,,,663870159,node,"{""name"": ""Lago Maggiore-Sud"", ""source"": ""www.dive-links.com"", ""sport"": ""scuba_diving""}"
Tegna Ponte Brolla,,46.1855994,8.749569,,,,http://www.dive-links.com/tauchplatz.php?id=2418,,,,,,,663870163,node,"{""maxdepth"": ""9"", ""name"": ""Tegna Ponte Brolla"", ""sport"": ""scuba_diving"", ""website"": ""http://www.dive-links.com/tauchplatz.php?id=2418""}"
Gola di Ponte Brolla,,46.1862014,8.7506174,,,,,,,,,,,663870164,node,"{""name"": ""Gola di Ponte Brolla"", ""source"": ""www.dive-links.com"", ""sport"": ""scuba_diving""}"
Lago di Tomé,,46.362645,8.690238,,,,http://www.dive-links.com/tauchplatz.php?id=547,,,,,,,663870166,node,"{""name"": ""Lago di Tom\u00e9"", ""source"": ""www.dive-links.com"", ""sport"": ""scuba_diving"", ""website"": ""http://www.dive-links.com/tauchplatz.php?id=547""}"
Cascata Riale Salto,,46.2511007,8.7067593,,,,,,,,,,,663870167,node,"{""name"": ""Cascata Riale Salto"", ""sport"": ""scuba_diving"", ""verified"": ""no, please check and del this tag""}"
Gola del Lupo (Wolfsrachen),,46.34502,8.61169,,,,,,,,,,,663870169,node,"{""name"": ""Gola del Lupo (Wolfsrachen)"", ""sport"": ""scuba_diving""}"
Brontallo,,46.35424,8.645,,,,,,,,,,,663870170,node,"{""name"": ""Brontallo"", ""source"": ""www.dive-links.com"", ""sport"": ""scuba_diving""}"
Oberhalb Brontallo,,46.35844,8.64319,,,,,,,,,,,663870171,node,"{""name"": ""Oberhalb Brontallo"", ""source"": ""www.dive-links.com"", ""sport"": ""scuba_diving""}"
Aqua Tenero,,46.17372,8.84311,,,,,,,,,,,663870173,node,"{""name"": ""Aqua Tenero"", ""source"": ""www.dive-links.com"", ""sport"": ""scuba_diving""}"
Ponte,,46.22243,8.85717,,,,,,,,,,,663870174,node,"{""name"": ""Ponte"", ""source"": ""www.dive-links.com"", ""sport"": ""scuba_diving""}"
Lido Locarno,,46.16158,8.80553,,,,,,,,,,,663870175,node,"{""name"": ""Lido Locarno"", ""source"": ""www.dive-links.com"", ""sport"": ""scuba_diving""}"
Lago Maggiore-Centro Sub del Gambarogno,,46.13827,8.81558,,,,,,,,,,,663870177,node,"{""name"": ""Lago Maggiore-Centro Sub del Gambarogno"", ""source"": ""www.dive-links.com"", ""sport"": ""scuba_diving""}"
Officine Elettriche,,46.18155,8.8543,,,,,,,,,,,663870178,node,"{""name"": ""Officine Elettriche"", ""source"": ""www.dive-links.com"", ""sport"": ""scuba_diving""}"
Pozzo del Diavolo,,46.33794,8.80616,,,,,,,,,,,663870179,node,"{""name"": ""Pozzo del Diavolo"", ""source"": ""www.dive-links.com"", ""sport"": ""scuba_diving""}"
Ponte Corippo,,46.24083,8.84389,,,,,,,,,,,663870181,node,"{""name"": ""Ponte Corippo"", ""source"": ""www.dive-links.com"", ""sport"": ""scuba_diving""}"
Pozzo della Misura,,46.24847,8.845,,,,http://www.dive-links.com/tauchplatz.php?id=2501,,,,,,,663870182,node,"{""name"": ""Pozzo della Misura"", ""source"": ""www.dive-links.com"", ""sport"": ""scuba_diving"", ""website"": ""http://www.dive-links.com/tauchplatz.php?id=2501""}"
Pozzo San Rocco,,46.29366,8.79488,,,,,,,,,,,663870183,node,"{""name"": ""Pozzo San Rocco"", ""source"": ""www.dive-links.com"", ""sport"": ""scuba_diving""}"
Amslerbecken,,46.246467,8.845128,,,,http://www.dive-links.com/tauchplatz.php?id=1954,,,,,,,663870184,node,"{""name"": ""Amslerbecken"", ""source"": ""www.dive-links.com"", ""sport"": ""scuba_diving"", ""website"": ""http://www.dive-links.com/tauchplatz.php?id=1954""}"
Römerbrücke / Ponte dei Salti,,46.2600086,8.8360394,,,,,,,,,,,663870185,node,"{""name"": ""R\u00f6merbr\u00fccke / Ponte dei Salti"", ""sport"": ""scuba_diving"", ""tourism"": ""attraction"", ""wikimedia_commons"": ""File:Lavertezzo, Valle Verzasca, Ticino, Switzerland44.jpg""}"
Posse 2,,46.25258,8.84286,,,,http://www.dive-links.com/tauchplatz.php?id=1956,,,,,,,663870186,node,"{""name"": ""Posse 2"", ""source"": ""www.dive-links.com"", ""sport"": ""scuba_diving"", ""website"": ""http://www.dive-links.com/tauchplatz.php?id=1956""}"
Posse 1,,46.2510828,8.8436019,,,,http://www.dive-links.com/tauchplatz.php?id=1955,,,,,,,663870187,node,"{""maxdepth"": ""12"", ""name"": ""Posse 1"", ""sport"": ""scuba_diving"", ""website"": ""http://www.dive-links.com/tauchplatz.php?id=1955""}"
Sassello,,46.4750999,8.6365499,,,,,,,,,,,663870190,node,"{""name"": ""Sassello"", ""place"": ""locality"", ""source"": ""www.dive-links.com"", ""sport"": ""scuba_diving""}"
Damm,,46.47674,8.57508,,,,,,,,,,,663870195,node,"{""name"": ""Damm"", ""place"": ""locality"", ""source"": ""www.dive-links.com"", ""sport"": ""scuba_diving""}"
Lago Cadano,,46.54849,8.70767,,,,,,,,,,,663870196,node,"{""name"": ""Lago Cadano"", ""source"": ""www.dive-links.com"", ""sport"": ""scuba_diving""}"
Scheggia,,46.4665801,8.6499199,,,,,,,,,,,663870199,node,"{""name"": ""Scheggia"", ""source"": ""www.dive-links.com"", ""sport"": ""scuba_diving""}"
Lago Ritom,,46.54232,8.68292,,,,,,,,,,,663870202,node,"{""name"": ""Lago Ritom"", ""source"": ""www.dive-links.com"", ""sport"": ""scuba_diving""}"
Alpenblick,,46.7706,8.64261,,,,,,,,,,,663870204,node,"{""name"": ""Alpenblick"", ""source"": ""www.dive-linkws.com"", ""sport"": ""scuba_diving""}"
Seegarten,,46.9165013,8.5943065,,,,,,,,,,,663870205,node,"{""alt_name"": ""Isleten"", ""name"": ""Seegarten"", ""source"": ""www.dive-links.com"", ""sport"": ""scuba_diving""}"
Schildegg,,46.92827,8.581,,,,,,,,,,,663870206,node,"{""name"": ""Schildegg"", ""source"": ""www.dive-links.com"", ""sport"": ""scuba_diving""}"
Ober Nas,,46.9954817,8.4736674,,,,,,,,,,,663870210,node,"{""name"": ""Ober Nas"", ""scuba_diving:entry"": ""shore"", ""sport"": ""scuba_diving"", ""verified"": ""yes""}"
Kindli,,46.9911988,8.5577854,,,,,,,,,,,663870212,node,"{""alt_name"": ""Wassern\u00e4sli"", ""name"": ""Kindli"", ""scuba_diving:entry"": ""shore"", ""scuba_diving:type"": ""wall"", ""sport"": ""scuba_diving""}"
Eichwald,,46.9976481,8.5698271,,,,,,,,,,,663870214,node,"{""name"": ""Eichwald"", ""scuba_diving:entry"": ""shore"", ""scuba_diving:type"": ""wreck"", ""sport"": ""scuba_diving""}"
Strandbad Kindli,,46.98894,8.54853,,,,,,,,,,,663870215,node,"{""name"": ""Strandbad Kindli"", ""source"": ""www.dive-links.com"", ""sport"": ""scuba_diving""}"
Unterwilen,,47.0191035,8.471616,,,,http://www.dive-links.com/tauchplatz.php?id=2528,,,,,,,663870216,node,"{""name"": ""Unterwilen"", ""source"": ""www.dive-links.com"", ""sport"": ""scuba_diving"", ""verified"": ""yes"", ""website"": ""http://www.dive-links.com/tauchplatz.php?id=2528""}"
Wolfsprung,,46.9845,8.61183,,,,,,,,,,,663870217,node,"{""name"": ""Wolfsprung"", ""source"": ""www.dive-links.com"", ""sport"": ""scuba_diving""}"
Bootshafen,,46.993486,8.5161113,,,,,,,,,,,663870218,node,"{""name"": ""Bootshafen"", ""sport"": ""scuba_diving"", ""verified"": ""no, please check and del this tag""}"
Vitznau,,47.012486,8.482365,,,,,,,,,,,663870221,node,"{""name"": ""Vitznau"", ""source"": ""www.dive-links.com"", ""sport"": ""scuba_diving""}"
Elefäntli,,47.0214354,8.4682378,,,,http://www.dive-links.com/tauchplatz.php?id=1959,,,,,,,663870223,node,"{""name"": ""Elef\u00e4ntli"", ""source"": ""www.dive-links.com"", ""sport"": ""scuba_diving"", ""verified"": ""yes"", ""website"": ""http://www.dive-links.com/tauchplatz.php?id=1959""}"
Rossblatten,,47.09394,8.5192,,,,,,,,,,,663870227,node,"{""alt_name"": ""Badi Walchwil"", ""name"": ""Rossblatten"", ""scuba_diving:entry"": ""stair"", ""scuba_diving:type"": ""rocks"", ""sport"": ""scuba_diving"", ""verified"": ""yes""}"
Lido,,47.0959441,8.5163224,,,,,,,,,,,663870228,node,"{""name"": ""Lido"", ""natural"": ""beach"", ""scuba_diving:entry"": ""shore"", ""scuba_diving:type"": ""wall"", ""sport"": ""scuba_diving"", ""verified"": ""yes""}"
Egg,,47.0764029,8.5260089,,,,,,,,,,,663870230,node,"{""name"": ""Egg"", ""scuba_diving:entry"": ""shore"", ""scuba_diving:type"": ""rocks"", ""sport"": ""scuba_diving"", ""verified"": ""yes""}"
Chlausenegg,,47.0863332,8.5228746,,,,,,,,,,,663870231,node,"{""alt_name"": ""K\u00e4nzeli"", ""name"": ""Chlausenegg"", ""scuba_diving:dangers"": ""depth"", ""scuba_diving:depth"": ""35"", ""scuba_diving:difficulty"": ""2"", ""scuba_diving:entry"": ""stair"", ""scuba_diving:type"": ""wall"", ""sport"": ""scuba_diving"", ""verified"": ""yes""}"
Riedsort,,47.0239213,8.4538682,,,,,,,,,,,663870233,node,"{""name"": ""Riedsort"", ""scuba_diving:entry"": ""stair"", ""scuba_diving:type"": ""wall"", ""sport"": ""scuba_diving"", ""verified"": ""yes""}"
Schiefernegg,Tauchplatz gesperrt (Felssturz),46.9589848,8.6147984,,,,,,,,,,,663870234,node,"{""alt_name"": ""Sisikerkreuz"", ""name"": ""Schiefernegg"", ""note"": ""Tauchplatz gesperrt (Felssturz)"", ""scuba_diving:entry"": ""shore"", ""sport"": ""scuba_diving""}"
Sisikon,,46.953833,8.619344,,,,,,,,,,,663870235,node,"{""name"": ""Sisikon"", ""source"": ""www.dive-links.com"", ""sport"": ""scuba_diving""}"
Seehorn Felsblöcke,,46.817097,9.0877309,,,,,,,,,,,663870237,node,"{""name"": ""Seehorn Felsbl\u00f6cke"", ""source"": ""www.dive-links.com"", ""sport"": ""scuba_diving""}"
Seehorn Wand,,46.8171001,9.0876699,,,,,,,,,,,663870238,node,"{""name"": ""Seehorn Wand"", ""source"": ""www.dive-links.com"", ""sport"": ""scuba_diving""}"
Mettmenalp,,46.95755,9.09892,,,,,,,,,,,663870239,node,"{""name"": ""Mettmenalp"", ""source"": ""www.dive-links.com"", ""sport"": ""scuba_diving""}"
Restaurant Rhodannenberg,,47.03627,9.00236,,,,,,,,,,,663870240,node,"{""name"": ""Restaurant Rhodannenberg"", ""source"": ""www.dive-links.com"", ""sport"": ""scuba_diving""}"
Hundloch-Quelle,,47.06755,8.91914,,,,,,,,,,,663870241,node,"{""name"": ""Hundloch-Quelle"", ""source"": ""www.dive-links.com"", ""sport"": ""scuba_diving""}"
Wägitalersee,,47.06766,8.91461,,,,,,,,,,,663870242,node,"{""name"": ""W\u00e4gitalersee"", ""source"": ""www.dive-links.com"", ""sport"": ""scuba_diving""}"
Rampe,,47.10441,8.79933,,,,,,,,,,,663870243,node,"{""name"": ""Rampe"", ""source"": ""www.dive-links.com"", ""sport"": ""scuba_diving""}"
Talalpsee,,47.096656,9.1340837,,,,,,,,,,,663870244,node,"{""name"": ""Talalpsee"", ""source"": ""www.dive-links.com"", ""sport"": ""scuba_diving""}"
Igl Lai (Heidsee)-Seerestaurant,,46.73836,9.55283,,,,http://www.dive-links.com/tauchplatz.php?id=2309,,,,,,,663870245,node,"{""name"": ""Igl Lai (Heidsee)-Seerestaurant"", ""source"": ""www.dive-links.com;Zingg Dive"", ""sport"": ""scuba_diving"", ""website"": ""http://www.dive-links.com/tauchplatz.php?id=2309""}"
Plan di Mort,,46.41536,9.718,,,,,,,,,,,663870246,node,"{""name"": ""Plan di Mort"", ""source"": ""www.dive-links.com"", ""sport"": ""scuba_diving""}"
Lej da Champfèr,,46.4685103,9.8026209,,,,,,,,,,,663870247,node,"{""name"": ""Lej da Champf\u00e8r"", ""source"": ""www.dive-links.com"", ""sport"": ""scuba_diving""}"
Coluonnas,,46.46963,9.72681,,,,,,,,,,,663870248,node,"{""name"": ""Coluonnas"", ""source"": ""www.dive-links.com"", ""sport"": ""scuba_diving""}"
Halbinsel Sasc da Corn 2,,46.41927,9.72822,,,,,,,,,,,663870249,node,"{""name"": ""Halbinsel Sasc da Corn 2"", ""source"": ""www.dive-links.com"", ""sport"": ""scuba_diving""}"
Halbinsel Sasc da Corn 1,,46.41819,9.72642,,,,,,,,,,,663870251,node,"{""name"": ""Halbinsel Sasc da Corn 1"", ""source"": ""www.dive-links.com"", ""sport"": ""scuba_diving""}"
Alte Julierbrücke,,46.4885293,9.6415227,,,,http://www.dive-links.com/tauchplatz.php?id=2398,,,,,,,663870253,node,"{""name"": ""Alte Julierbr\u00fccke"", ""source"": ""www.dive-links.com;Zingg Dive"", ""sport"": ""scuba_diving"", ""website"": ""http://www.dive-links.com/tauchplatz.php?id=2398""}"
Laghetto Moesola immersioni,,46.4935405,9.1700693,,,,,,,,,,,663870254,node,"{""name"": ""Laghetto Moesola immersioni"", ""source"": ""www.dive-links.com"", ""sport"": ""scuba_diving""}"
Im Gufer,,46.57066,9.37486,,,,,,,,,,,663870255,node,"{""name"": ""Im Gufer"", ""source"": ""www.dive-links.com"", ""sport"": ""scuba_diving""}"
Gul,,46.56508,9.35616,,,,,,,,,,,663870256,node,"{""name"": ""Gul"", ""source"": ""www.dive-links.com"", ""sport"": ""scuba_diving""}"
Campingplatz,,46.4550369,9.7903276,,,,,,,,,,,663870257,node,"{""name"": ""Campingplatz"", ""source"": ""www.dive-links.com"", ""sport"": ""scuba_diving""}"
Bacheinlauf,,46.92028,9.35683,,,,,,,,,,,663870259,node,"{""name"": ""Bacheinlauf"", ""source"": ""www.dive-links.com"", ""sport"": ""scuba_diving""}"
Lag la Cauma,,46.8195333,9.2949237,,,,,,,,,,,663870260,node,"{""name"": ""Lag la Cauma"", ""source"": ""www.dive-links.com"", ""sport"": ""scuba_diving""}"
Werkhof,,46.9421528,9.4804097,,,,,,,,,,,663870262,node,"{""name"": ""Werkhof"", ""source"": ""www.dive-links.com"", ""sport"": ""scuba_diving""}"
Rigiblick,,47.1455607,8.5054266,,,,,,,,,,,663870268,node,"{""name"": ""Rigiblick"", ""scuba_diving:entry"": ""shore"", ""sport"": ""scuba_diving"", ""verified"": ""yes""}"
Rabenmättli,,47.1140571,8.5006043,,,,,,,,,,,663870269,node,"{""name"": ""Rabenm\u00e4ttli"", ""sport"": ""scuba_diving"", ""verified"": ""yes""}"
Pumpihüsli,,47.11113,8.50231,,,,,,,,,,,663870270,node,"{""name"": ""Pumpih\u00fcsli"", ""scuba_diving:entry"": ""shore"", ""scuba_diving:type"": ""wall"", ""sport"": ""scuba_diving"", ""verified"": ""yes""}"
Altstadt,,47.166338,8.5141304,,,,,,,,,,,663870271,node,"{""name"": ""Altstadt"", ""source"": ""www.dive-links.com"", ""sport"": ""scuba_diving""}"
Wiesli,,47.2797069,8.5815936,,,,http://www.dive-links.com/tauchplatz.php?id=2622,,,,,,,663870274,node,"{""alt_name"": ""Gurkenwand"", ""name"": ""Wiesli"", ""scuba_diving:access_easyness"": ""1"", ""scuba_diving:dangers:ship"": ""yes"", ""scuba_diving:depth"": ""21"", ""scuba_diving:difficulty"": ""1"", ""scuba_diving:entry:stair"": ""yes"", ""scuba_diving:maxdepth"": ""21"", ""scuba_diving:type:ooze"": ""yes"", ""scuba_diving:type:training"": ""yes"", ""scuba_diving:type:wall"": ""yes"", ""source"": ""www.dive-links.com;survey"", ""sport"": ""scuba_diving"", ""website"": ""http://www.dive-links.com/tauchplatz.php?id=2622""}"
Sandy Beach,,47.28102,8.61245,,,,,,,,,,,663870277,node,"{""name"": ""Sandy Beach"", ""source"": ""www.dive-links.com"", ""sport"": ""scuba_diving""}"
Seehalde,,47.27352,8.5837199,,,,,,,,,,,663870279,node,"{""name"": ""Seehalde"", ""source"": ""www.dive-links.com"", ""sport"": ""scuba_diving""}"
Sust,,47.2605442,8.6012556,,,,https://www.swiss-divers.ch/informationen/tauchplaetze/zuerichsee-tauchplaetze/sust-horgen/,,,,,,,663870280,node,"{""name"": ""Sust"", ""place"": ""locality"", ""sport"": ""scuba_diving"", ""website"": ""https://www.swiss-divers.ch/informationen/tauchplaetze/zuerichsee-tauchplaetze/sust-horgen/""}"
Key West,,47.2785853,8.5819166,,,,http://www.dive-links.com/tauchplatz.php?id=2579,,,,,,,663870284,node,"{""alt_name"": ""Gurkenwand"", ""name"": ""Key West"", ""scuba_diving:access_easyness"": ""2"", ""scuba_diving:dangers:ship"": ""yes"", ""scuba_diving:depth"": ""21"", ""scuba_diving:difficulty"": ""2"", ""scuba_diving:maxdepth"": ""21"", ""scuba_diving:type:training"": ""yes"", ""scuba_diving:type:wall"": ""yes"", ""source"": ""www.dive-links.com"", ""sport"": ""scuba_diving"", ""website"": ""http://www.dive-links.com/tauchplatz.php?id=2579""}"
Türlersee,,47.26567,8.50995,,,,,,,,,,,663870285,node,"{""name"": ""T\u00fcrlersee"", ""source"": ""www.dive-links.com"", ""sport"": ""scuba_diving""}"
Eierhals,Im Restaurant um Erlaubnis fragen,47.1161952,8.640944,,,,http://www.dive-links.com/tauchplatz.php?id=2231,,,,,,,663870288,node,"{""description"": ""Im Restaurant um Erlaubnis fragen"", ""name"": ""Eierhals"", ""source"": ""www.dive-links.com"", ""sport"": ""scuba_diving"", ""website"": ""http://www.dive-links.com/tauchplatz.php?id=2231""}"
Altersheim Breiten,,47.13228,8.62228,,,,https://www.swiss-divers.ch/index.php?option=com_mtree&task=viewlink&link_id=17&Itemid=50,,,,,,,663870289,node,"{""name"": ""Altersheim Breiten"", ""scuba_diving:access_easyness"": ""1"", ""scuba_diving:dangers"": ""net"", ""scuba_diving:dangers:net"": ""yes"", ""scuba_diving:depth"": ""30"", ""scuba_diving:difficulty"": ""1"", ""scuba_diving:entry:stone"": ""yes"", ""scuba_diving:maxdepth"": ""35"", ""scuba_diving:type"": ""ooze"", ""scuba_diving:type:high"": ""yes"", ""scuba_diving:type:ooze"": ""yes"", ""source"": ""www.dive-links.com;survey"", ""sport"": ""scuba_diving"", ""website"": ""https://www.swiss-divers.ch/index.php?option=com_mtree&task=viewlink&link_id=17&Itemid=50""}"
Chappeli,,47.118242,8.6389193,,,,https://www.swiss-divers.ch/index.php?option=com_mtree&task=viewlink&link_id=18&Itemid=50,,,,,,,663870290,node,"{""name"": ""Chappeli"", ""scuba_diving:access_easyness"": ""1"", ""scuba_diving:depth"": ""30"", ""scuba_diving:difficulty"": ""1"", ""scuba_diving:entry"": ""stone"", ""scuba_diving:entry:stone"": ""yes"", ""scuba_diving:type"": ""wall,biology"", ""scuba_diving:type:biology"": ""yes"", ""scuba_diving:type:high"": ""yes"", ""scuba_diving:type:ooze"": ""yes"", ""scuba_diving:type:wall"": ""yes"", ""source"": ""www.dive-links.com;survey"", ""sport"": ""scuba_diving"", ""website"": ""https://www.swiss-divers.ch/index.php?option=com_mtree&task=viewlink&link_id=18&Itemid=50""}"
Alte Badanstalt,,47.23116,8.6742399,,,,,,,,,,,663870292,node,"{""name"": ""Alte Badanstalt"", ""source"": ""www.dive-links.com"", ""sport"": ""scuba_diving""}"
Seegüetli,,47.254219,8.6189683,,,,,,,,,,,663870293,node,"{""name"": ""Seeg\u00fcetli"", ""source"": ""www.dive-links.com"", ""sport"": ""scuba_diving""}"
Meilibach,,47.2514766,8.6285315,,,,,,,,,,,663870297,node,"{""name"": ""Meilibach"", ""source"": ""www.dive-links.com"", ""sport"": ""scuba_diving""}"
Anlegesteg der Autofähre,,47.26782,8.638739,,,,,,,,,,,663870299,node,"{""name"": ""Anlegesteg der Autof\u00e4hre"", ""source"": ""www.dive-links.com"", ""sport"": ""scuba_diving""}"
Zollerbucht,Das ist der Landeinstieg,47.3012305,8.5914565,,,,http://www.dive-links.com/tauchplatz.php?id=2624,,,,,,,663870300,node,"{""alt_name"": ""Friedhofswand"", ""description"": ""Das ist der Landeinstieg"", ""name"": ""Zollerbucht"", ""scuba_diving:access_easyness"": ""2"", ""scuba_diving:dangers:depth"": ""yes"", ""scuba_diving:dangers:ship"": ""yes"", ""scuba_diving:depth"": ""30"", ""scuba_diving:difficulty"": ""2"", ""scuba_diving:entry:stone"": ""yes"", ""scuba_diving:maxdepth"": "">50"", ""scuba_diving:type:ooze"": ""yes"", ""scuba_diving:type:wall"": ""yes"", ""sport"": ""scuba_diving"", ""website"": ""http://www.dive-links.com/tauchplatz.php?id=2624""}"
Park Feldmeilen,,47.279623,8.6136007,,,,,,,,,,,663870301,node,"{""name"": ""Park Feldmeilen"", ""source"": ""www.dive-links.com"", ""sport"": ""scuba_diving""}"
Landungssteg Obermeilen,,47.2639733,8.6557195,,,,,,,,,,,663870306,node,"{""name"": ""Landungssteg Obermeilen"", ""source"": ""www.dive-links.com"", ""sport"": ""scuba_diving""}"
Pumpwerk Meilen,,47.271422,8.628337,,,,,,,,,,,663870307,node,"{""name"": ""Pumpwerk Meilen"", ""source"": ""www.dive-links.com"", ""sport"": ""scuba_diving""}"
Hafen Männedorf,,47.25219,8.6899499,,,,,,,,,,,663870309,node,"{""name"": ""Hafen M\u00e4nnedorf"", ""source"": ""www.dive-links.com"", ""sport"": ""scuba_diving""}"
Kehlhof,,47.2337502,8.7390447,,,,http://www.dive-links.com/tauchplatz.php?id=2578,,,,,,,663870312,node,"{""name"": ""Kehlhof"", ""scuba_diving:dangers"": ""ship"", ""scuba_diving:depth"": ""10"", ""scuba_diving:difficulty"": ""1"", ""scuba_diving:entry"": ""shore"", ""scuba_diving:maxdepth"": ""15"", ""scuba_diving:type"": ""wreck;biology;ooze"", ""sport"": ""scuba_diving"", ""website"": ""http://www.dive-links.com/tauchplatz.php?id=2578""}"
Park Thalwil,,47.30005,8.56348,,,,,,,,,,,663870314,node,"{""name"": ""Park Thalwil"", ""source"": ""www.dive-links.com"", ""sport"": ""scuba_diving""}"
Restaurant Bellevue,,47.2870229,8.606512,,,,,,,,,,,663870322,node,"{""name"": ""Restaurant Bellevue"", ""source"": ""www.dive-links.com"", ""sport"": ""scuba_diving""}"
Matterhorn,,47.287938,8.605428,,,,http://www.dive-links.com/tauchplatz.php?id=2588,,,,,,,663870323,node,"{""name"": ""Matterhorn"", ""scuba_diving:depth"": ""25"", ""scuba_diving:difficulty"": ""1"", ""scuba_diving:entry"": ""stair"", ""scuba_diving:type"": ""rocks"", ""source"": ""www.dive-links.com"", ""sport"": ""scuba_diving"", ""website"": ""http://www.dive-links.com/tauchplatz.php?id=2588""}"
Zentenhof,,47.29199,8.5724199,,,,,,,,,,,663870326,node,"{""name"": ""Zentenhof"", ""source"": ""www.dive-links.com"", ""sport"": ""scuba_diving""}"
Segelclub Herrliberg,,47.2894199,8.6034201,,,,,,,,,,,663870327,node,"{""name"": ""Segelclub Herrliberg"", ""source"": ""www.dive-links.com"", ""sport"": ""scuba_diving""}"
Strandbad Erlenbach,,47.2969926,8.596972,,,,,,,,,,,663870328,node,"{""name"": ""Strandbad Erlenbach"", ""source"": ""www.dive-links.com"", ""sport"": ""scuba_diving""}"
Strandbad Thalwil,,47.2889401,8.5740299,,,,,,,,,,,663870329,node,"{""name"": ""Strandbad Thalwil"", ""source"": ""www.dive-links.com"", ""sport"": ""scuba_diving""}"
Pflegeheim am See,,47.3086572,8.5839177,,,,http://www.dive-links.com/tauchplatz.php?id=2596,,,,,,,663870333,node,"{""name"": ""Pflegeheim am See"", ""scuba_diving:dangers"": ""ship,depth"", ""scuba_diving:depth"": ""35"", ""scuba_diving:difficulty"": ""2"", ""scuba_diving:entry"": ""shore"", ""scuba_diving:type"": ""wall"", ""source"": ""www.dive-links.com,survey"", ""sport"": ""scuba_diving"", ""website"": ""http://www.dive-links.com/tauchplatz.php?id=2596""}"
Seerettungsdienst,,47.3641612,8.77855,,,,,,,,,,,663870348,node,"{""name"": ""Seerettungsdienst"", ""source"": ""www.dive-links.com"", ""sport"": ""scuba_diving""}"
Tunnel 1,,47.13844,9.13011,,,,,,,,,,,663870352,node,"{""name"": ""Tunnel 1"", ""source"": ""www.dive-links.com"", ""sport"": ""scuba_diving""}"
Kraftwerk,,47.13816,9.13433,,,,,,,,,,,663870353,node,"{""name"": ""Kraftwerk"", ""source"": ""www.dive-links.com"", ""sport"": ""scuba_diving""}"
Ellikon am Rhein - Rüdlingen,,47.60566,8.59663,,,,,,,,,,,663870355,node,"{""name"": ""Ellikon am Rhein - R\u00fcdlingen"", ""source"": ""www.dive-links.com"", ""sport"": ""scuba_diving""}"
Tössegg-Eglisau,,47.5521,8.55464,,,,,,,,,,,663870357,node,"{""name"": ""T\u00f6ssegg-Eglisau"", ""source"": ""www.dive-links.com"", ""sport"": ""scuba_diving""}"
Camping-Strandbad,,47.6769595,8.7817286,,,,,,,,,,,663870359,node,"{""name"": ""Camping-Strandbad"", ""source"": ""www.dive-links.com"", ""sport"": ""scuba_diving""}"
Kloster,,47.6413895,8.6027099,,,,,,,,,,,663870361,node,"{""name"": ""Kloster"", ""source"": ""www.dive-links.com"", ""sport"": ""scuba_diving""}"
Hafen-Kloster,,47.6905157,8.7498325,,,,,,,,,,,663870362,node,"{""name"": ""Hafen-Kloster"", ""source"": ""www.dive-links.com"", ""sport"": ""scuba_diving""}"
Rheinau-Ellikon am Rhein,,47.63786,8.59688,,,,,,,,,,,663870364,node,"{""name"": ""Rheinau-Ellikon am Rhein"", ""source"": ""www.dive-links.com"", ""sport"": ""scuba_diving""}"
Schupfen-Camping,,47.6750952,8.7857067,,,,,,,,,,,663870365,node,"{""name"": ""Schupfen-Camping"", ""source"": ""www.dive-links.com"", ""sport"": ""scuba_diving""}"
Alte Brücke-Flurlingersteg,,47.69194,8.62694,,,,,,,,,,,663870368,node,"{""name"": ""Alte Br\u00fccke-Flurlingersteg"", ""source"": ""www.dive-links.com"", ""sport"": ""scuba_diving""}"
Brücke,,47.69425,8.64319,,,,,,,,,,,663870369,node,"{""name"": ""Br\u00fccke"", ""source"": ""www.dive-links.com"", ""sport"": ""scuba_diving""}"
Alte Zollbrücke,,47.64669,8.60297,,,,,,,,,,,663870370,node,"{""name"": ""Alte Zollbr\u00fccke"", ""source"": ""www.dive-links.com"", ""sport"": ""scuba_diving""}"
Eschenz-Stein am Rhein,,47.6513817,8.8835254,,,,,,,,,,,663870374,node,"{""alt_name"": ""Hafen Eschenz"", ""name"": ""Eschenz-Stein am Rhein"", ""sport"": ""scuba_diving""}"
Hemishofen-Rheinklingen,,47.67558,8.82911,,,,,,,,,,,663870375,node,"{""name"": ""Hemishofen-Rheinklingen"", ""source"": ""www.dive-links.com"", ""sport"": ""scuba_diving""}"
Rheinklingen-Schupfen,,47.67594,8.80861,,,,,,,,,,,663870376,node,"{""name"": ""Rheinklingen-Schupfen"", ""source"": ""www.dive-links.com"", ""sport"": ""scuba_diving""}"
Camping-Hemishofen,,47.66325,8.84245,,,,,,,,,,,663870377,node,"{""name"": ""Camping-Hemishofen"", ""source"": ""www.dive-links.com"", ""sport"": ""scuba_diving""}"
Brücke-Schifflände,,47.65855,8.85963,,,,,,,,,,,663870378,node,"{""name"": ""Br\u00fccke-Schiffl\u00e4nde"", ""source"": ""www.dive-links.com"", ""sport"": ""scuba_diving""}"
Brücke-Camping,,47.66047,8.85699,,,,,,,,,,,663870379,node,"{""name"": ""Br\u00fccke-Camping"", ""source"": ""www.dive-links.com"", ""sport"": ""scuba_diving""}"
Wildsau,,47.67481,9.02167,,,,http://www.dive-links.com/tauchplatz.php?id=2274,,,,,,,663870380,node,"{""name"": ""Wildsau"", ""source"": ""www.dive-links.com"", ""sport"": ""scuba_diving"", ""website"": ""http://www.dive-links.com/tauchplatz.php?id=2274""}"
Schifflände,,47.67547,9.01777,,,,,,,,,,,663870382,node,"{""name"": ""Schiffl\u00e4nde"", ""sport"": ""scuba_diving""}"
Restaurant Waaghaus,,47.6645504,9.1352181,,,,,,,,,,,663870383,node,"{""name"": ""Restaurant Waaghaus"", ""source"": ""www.dive-links.com"", ""sport"": ""scuba_diving""}"
Restaurant Schloss,,47.6670503,8.9803046,,,,,,,,,,,663870384,node,"{""name"": ""Restaurant Schloss"", ""source"": ""www.dive-links.com"", ""sport"": ""scuba_diving""}"
Landungssteg,,47.6683773,8.9815993,,,,,,,,,,,663870385,node,"{""name"": ""Landungssteg"", ""source"": ""www.dive-links.com"", ""sport"": ""scuba_diving""}"
Dorfbach,,47.66708,8.9803,,,,,,,,,,,663870387,node,"{""name"": ""Dorfbach"", ""source"": ""www.dive-links.com"", ""sport"": ""scuba_diving""}"
Baywatch,,47.67231,9.01035,,,,,,,,,,,663870388,node,"{""name"": ""Baywatch"", ""source"": ""www.dive-links.com"", ""sport"": ""scuba_diving""}"
Überlingen Seezeichen 24,,47.7696,9.13939,,,,http://www.dive-links.com/tauchplatz.php?id=2147,,,,,,,663870390,node,"{""name"": ""\u00dcberlingen Seezeichen 24"", ""source"": ""www.dive-links.com"", ""sport"": ""scuba_diving"", ""verified"": ""no, please check and del this tag"", ""website"": ""http://www.dive-links.com/tauchplatz.php?id=2147""}"
Wallhausen Steilwand,,47.749247,9.1326676,,,,http://www.dive-links.com/tauchplatz.php?id=2143,,,,,,,663870392,node,"{""name"": ""Wallhausen Steilwand"", ""source"": ""www.dive-links.com"", ""sport"": ""scuba_diving"", ""verified"": ""no, please check and del this tag"", ""website"": ""http://www.dive-links.com/tauchplatz.php?id=2143""}"
Tauchplatz Sipplingen,,47.7952161,9.0949661,,,,https://tauchteam-bodensee.de/tauchplaetze-bodensee/sipplingen,,,,,,,663870394,node,"{""alt_name"": ""Schiffl\u00e4nde"", ""name"": ""Tauchplatz Sipplingen"", ""sport"": ""scuba_diving"", ""website"": ""https://tauchteam-bodensee.de/tauchplaetze-bodensee/sipplingen""}"
Marienschlucht,,47.7660739,9.0959514,,,,http://www.dive-links.com/tauchplatz.php?id=2205,,,,,,,663870395,node,"{""name"": ""Marienschlucht"", ""source"": ""www.dive-links.com"", ""sport"": ""scuba_diving"", ""verified"": ""no, please check and del this tag"", ""website"": ""http://www.dive-links.com/tauchplatz.php?id=2205""}"
Teufelstisch,,47.75344,9.12475,,,,http://www.dive-links.com/tauchplatz.php?id=2207,,,,,,,663870396,node,"{""ft_symbol"": ""321"", ""name"": ""Teufelstisch"", ""source"": ""www.dive-links.com"", ""sport"": ""scuba_diving"", ""website"": ""http://www.dive-links.com/tauchplatz.php?id=2207""}"
Alter Hafen,,47.8012104,9.0375458,,,,http://www.dive-links.com/tauchplatz.php?id=2200,,,,,,,663870397,node,"{""name"": ""Alter Hafen"", ""source"": ""www.dive-links.com"", ""sport"": ""scuba_diving"", ""verified"": ""no, please check and del this tag"", ""website"": ""http://www.dive-links.com/tauchplatz.php?id=2200""}"
Rastplatz,,47.12394,9.14187,,,,,,,,,,,663870401,node,"{""name"": ""Rastplatz"", ""sport"": ""scuba_diving""}"
Schiffsstation Stralegg,,47.1344246,9.1459881,,,,,,,,,,,663870402,node,"{""name"": ""Schiffsstation Stralegg"", ""source"": ""www.dive-links.com"", ""sport"": ""scuba_diving""}"
Teufwinkel,,47.11614,9.18839,,,,,,,,,,,663870403,node,"{""name"": ""Teufwinkel"", ""source"": ""www.dive-links.com"", ""sport"": ""scuba_diving""}"
Lediwracks,,47.1167378,9.2930303,,,,,,,,,,,663870404,node,"{""historic"": ""wreck"", ""name"": ""Lediwracks"", ""scuba_diving:divespot"": ""yes"", ""scuba_diving:type:wreck"": ""yes"", ""seamark:type"": ""wreck"", ""source"": ""www.dive-links.com"", ""sport"": ""scuba_diving""}"
Hafen,,47.11306,9.20817,,,,,,,,,,,663870405,node,"{""name"": ""Hafen"", ""source"": ""www.dive-links.com"", ""sport"": ""scuba_diving""}"
Josen West,,47.1293,9.26487,,,,,,,,,,,663870406,node,"{""name"": ""Josen West"", ""source"": ""www.dive-links.com"", ""sport"": ""scuba_diving""}"
Bommerstein Hafen West,,47.11389,9.28686,,,,,,,,,,,663870407,node,"{""name"": ""Bommerstein Hafen West"", ""source"": ""www.dive-links.com"", ""sport"": ""scuba_diving""}"
Broder,,47.11427,9.27177,,,,,,,,,,,663870408,node,"{""name"": ""Broder"", ""source"": ""www.dive-links.com"", ""sport"": ""scuba_diving""}"
Äuli,,47.1292794,9.2752398,,,,,,,,,,,663870409,node,"{""name"": ""\u00c4uli"", ""source"": ""www.dive-links.com"", ""sport"": ""scuba_diving""}"
Bommerstein Hafen Ost,,47.11466,9.28828,,,,,,,,,,,663870410,node,"{""fixme"": ""check"", ""name"": ""Bommerstein Hafen Ost"", ""source"": ""www.dive-links.com"", ""sport"": ""scuba_diving""}"
Laui,,47.1296841,9.2059129,,,,,,,,,,,663870411,node,"{""name"": ""Laui"", ""source"": ""www.dive-links.com"", ""sport"": ""scuba_diving""}"
Seealpsee,,47.2694118,9.4002886,,,,,,,,,,,663870414,node,"{""name"": ""Seealpsee"", ""source"": ""www.dive-links.com"", ""sport"": ""scuba_diving""}"
Wiedenhorn,,47.53833,9.40042,,,,,,,,,,,663870417,node,"{""name"": ""Wiedenhorn"", ""source"": ""www.dive-links.com"", ""sport"": ""scuba_diving""}"
Mole Ost,,47.49652,9.46553,,,,,,,,,,,663870418,node,"{""name"": ""Mole Ost"", ""source"": ""www.dive-links.com"", ""sport"": ""scuba_diving""}"
Lädine,,47.54317,9.40456,,,,,,,,,,,663870419,node,"{""name"": ""L\u00e4dine"", ""source"": ""www.dive-links.com"", ""sport"": ""scuba_diving""}"
Badi,,47.48833,9.47717,,,,,,,,,,,663870422,node,"{""name"": ""Badi"", ""source"": ""www.dive-links.com"", ""sport"": ""scuba_diving""}"
Badi,,47.4965,9.4655,,,,,,,,,,,663870423,node,"{""name"": ""Badi"", ""source"": ""www.dive-links.com"", ""sport"": ""scuba_diving""}"
Seegarten,,47.6475,9.1988,,,,,,,,,,,663870425,node,"{""name"": ""Seegarten"", ""source"": ""www.dive-links.com"", ""sport"": ""scuba_diving""}"
Ansaugkörbe,,47.6508,9.20249,,,,,,,,,,,663870427,node,"{""name"": ""Ansaugk\u00f6rbe"", ""source"": ""www.dive-links.com"", ""sport"": ""scuba_diving""}"
Die Jura (Wrack),,47.6499984,9.2249979,,,,,,,,,,,663870428,node,"{""access"": ""yes"", ""historic"": ""wreck"", ""name"": ""Die Jura (Wrack)"", ""seamark:type"": ""wreck"", ""seamark:wreck:category"": ""non-dangerous"", ""sport"": ""scuba_diving"", ""start_date"": ""1854"", ""verified"": ""no, please check and del this tag"", ""wikidata"": ""Q1350799"", ""wikipedia"": ""de:Jura (Schiff, 1854)"", ""wreck:date_sunk"": ""1864-02-12"", ""wreck:visible_at_high_tide"": ""no"", ""wreck:visible_at_low_tide"": ""no""}"
Dingelsdorf,,47.7471694,9.1501277,,,,http://www.dive-links.com/tauchplatz.php?id=98,,,,,,,663870430,node,"{""is_in"": ""Konstanz,Konstanz,Freiburg,Baden-W\u00fcrttemberg,Bundesrepublik Deutschland,Europe"", ""name"": ""Dingelsdorf"", ""source"": ""www.dive-links.com"", ""sport"": ""scuba_diving"", ""website"": ""http://www.dive-links.com/tauchplatz.php?id=98""}"
Meersburg s’Plätzle,,47.6969526,9.2612358,,,,http://www.dive-links.com/tauchplatz.php?id=450,,,,,,,663870433,node,"{""fixme"": ""Tauchen, wo die F\u00e4hren fahren? Ziemlich bl\u00f6d, oder?"", ""name"": ""Meersburg s\u2019Pl\u00e4tzle"", ""source"": ""www.dive-links.com"", ""sport"": ""scuba_diving"", ""verified"": ""no, please check and del this tag"", ""website"": ""http://www.dive-links.com/tauchplatz.php?id=450""}"
Überlingen Parkplatz Post,,47.7642,9.1626,,,,http://www.dive-links.com/tauchplatz.php?id=2145,,,,,,,663870434,node,"{""name"": ""\u00dcberlingen Parkplatz Post"", ""source"": ""www.dive-links.com"", ""sport"": ""scuba_diving"", ""url"": ""http://www.dive-links.com/tauchplatz.php?id=2145""}"
Überlingen Tennisplatz,,47.7606368,9.1713676,,,,http://www.dive-links.com/tauchplatz.php?id=2144,,,,,,,663870435,node,"{""name"": ""\u00dcberlingen Tennisplatz"", ""source"": ""www.dive-links.com"", ""sport"": ""scuba_diving"", ""verified"": ""no, please check and del this tag"", ""website"": ""http://www.dive-links.com/tauchplatz.php?id=2144""}"
Liebesinsel,,47.76189,9.16888,,,,http://www.dive-links.com/tauchplatz.php?id=2204,,,,,,,663870436,node,"{""name"": ""Liebesinsel"", ""source"": ""www.dive-links.com"", ""sport"": ""scuba_diving"", ""verified"": ""no, please check and del this tag"", ""website"": ""http://www.dive-links.com/tauchplatz.php?id=2204""}"
Strandbad,,46.8152548,9.852155,,,,,,,,,,,663870442,node,"{""name"": ""Strandbad"", ""source"": ""www.dive-links.com"", ""sport"": ""scuba_diving""}"
Bootshaus,,46.82241,9.85076,,,,,,,,,,,663870443,node,"{""name"": ""Bootshaus"", ""source"": ""www.dive-links.com"", ""sport"": ""scuba_diving""}"
Galerie,,46.8170937,9.8468915,,,,,,,,,,,663870444,node,"{""name"": ""Galerie"", ""source"": ""www.dive-links.com"", ""sport"": ""scuba_diving""}"
Alter Stollen,,46.81522,9.85152,,,,,,,,,,,663870458,node,"{""name"": ""Alter Stollen"", ""source"": ""www.dive-links.com"", ""sport"": ""scuba_diving""}"
Blindsee,,47.3658667,10.8505,,,,http://www.dive-links.com/tauchplatz.php?id=321,,,,,,,663870467,node,"{""name"": ""Blindsee"", ""source"": ""www.dive-links.com"", ""sport"": ""scuba_diving"", ""verified"": ""no, please check and del this tag"", ""website"": ""http://www.dive-links.com/tauchplatz.php?id=321""}"
Plansee - Zone 3 (Planseecamp),,47.4868,10.8435,,,,http://www.dive-links.com/tauchplatz.php?id=324,,,,,,,663870468,node,"{""name"": ""Plansee - Zone 3 (Planseecamp)"", ""source"": ""www.dive-links.com"", ""sport"": ""scuba_diving"", ""website"": ""http://www.dive-links.com/tauchplatz.php?id=324""}"
Plansee - Zone 1 (Schotterparkplatz Kaiserbrunnen),,47.47695,10.8152833,,,,http://www.dive-links.com/tauchplatz.php?id=322,,,,,,,663870470,node,"{""name"": ""Plansee - Zone 1 (Schotterparkplatz Kaiserbrunnen)"", ""source"": ""www.dive-links.com"", ""sport"": ""scuba_diving"", ""verified"": ""no, please check and del this tag"", ""website"": ""http://www.dive-links.com/tauchplatz.php?id=322""}"
Immenhofener Weiher,,47.7995201,10.5946686,,,,http://www.dive-links.com/tauchplatz.php?id=1407,,,,,,,663870472,node,"{""name"": ""Immenhofener Weiher"", ""source"": ""www.dive-links.com"", ""sport"": ""scuba_diving"", ""verified"": ""no, please check and del this tag"", ""website"": ""http://www.dive-links.com/tauchplatz.php?id=1407""}"
Heiterwanger See - Tauchzone 2,,47.4528735,10.7688288,,,,http://www.dive-links.com/tauchplatz.php?id=2137,,,,,,,663870474,node,"{""name"": ""Heiterwanger See - Tauchzone 2"", ""source"": ""www.dive-links.com"", ""sport"": ""scuba_diving"", ""verified"": ""no, please check and del this tag"", ""website"": ""http://www.dive-links.com/tauchplatz.php?id=2137""}"
Heiterwanger See - Tauchzone 3,,47.45754,10.78877,,,,http://www.dive-links.com/tauchplatz.php?id=2138,,,,,,,663870475,node,"{""name"": ""Heiterwanger See - Tauchzone 3"", ""source"": ""www.dive-links.com"", ""sport"": ""scuba_diving"", ""verified"": ""no, please check and del this tag"", ""website"": ""http://www.dive-links.com/tauchplatz.php?id=2138""}"
Heiterwanger See - Tauchzone 1,,47.4572196,10.7617125,,,,http://www.dive-links.com/tauchplatz.php?id=2136,,,,,,,663870476,node,"{""name"": ""Heiterwanger See - Tauchzone 1"", ""source"": ""www.dive-links.com"", ""sport"": ""scuba_diving"", ""verified"": ""no, please check and del this tag"", ""website"": ""http://www.dive-links.com/tauchplatz.php?id=2136""}"
Streitköpfle,,49.1191666,8.3808333,,,,http://www.dive-links.com/tauchplatz.php?id=461,,,,,,,663870479,node,"{""name"": ""Streitk\u00f6pfle"", ""source"": ""www.dive-links.com"", ""sport"": ""scuba_diving"", ""verified"": ""no, please check and del this tag"", ""website"": ""http://www.dive-links.com/tauchplatz.php?id=461""}"
Hagenbacher See,,49.02,8.2494444,,,,http://www.dive-links.com/tauchplatz.php?id=439,,,,,,,663870481,node,"{""name"": ""Hagenbacher See"", ""source"": ""www.dive-links.com"", ""sport"": ""scuba_diving"", ""verified"": ""no, please check and del this tag"", ""website"": ""http://www.dive-links.com/tauchplatz.php?id=439""}"
Vogelsee,,48.3300493,7.781292,,,,http://www.dive-links.com/tauchplatz.php?id=2142,,,,,,,663870482,node,"{""name"": ""Vogelsee"", ""scuba_diving:entry"": ""shore"", ""source"": ""www.dive-links.com"", ""sport"": ""scuba_diving"", ""website"": ""http://www.dive-links.com/tauchplatz.php?id=2142""}"
Matschelsee,privater Tauchsee - nur an bestimmten Stellen können Nicht - Mitglieder parken und einsteigen!!! BITTE DRINGEND BEACHTEN UND RESPEKTIEREN,48.406,7.8161667,,,,http://www.dive-links.com/tauchplatz.php?id=1158,,,,,,,663870484,node,"{""description"": ""privater Tauchsee - nur an bestimmten Stellen k\u00f6nnen Nicht - Mitglieder parken und einsteigen!!! BITTE DRINGEND BEACHTEN UND RESPEKTIEREN"", ""name"": ""Matschelsee"", ""source"": ""www.dive-links.com"", ""sport"": ""scuba_diving"", ""verified"": ""no, please check and del this tag"", ""website"": ""http://www.dive-links.com/tauchplatz.php?id=1158""}"
Deglersee,,48.8718917,8.1453911,,,,https://www.rastatter-freizeitparadies.de/,,,,,,,663870485,node,"{""name"": ""Deglersee"", ""sport"": ""scuba_diving"", ""tourism"": ""attraction"", ""website"": ""https://www.rastatter-freizeitparadies.de/""}"
Bostalsee,,49.5652777,7.0722222,,,,http://www.dive-links.com/tauchplatz.php?id=423,,,,,,,663870487,node,"{""name"": ""Bostalsee"", ""source"": ""www.dive-links.com"", ""sport"": ""scuba_diving"", ""verified"": ""no, please check and del this tag"", ""website"": ""http://www.dive-links.com/tauchplatz.php?id=423""}"
Losheimer Stausee,,49.5168833,6.7327833,,,,http://www.dive-links.com/tauchplatz.php?id=422,,,,,,,663870488,node,"{""name"": ""Losheimer Stausee"", ""source"": ""www.dive-links.com"", ""sport"": ""scuba_diving"", ""verified"": ""no, please check and del this tag"", ""website"": ""http://www.dive-links.com/tauchplatz.php?id=422""}"
Baggersee Diez,,50.3705,7.9916667,,,,http://www.dive-links.com/tauchplatz.php?id=438,,,,,,,663870490,node,"{""name"": ""Baggersee Diez"", ""source"": ""www.dive-links.com"", ""sport"": ""scuba_diving"", ""verified"": ""no, please check and del this tag"", ""website"": ""http://www.dive-links.com/tauchplatz.php?id=438""}"
Ludwigshafen,,47.81555,9.05195,,,,http://www.dive-links.com/tauchplatz.php?id=451,,,,,,,663870493,node,"{""name"": ""Ludwigshafen"", ""source"": ""www.dive-links.com"", ""sport"": ""scuba_diving"", ""verified"": ""no, please check and del this tag"", ""website"": ""http://www.dive-links.com/tauchplatz.php?id=451""}"
Baggersee Spöck,,49.1281556,8.5081194,,,,http://www.dive-links.com/tauchplatz.php?id=1662,,,,,,,663870495,node,"{""name"": ""Baggersee Sp\u00f6ck"", ""source"": ""www.dive-links.com"", ""sport"": ""scuba_diving"", ""verified"": ""no, please check and del this tag"", ""website"": ""http://www.dive-links.com/tauchplatz.php?id=1662""}"
Büchenauer See (Alte Allmend),,49.0986488,8.534035,,,,,,,,,,,663870496,node,"{""check_date"": ""2024-01-25"", ""name"": ""B\u00fcchenauer See (Alte Allmend)"", ""scuba_diving:divespot"": ""yes"", ""scuba_diving:entry"": ""shore"", ""scuba_diving:type"": ""quarry"", ""sport"": ""scuba_diving""}"
Nagoldtalsperre / Erzgrube,,48.559106,8.4991512,,,,http://www.dive-links.com/tauchplatz.php?id=457,,,,,,,663870497,node,"{""name"": ""Nagoldtalsperre / Erzgrube"", ""source"": ""www.dive-links.com"", ""sport"": ""scuba_diving"", ""verified"": ""no, please check and del this tag"", ""website"": ""http://www.dive-links.com/tauchplatz.php?id=457""}"
Flaschentauchen,,49.0847753,8.5045099,,,,http://www.dive-links.com/tauchplatz.php?id=1663,,,,,,,663870498,node,"{""name"": ""Flaschentauchen"", ""source"": ""www.dive-links.com"", ""sport"": ""scuba_diving"", ""verified"": ""no, please check and del this tag"", ""website"": ""http://www.dive-links.com/tauchplatz.php?id=1663""}"
Baggersee Untergrombach (Metzgerallmend),,49.0968008,8.5516959,,,,,,,,,,,663870499,node,"{""check_date"": ""2024-01-25"", ""name"": ""Baggersee Untergrombach (Metzgerallmend)"", ""scuba_diving:divespot"": ""yes"", ""scuba_diving:entry"": ""shore"", ""scuba_diving:type"": ""quarry"", ""sport"": ""scuba_diving""}"
Kaiser See,,48.291403,10.440467,,,,http://www.dive-links.com/tauchplatz.php?id=2013,,,,,,,663870502,node,"{""name"": ""Kaiser See"", ""source"": ""www.dive-links.com"", ""sport"": ""scuba_diving"", ""verified"": ""no, please check and del this tag"", ""website"": ""http://www.dive-links.com/tauchplatz.php?id=2013""}"
Autobahnsee Elchingen,,48.448453,10.121622,,,,http://www.dive-links.com/tauchplatz.php?id=2000,,,,,,,663870504,node,"{""name"": ""Autobahnsee Elchingen"", ""source"": ""www.dive-links.com"", ""sport"": ""scuba_diving"", ""verified"": ""no, please check and del this tag"", ""website"": ""http://www.dive-links.com/tauchplatz.php?id=2000""}"
Bade- und Surfsee Thannhausen,,48.292037,10.445916,,,,http://www.dive-links.com/tauchplatz.php?id=2012,,,,,,,663870505,node,"{""name"": ""Bade- und Surfsee Thannhausen"", ""source"": ""www.dive-links.com"", ""sport"": ""scuba_diving"", ""verified"": ""no, please check and del this tag"", ""website"": ""http://www.dive-links.com/tauchplatz.php?id=2012""}"
Dietenheimer See,,48.22,10.0766666,,,,http://www.dive-links.com/tauchplatz.php?id=454,,,,,,,663870507,node,"{""name"": ""Dietenheimer See"", ""source"": ""www.dive-links.com"", ""sport"": ""scuba_diving"", ""verified"": ""no, please check and del this tag"", ""website"": ""http://www.dive-links.com/tauchplatz.php?id=454""}"
Südlicher Mooswaldsee (West),,48.487025,10.247375,,,,http://www.dive-links.com/tauchplatz.php?id=2005,,,,,,,663870510,node,"{""name"": ""S\u00fcdlicher Mooswaldsee (West)"", ""source"": ""www.dive-links.com"", ""sport"": ""scuba_diving"", ""verified"": ""no, please check and del this tag"", ""website"": ""http://www.dive-links.com/tauchplatz.php?id=2005""}"
Silbersee,,48.45702,10.38408,,,,http://www.dive-links.com/tauchplatz.php?id=2011,,,,,,,663870513,node,"{""name"": ""Silbersee"", ""source"": ""www.dive-links.com"", ""sport"": ""scuba_diving"", ""verified"": ""no, please check and del this tag"", ""website"": ""http://www.dive-links.com/tauchplatz.php?id=2011""}"
Neuer Erholungssee / Mooswaldsee West - östlicher Teil,,48.478436,10.237738,,,,http://www.dive-links.com/tauchplatz.php?id=2008,,,,,,,663870514,node,"{""name"": ""Neuer Erholungssee / Mooswaldsee West - \u00f6stlicher Teil"", ""source"": ""www.dive-links.com"", ""sport"": ""scuba_diving"", ""verified"": ""no, please check and del this tag"", ""website"": ""http://www.dive-links.com/tauchplatz.php?id=2008""}"
Lutzenberger See - Teil Ost,,48.4786718,10.2886524,,,,http://www.dive-links.com/tauchplatz.php?id=2009,,,,,,,663870515,node,"{""name"": ""Lutzenberger See - Teil Ost"", ""source"": ""www.dive-links.com"", ""sport"": ""scuba_diving"", ""verified"": ""no, please check and del this tag"", ""website"": ""http://www.dive-links.com/tauchplatz.php?id=2009""}"
Südlicher Mooswaldsee (Ost),,48.488488,10.252153,,,,http://www.dive-links.com/tauchplatz.php?id=2006,,,,,,,663870516,node,"{""name"": ""S\u00fcdlicher Mooswaldsee (Ost)"", ""source"": ""www.dive-links.com"", ""sport"": ""scuba_diving"", ""verified"": ""no, please check and del this tag"", ""website"": ""http://www.dive-links.com/tauchplatz.php?id=2006""}"
Mehrlesee,,48.485836,10.25101,,,,http://www.dive-links.com/tauchplatz.php?id=2007,,,,,,,663870518,node,"{""name"": ""Mehrlesee"", ""source"": ""www.dive-links.com"", ""sport"": ""scuba_diving"", ""verified"": ""no, please check and del this tag"", ""website"": ""http://www.dive-links.com/tauchplatz.php?id=2007""}"
Risskiessee Laupheim,,48.2138333,9.8445,,,,http://www.dive-links.com/tauchplatz.php?id=1160,,,,,,,663870519,node,"{""name"": ""Risskiessee Laupheim"", ""source"": ""www.dive-links.com"", ""sport"": ""scuba_diving"", ""verified"": ""no, please check and del this tag"", ""website"": ""http://www.dive-links.com/tauchplatz.php?id=1160""}"
Pilsensee,,48.0244444,11.1877777,,,,http://www.dive-links.com/tauchplatz.php?id=1593,,,,,,,663870521,node,"{""name"": ""Pilsensee"", ""source"": ""www.dive-links.com"", ""sport"": ""scuba_diving"", ""verified"": ""no, please check and del this tag"", ""website"": ""http://www.dive-links.com/tauchplatz.php?id=1593""}"
Ilsesee Taucherbucht,,48.2809,10.9019167,,,,http://www.dive-links.com/tauchplatz.php?id=1,,,,,,,663870523,node,"{""name"": ""Ilsesee Taucherbucht"", ""scuba_diving:entry"": ""shore"", ""scuba_diving:maxdepth"": ""15m"", ""source"": ""www.dive-links.com"", ""sport"": ""scuba_diving"", ""website"": ""http://www.dive-links.com/tauchplatz.php?id=1""}"
Kleiner Brombachsee,,49.1327777,10.8725,,,,http://www.dive-links.com/tauchplatz.php?id=1207,,,,,,,663870526,node,"{""name"": ""Kleiner Brombachsee"", ""source"": ""www.dive-links.com"", ""sport"": ""scuba_diving"", ""verified"": ""no, please check and del this tag"", ""website"": ""http://www.dive-links.com/tauchplatz.php?id=1207""}"
Großer Brombachsee - Tauchbasis Brombachsee,,49.138471,10.897014,,,,http://www.dive-links.com/tauchplatz.php?id=1206,,,,,,,663870527,node,"{""name"": ""Gro\u00dfer Brombachsee - Tauchbasis Brombachsee"", ""source"": ""www.dive-links.com"", ""sport"": ""scuba_diving"", ""website"": ""http://www.dive-links.com/tauchplatz.php?id=1206""}"
Almsee,,48.5432833,10.5075222,,,,http://www.dive-links.com/tauchplatz.php?id=1590,,,,,,,663870530,node,"{""name"": ""Almsee"", ""source"": ""www.dive-links.com"", ""sport"": ""scuba_diving"", ""verified"": ""no, please check and del this tag"", ""website"": ""http://www.dive-links.com/tauchplatz.php?id=1590""}"
Marxweiher,,49.4055,8.4861667,,,,http://www.dive-links.com/tauchplatz.php?id=1026,,,,,,,663870534,node,"{""name"": ""Marxweiher"", ""source"": ""www.dive-links.com"", ""sport"": ""scuba_diving"", ""verified"": ""no, please check and del this tag"", ""website"": ""http://www.dive-links.com/tauchplatz.php?id=1026""}"
Gänsedrecksee (Taucheinstieg Nord),,49.3630494,8.4605917,,,,http://www.binsfeld.xl-network.de,,,,,,,663870537,node,"{""name"": ""G\u00e4nsedrecksee (Taucheinstieg Nord)"", ""sport"": ""scuba_diving"", ""website"": ""http://www.binsfeld.xl-network.de""}"
Rheinauer See,,49.4133333,8.5336,,,,http://www.dive-links.com/tauchplatz.php?id=458,,,,,,,663870538,node,"{""name"": ""Rheinauer See"", ""source"": ""www.dive-links.com"", ""sport"": ""scuba_diving"", ""verified"": ""no, please check and del this tag"", ""website"": ""http://www.dive-links.com/tauchplatz.php?id=458""}"
Jägerweiher,,49.4235671,8.4673162,,,,http://www.dive-links.com/tauchplatz.php?id=1596,,,,,,,663870541,node,"{""name"": ""J\u00e4gerweiher"", ""source"": ""www.dive-links.com"", ""sport"": ""scuba_diving"", ""verified"": ""no, please check and del this tag"", ""website"": ""http://www.dive-links.com/tauchplatz.php?id=1596""}"
Erlichsee,,49.2666667,8.5,,,,http://www.dive-links.com/tauchplatz.php?id=1156,,,,,,,663870542,node,"{""name"": ""Erlichsee"", ""source"": ""www.dive-links.com"", ""sport"": ""scuba_diving"", ""verified"": ""no, please check and del this tag"", ""website"": ""http://www.dive-links.com/tauchplatz.php?id=1156""}"
