name,description,lat,lon,country,region,city,website,phone,email,difficulty,max_depth,entry_type,site_type,osm_id,osm_type,tags
D'Lagoon,,5.9324021,102.7232596,,,,,,,,,,,497187649,node,"{""name"": ""D'Lagoon"", ""name:en"": ""D'Lagoon"", ""natural"": ""reef"", ""reef"": ""coral"", ""scuba_diving:divespot"": ""yes"", ""sport"": ""scuba_diving""}"
Lumba Lumba,,5.85311,95.26947,,,,https://www.lumbalumba.com/,,,,,,,702721191,node,"{""amenity"": ""dive_centre"", ""name"": ""Lumba Lumba"", ""sport"": ""scuba_diving"", ""website"": ""https://www.lumbalumba.com/""}"
Arus Balee,,5.8909494,95.2540915,,,,,,,,,,,1075353141,node,"{""name"": ""Arus Balee"", ""sport"": ""scuba_diving""}"
Rubiah Tirta Divers,,5.875108,95.2555745,,,,,,,,,,,1280037893,node,"{""amenity"": ""dive_centre"", ""name"": ""Rubiah Tirta Divers"", ""sport"": ""scuba_diving""}"
Gili Mimpang,"Nearby this area, Living Seas has set up coral reef restoration projects. This is a drift dive, with potential for strong currents. Swim south 5 minutes to get to coral restoration site.",-8.526092,115.576321,,,,,,,,,,,1314452590,node,"{""description"": ""Nearby this area, Living Seas has set up coral reef restoration projects. This is a drift dive, with potential for strong currents. Swim south 5 minutes to get to coral restoration site."", ""name"": ""Gili Mimpang"", ""place"": ""islet"", ""scuba_diving:dangers:current"": ""yes"", ""scuba_diving:depth"": ""20"", ""scuba_diving:entry"": ""boat"", ""scuba_diving:type:boat"": ""yes"", ""sport"": ""scuba_diving""}"
B&J,,2.8445464,104.1593501,,,,,,,,,,,1477783194,node,"{""amenity"": ""dive_centre"", ""contact:website"": ""www.divetioman.com"", ""name"": ""B&J"", ""name:en"": ""B&J"", ""name:ms"": ""B&J"", ""sport"": ""scuba_diving""}"
Blue Heaven Divers,,2.8450198,104.1594256,,,,,,,,,,,1477783198,node,"{""amenity"": ""dive_centre"", ""name"": ""Blue Heaven Divers"", ""name:en"": ""Blue Heaven Divers"", ""sport"": ""scuba_diving""}"
Pantai Merah,,-8.6009657,119.5261842,,,,,,,,,,,1485422409,node,"{""name"": ""Pantai Merah"", ""scuba_diving:type:reef"": ""yes"", ""sport"": ""scuba_diving""}"
Crystal Divers,,-8.6962994,115.2633405,,,,,,,,,,,1573518443,node,"{""amenity"": ""dive_centre"", ""name"": ""Crystal Divers"", ""sport"": ""scuba_diving""}"
Turtle Bay Divers,,5.9188107,102.7218206,,,,,+60 19-333 6647,turtlebay93@gmail.com,,,,,1724060418,node,"{""amenity"": ""dive_centre"", ""contact:website"": ""turtlebaydivers.com"", ""email"": ""turtlebay93@gmail.com"", ""league"": ""SSI"", ""name"": ""Turtle Bay Divers"", ""name:en"": ""Turtle Bay Divers"", ""phone"": ""+60 19-333 6647"", ""scuba_diving:courses"": ""yes"", ""sport"": ""scuba_diving""}"
Redang - Black Coral,,5.7739661,103.058764,,,,,,,,,,,1735154888,node,"{""name"": ""Redang - Black Coral"", ""name:en"": ""Redang - Black Coral"", ""scuba_diving:entry"": ""boat"", ""source"": ""GPS"", ""sport"": ""scuba_diving""}"
Redang - Che Isa,,5.7598668,103.0361363,,,,,,,,,,,1735154889,node,"{""name"": ""Redang - Che Isa"", ""scuba_diving:entry"": ""boat"", ""source"": ""GPS"", ""sport"": ""scuba_diving""}"
Redang - Paku Besar,,5.7801875,103.0436756,,,,,,,,,,,1735154892,node,"{""name"": ""Redang - Paku Besar"", ""name:ms"": ""Redang - Paku Besar"", ""scuba_diving:entry"": ""boat"", ""source"": ""GPS"", ""sport"": ""scuba_diving""}"
Redang - South Tip,,5.7713972,103.0600953,,,,,,,,,,,1735154903,node,"{""name"": ""Redang - South Tip"", ""name:en"": ""Redang - South Tip"", ""scuba_diving:entry"": ""boat"", ""source"": ""GPS"", ""sport"": ""scuba_diving""}"
Redang - Tanjung Tokong,,5.8185762,103.0100904,,,,,,,,,,,1735154904,node,"{""name"": ""Redang - Tanjung Tokong"", ""name:ms"": ""Redang - Tanjung Tokong"", ""scuba_diving:entry"": ""boat"", ""source"": ""GPS"", ""sport"": ""scuba_diving""}"
Redang - Tanjung Lebah,,5.7852544,102.9885185,,,,,,,,,,,1735154906,node,"{""name"": ""Redang - Tanjung Lebah"", ""name:ms"": ""Redang - Tanjung Lebah"", ""scuba_diving:entry"": ""boat"", ""source"": ""GPS"", ""sport"": ""scuba_diving""}"
Redang - Terumbu Kili,,5.7318676,102.9974686,,,,,,,,,,,1735154911,node,"{""name"": ""Redang - Terumbu Kili"", ""name:en"": ""Redang - Terumbu Kili"", ""name:ms"": ""Redang - Terumbu Kili"", ""scuba_diving:entry"": ""boat"", ""source"": ""GPS"", ""sport"": ""scuba_diving""}"
Snorkeling,,-8.504462,119.7539356,,,,,,,,,,,1889229417,node,"{""name"": ""Snorkeling"", ""sport"": ""scuba_diving""}"
Diving Spot,,-5.7374257,106.6148005,,,,,,,,,,,2132034785,node,"{""name"": ""Diving Spot"", ""sport"": ""scuba_diving"", ""tourism"": ""attraction""}"
Diving Spot,,-5.7381859,106.5909032,,,,,,,,,,,2132034786,node,"{""name"": ""Diving Spot"", ""sport"": ""scuba_diving"", ""tourism"": ""attraction""}"
Diving Spot,,-5.7389038,106.6207854,,,,,,,,,,,2132034787,node,"{""name"": ""Diving Spot"", ""sport"": ""scuba_diving"", ""tourism"": ""attraction""}"
Diving Spot,,-5.7393262,106.6197667,,,,,,,,,,,2132034788,node,"{""name"": ""Diving Spot"", ""sport"": ""scuba_diving"", ""tourism"": ""attraction""}"
Diving Spot,,-5.7457879,106.5892053,,,,,,,,,,,2132034789,node,"{""name"": ""Diving Spot"", ""sport"": ""scuba_diving"", ""tourism"": ""attraction""}"
Diving Spot,,-5.7478151,106.6018119,,,,,,,,,,,2132034790,node,"{""name"": ""Diving Spot"", ""sport"": ""scuba_diving"", ""tourism"": ""attraction""}"
Diving Spot,,-5.7505602,106.6094098,,,,,,,,,,,2132034791,node,"{""name"": ""Diving Spot"", ""sport"": ""scuba_diving"", ""tourism"": ""attraction""}"
NAD Lembeh,,1.4447743,125.2409649,,,,,,,,,,,2138645003,node,"{""name"": ""NAD Lembeh"", ""sport"": ""scuba_diving""}"
Seraya Beach Dive Site,,-8.2956657,115.611935,,,,,,,,,,,2327924608,node,"{""amenity"": ""dive_centre"", ""name"": ""Seraya Beach Dive Site"", ""sport"": ""scuba_diving""}"
Buddha Dive,,-8.3565541,116.0419207,,,,,,,,,,,2380049552,node,"{""add_on_accomodation"": ""has_accomodation"", ""name"": ""Buddha Dive"", ""sport"": ""scuba_diving""}"
Diversia,,-8.353901,116.043225,,,,,,,,,,,2380049819,node,"{""name"": ""Diversia"", ""sport"": ""scuba_diving""}"
Dream Divers,,-8.3556456,116.0423765,,,,,,,,,,,2380049832,node,"{""add_on_accomodation"": ""has_accomodation"", ""amenity"": ""bar"", ""name"": ""Dream Divers"", ""sport"": ""scuba_diving""}"
Gili Divers,,-8.3499681,116.0436071,,,,,,,,,,,2380050044,node,"{""add_on_accomodation"": ""has_accomodation"", ""add_on_restaurant"": ""has_restaurant"", ""name"": ""Gili Divers"", ""sport"": ""scuba_diving""}"
Gili Scuba Diving,Brothers Bungalows and Restaurant is attached,-8.3481208,116.042683,,,,,,,,,,,2380050107,node,"{""add_on_accomodation"": ""has_accomodation"", ""description"": ""Brothers Bungalows and Restaurant is attached"", ""name"": ""Gili Scuba Diving"", ""sport"": ""scuba_diving""}"
IQ Divers,Pondo Windy is the attached accomodation facility,-8.3392471,116.0396139,,,,,,,,,,,2380050249,node,"{""add_on_accomodation"": ""has_accomodation"", ""description"": ""Pondo Windy is the attached accomodation facility"", ""name"": ""IQ Divers"", ""sport"": ""scuba_diving""}"
IQ Divers,"IQ Divers Gili Trawangan, Accomodation in Coral 2 Bungalows",-8.3452962,116.0418864,,,,,,,,,,,2380050253,node,"{""add_on_accomodation"": ""no"", ""description"": ""IQ Divers Gili Trawangan, Accomodation in Coral 2 Bungalows"", ""name"": ""IQ Divers"", ""sport"": ""scuba_diving""}"
Lutwala Dive,"PADI courses, fun dives snorkeling, accommodation",-8.3393817,116.0370424,,,,http://www.lutwala.com/,+62818-0544-0818,lutwaladive@gmail.com,,,,,2380050379,node,"{""add_on_accomodation"": ""has_accomodation"", ""description"": ""PADI courses, fun dives snorkeling, accommodation"", ""email"": ""lutwaladive@gmail.com"", ""name"": ""Lutwala Dive"", ""phone"": ""+62818-0544-0818"", ""sport"": ""scuba_diving"", ""website"": ""http://www.lutwala.com/""}"
Mango Dive,,-8.3471433,116.0423383,,,,,,,,,,,2380050388,node,"{""add_on_accomodation"": ""has_accomodation"", ""add_on_restaurant"": ""no"", ""name"": ""Mango Dive"", ""sport"": ""scuba_diving""}"
Manta Dive Gili Trawangan,Scuba Diving Center and Resort Accommodation,-8.3534138,116.043377,,,,https://manta-dive.com/,,,,,,,2380050395,node,"{""add_on_accomodation"": ""has_accomodation"", ""add_on_restaurant"": ""has_restaurant"", ""description"": ""Scuba Diving Center and Resort Accommodation"", ""name"": ""Manta Dive Gili Trawangan"", ""sport"": ""scuba_diving"", ""website"": ""https://manta-dive.com/""}"
Trawangan Dive,,-8.3494634,116.0432521,,,,https://www.trawangandive.com/,,,,,,,2380051009,node,"{""add_on_accomodation"": ""has_accomodation"", ""add_on_restaurant"": ""has_restaurant"", ""name"": ""Trawangan Dive"", ""sport"": ""scuba_diving"", ""website"": ""https://www.trawangandive.com/""}"
Air Wall,source is Diveschool Notice Board - Location might have to be checked with a GPS,-8.3528396,116.0738278,,,,,,,,,,,2395669745,node,"{""name"": ""Air Wall"", ""note"": ""source is Diveschool Notice Board - Location might have to be checked with a GPS"", ""sport"": ""scuba_diving""}"
Bounty,source is Diveschool Notice Board - Location might have to be checked with a GPS,-8.3568341,116.0512706,,,,,,,,,,,2395669747,node,"{""name"": ""Bounty"", ""note"": ""source is Diveschool Notice Board - Location might have to be checked with a GPS"", ""sport"": ""scuba_diving""}"
Deep Turbo,source is Diveschool Notice Board - Location might have to be checked with a GPS,-8.3367441,116.0462579,,,,,,,,,,,2395669748,node,"{""name"": ""Deep Turbo"", ""note"": ""source is Diveschool Notice Board - Location might have to be checked with a GPS"", ""sport"": ""scuba_diving""}"
Frog Fish Point,source is Diveschool Notice Board - Location might have to be checked with a GPS,-8.3474561,116.0886552,,,,,,,,,,,2395669749,node,"{""name"": ""Frog Fish Point"", ""note"": ""source is Diveschool Notice Board - Location might have to be checked with a GPS"", ""sport"": ""scuba_diving""}"
Halik,source is Diveschool Notice Board - Location might have to be checked with a GPS,-8.336235,116.038308,,,,,,,,,,,2395669750,node,"{""name"": ""Halik"", ""note"": ""source is Diveschool Notice Board - Location might have to be checked with a GPS"", ""scuba_diving:type"": ""snorkeling"", ""sport"": ""scuba_diving"", ""tourism"": ""attraction""}"
Jack Point,source is Diveschool Notice Board - Location might have to be checked with a GPS,-8.337684,116.0255805,,,,,,,,,,,2395669751,node,"{""name"": ""Jack Point"", ""note"": ""source is Diveschool Notice Board - Location might have to be checked with a GPS"", ""sport"": ""scuba_diving""}"
Malang,source is Diveschool Notice Board - Location might have to be checked with a GPS,-8.3296167,116.0701857,,,,,,,,,,,2395669752,node,"{""name"": ""Malang"", ""note"": ""source is Diveschool Notice Board - Location might have to be checked with a GPS"", ""sport"": ""scuba_diving""}"
Manta Point,source is Diveschool Notice Board - Location might have to be checked with a GPS,-8.363335,116.0265987,,,,,,,,,,,2395669753,node,"{""name"": ""Manta Point"", ""note"": ""source is Diveschool Notice Board - Location might have to be checked with a GPS"", ""sport"": ""scuba_diving""}"
Meno Corner,source is Diveschool Notice Board - Location might have to be checked with a GPS,-8.3588705,116.0625884,,,,,,,,,,,2395669754,node,"{""name"": ""Meno Corner"", ""note"": ""source is Diveschool Notice Board - Location might have to be checked with a GPS"", ""sport"": ""scuba_diving""}"
Meno Slope,source is Diveschool Notice Board - Location might have to be checked with a GPS,-8.3517823,116.0500957,,,,,,,,,,,2395669755,node,"{""name"": ""Meno Slope"", ""note"": ""source is Diveschool Notice Board - Location might have to be checked with a GPS"", ""sport"": ""scuba_diving""}"
Meno Wall,source is Diveschool Notice Board - Location might have to be checked with a GPS,-8.3452031,116.0498999,,,,,,,,,,,2395669756,node,"{""name"": ""Meno Wall"", ""note"": ""source is Diveschool Notice Board - Location might have to be checked with a GPS"", ""sport"": ""scuba_diving""}"
Mirkos Reef,source is Diveschool Notice Board - Location might have to be checked with a GPS,-8.3510773,116.0657213,,,,,,,,,,,2395669757,node,"{""name"": ""Mirkos Reef"", ""note"": ""source is Diveschool Notice Board - Location might have to be checked with a GPS"", ""sport"": ""scuba_diving""}"
Shallow Turbo,source is Diveschool Notice Board - Location might have to be checked with a GPS,-8.3395246,116.0440257,,,,,,,,,,,2395669758,node,"{""name"": ""Shallow Turbo"", ""note"": ""source is Diveschool Notice Board - Location might have to be checked with a GPS"", ""scuba_diving:type"": ""snorkeling"", ""sport"": ""scuba_diving"", ""tourism"": ""attraction""}"
Shark Point,source is Diveschool Notice Board - Location might have to be checked with a GPS,-8.3425401,116.0236615,,,,,,,,,,,2395669759,node,"{""name"": ""Shark Point"", ""note"": ""source is Diveschool Notice Board - Location might have to be checked with a GPS"", ""sport"": ""scuba_diving""}"
Simons Reef,source is Diveschool Notice Board - Location might have to be checked with a GPS,-8.3347077,116.065643,,,,,,,,,,,2395669760,node,"{""name"": ""Simons Reef"", ""note"": ""source is Diveschool Notice Board - Location might have to be checked with a GPS"", ""sport"": ""scuba_diving""}"
Segaluh,source is Diveschool Notice Board - Location might have to be checked with a GPS,-8.3344744,116.0982787,,,,,,,,,,,2395670512,node,"{""name"": ""Segaluh"", ""note"": ""source is Diveschool Notice Board - Location might have to be checked with a GPS"", ""sport"": ""scuba_diving""}"
Teluk NBoro,source is Diveschool Notice Board - Location might have to be checked with a GPS,-8.4042153,116.0591248,,,,,,,,,,,2395670513,node,"{""name"": ""Teluk NBoro"", ""note"": ""source is Diveschool Notice Board - Location might have to be checked with a GPS"", ""sport"": ""scuba_diving""}"
Blue Marlin Dive Gili Meno,,-8.3536363,116.0614862,,,,,,,,,,,2400060177,node,"{""amenity"": ""dive_centre"", ""name"": ""Blue Marlin Dive Gili Meno"", ""operator"": ""Blue Marlin Dive"", ""sport"": ""scuba_diving""}"
Gili Meno Divers,,-8.356845,116.061075,,,,,,,,,,,2400060189,node,"{""amenity"": ""dive_centre"", ""name"": ""Gili Meno Divers"", ""sport"": ""scuba_diving""}"
Trawangan Wall,source is Diveschool Notice Board - Location might have to be checked with a GPS,-8.3465756,116.0436158,,,,,,,,,,,2400061876,node,"{""location"": ""underwater"", ""name"": ""Trawangan Wall"", ""note"": ""source is Diveschool Notice Board - Location might have to be checked with a GPS"", ""scuba_diving:type"": ""snorkeling"", ""sport"": ""scuba_diving"", ""tourism"": ""attraction""}"
Quiver Dive Team,,5.9152021,102.7166339,,,,http://www.quiver-perhentian.com/,+60 12-213 8885,info@quiver-perhentian.com,,,,,2451022843,node,"{""amenity"": ""dive_centre"", ""email"": ""info@quiver-perhentian.com"", ""league"": ""SSI"", ""name"": ""Quiver Dive Team"", ""name:en"": ""Quiver Dive Team"", ""opening_hours"": ""Mar-Nov 08:00-21:00"", ""phone"": ""+60 12-213 8885"", ""scuba_diving:education"": ""yes"", ""sport"": ""scuba_diving"", ""website"": ""http://www.quiver-perhentian.com/""}"
Bomba atoll,,-0.4509069,121.6356468,,,,,,,,,,,2455239522,node,"{""name"": ""Bomba atoll"", ""sport"": ""scuba_diving""}"
Stevan reef,,-0.5333334,121.6311111,,,,,,,,,,,2455239523,node,"{""name"": ""Stevan reef"", ""sport"": ""scuba_diving""}"
Katrin reef,,-0.4952778,121.6188889,,,,,,,,,,,2455239524,node,"{""name"": ""Katrin reef"", ""sport"": ""scuba_diving""}"
USAT Liberty Wreck,From underwater 4m down to 35m,-8.2739054,115.5926122,,,,,,,,,,,2480654035,node,"{""description"": ""From underwater 4m down to 35m"", ""name"": ""USAT Liberty Wreck"", ""scuba_diving:type:apnoe"": ""yes"", ""scuba_diving:type:attraction"": ""yes"", ""scuba_diving:type:reef"": ""yes"", ""sport"": ""scuba_diving"", ""tourism"": ""attraction"", ""wikidata"": ""Q2468064"", ""wikimedia_commons"": ""Category:USAT Liberty (ship, 1918)"", ""wikipedia"": ""en:USAT Liberty""}"
Dream Divers,,-8.4992844,116.0494196,,,,,,,,,,,2678338391,node,"{""name"": ""Dream Divers"", ""source"": ""survey"", ""source:date"": ""2013-12-20"", ""sport"": ""scuba_diving""}"
Coral Garden,,-8.0918367,114.522414,,,,,,,,,,,2888289769,node,"{""name"": ""Coral Garden"", ""sport"": ""scuba_diving""}"
Bat Cave,,-8.093384,114.5289757,,,,,,,,,,,2888289770,node,"{""name"": ""Bat Cave"", ""sport"": ""scuba_diving""}"
Manta Point,,-8.7947861,115.5259217,,,,,,,,,,,2907339692,node,"{""name"": ""Manta Point"", ""sport"": ""scuba_diving"", ""tourism"": ""attraction""}"
Underwater Shrine,,-8.3376207,115.6610709,,,,,,,,,,,2969866045,node,"{""name"": ""Underwater Shrine"", ""scuba_diving:depth"": ""29"", ""scuba_diving:type"": ""artificial_reef"", ""sport"": ""scuba_diving"", ""tourism"": ""attraction""}"
Dive Central Gili,Opened in 2014,-8.3557311,116.042323,,,,https://www.divecentralgili.com/,,,,,,,2991853840,node,"{""amenity"": ""dive_centre"", ""name"": ""Dive Central Gili"", ""note"": ""Opened in 2014"", ""sport"": ""scuba_diving"", ""website"": ""https://www.divecentralgili.com/""}"
Turtle Point,,4.8067485,103.6757397,,,,,,,,,,,3033956548,node,"{""name"": ""Turtle Point"", ""name:en"": ""Turtle Point"", ""sport"": ""scuba_diving""}"
Moonraker,,4.8491695,103.6628673,,,,,,,,,,,3033956549,node,"{""name"": ""Moonraker"", ""name:en"": ""Moonraker"", ""sport"": ""scuba_diving""}"
Five Sisters,,4.8061498,103.6743471,,,,,,,,,,,3033956550,node,"{""name"": ""Five Sisters"", ""name:en"": ""Five Sisters"", ""sport"": ""scuba_diving""}"
Tanjung Gemuk,,4.8054004,103.6730597,,,,,,,,,,,3033956551,node,"{""name"": ""Tanjung Gemuk"", ""name:ms"": ""Tanjung Gemuk"", ""sport"": ""scuba_diving""}"
Tokong Timur,,4.781988,103.6884539,,,,,,,,,,,3033956552,node,"{""name"": ""Tokong Timur"", ""name:ms"": ""Tokong Timur"", ""sport"": ""scuba_diving""}"
Coral Garden,,4.8057222,103.68752,,,,,,,,,,,3033956553,node,"{""name"": ""Coral Garden"", ""name:en"": ""Coral Garden"", ""sport"": ""scuba_diving""}"
Rajawali Reef,,4.8164132,103.678703,,,,,,,,,,,3033956554,node,"{""name"": ""Rajawali Reef"", ""name:en"": ""Rajawali Reef"", ""sport"": ""scuba_diving""}"
Amazing Grace,,4.8421138,103.6643049,,,,,,,,,,,3033956556,node,"{""name"": ""Amazing Grace"", ""name:en"": ""Amazing Grace"", ""sport"": ""scuba_diving""}"
Mama Dive,,-8.337772,115.6587537,,,,,,,,,,,3477854124,node,"{""leisure"": ""sports_centre"", ""name"": ""Mama Dive"", ""sport"": ""scuba_diving""}"
Bali Aqua Diving,,-8.7057514,115.2531295,,,,,,,,,,,3546785648,node,"{""name"": ""Bali Aqua Diving"", ""sport"": ""scuba_diving""}"
Bali Scuba,,-8.7057211,115.2528946,,,,,,,,,,,3546785649,node,"{""name"": ""Bali Scuba"", ""sport"": ""scuba_diving""}"
Shark Point,,5.884488,102.747377,,,,,,,,,,,3679672730,node,"{""name"": ""Shark Point"", ""name:en"": ""Shark Point"", ""scuba_diving:divespot"": ""yes"", ""sport"": ""scuba_diving""}"
PADI Hammerhead Bali Dive,,-8.7681895,115.2217763,,,,,,,,,,,3739211502,node,"{""name"": ""PADI Hammerhead Bali Dive"", ""sport"": ""scuba_diving""}"
PADI Bali Scuba Masters,,-8.7726382,115.2223979,,,,,,,,,,,3739211534,node,"{""name"": ""PADI Bali Scuba Masters"", ""sport"": ""scuba_diving""}"
Marta Dive,,-8.2753636,115.5904646,,,,,,,,,,,3744065624,node,"{""name"": ""Marta Dive"", ""sport"": ""scuba_diving""}"
Paradise Diving,,-8.2738721,115.5904903,,,,,,,,,,,3744068661,node,"{""amenity"": ""dive_centre"", ""name"": ""Paradise Diving"", ""sport"": ""scuba_diving""}"
Blue Hill Dive Site,,-8.2875992,115.6050638,,,,,,,,,,,3747662782,node,"{""name"": ""Blue Hill Dive Site"", ""sport"": ""scuba_diving""}"
Water Walk,,-8.7065673,115.2631469,,,,,,,,,,,3909173262,node,"{""name"": ""Water Walk"", ""sport"": ""scuba_diving""}"
Shark Diving Indonesia,,2.0485481,128.2931263,,,,,,,,,,,3926230835,node,"{""name"": ""Shark Diving Indonesia"", ""sport"": ""scuba_diving""}"
Dive site,,0.7595679,127.3674439,,,,,,,,,,,3926231868,node,"{""building"": ""yes"", ""name"": ""Dive site"", ""sport"": ""scuba_diving""}"
Dive Site,,1.0139484,127.4775869,,,,,,,,,,,3926231870,node,"{""name"": ""Dive Site"", ""sport"": ""scuba_diving""}"
Dive Site,,1.0166021,127.4830883,,,,,,,,,,,3926231871,node,"{""name"": ""Dive Site"", ""sport"": ""scuba_diving""}"
Dive Site,,0.7297353,127.3619469,,,,,,,,,,,3926231880,node,"{""name"": ""Dive Site"", ""sport"": ""scuba_diving""}"
Manta Point,,-0.5809433,130.5409632,,,,,,,,,,,3946860634,node,"{""name"": ""Manta Point"", ""scuba_diving:current"": ""2"", ""scuba_diving:type"": ""bigfish"", ""sport"": ""scuba_diving"", ""tourism"": ""attraction""}"
Manta Point dive site,,-8.5415535,119.5997228,,,,,,,,,,,3948869068,node,"{""name"": ""Manta Point dive site"", ""sport"": ""scuba_diving""}"
Mawan,,-8.558126,119.6361023,,,,,,,,,,,3948869069,node,"{""name"": ""Mawan"", ""sport"": ""scuba_diving""}"
Jevry's Shaft,"Many many fish, oil rig. Open and may be prone to currents. Structures at bottom.",-5.4270349,106.4644693,,,,,,,,,,,4097280131,node,"{""description"": ""Many many fish, oil rig. Open and may be prone to currents. Structures at bottom."", ""name"": ""Jevry's Shaft"", ""scuba_diving:depth"": ""30"", ""scuba_diving:divespot"": ""yes"", ""scuba_diving:maxdepth"": ""30"", ""sport"": ""scuba_diving""}"
Bali International Diving Professionals (BIDP),,-8.7063201,115.2547612,,,Sanur,https://www.bidp-balidiving.com/,+62 361 270759,,,,,,4101520318,node,"{""addr:city"": ""Sanur"", ""addr:housenumber"": ""333"", ""addr:postcode"": ""80228"", ""addr:street"": ""Jalan Blanjong"", ""name"": ""Bali International Diving Professionals (BIDP)"", ""phone"": ""+62 361 270759"", ""sport"": ""scuba_diving"", ""website"": ""https://www.bidp-balidiving.com/""}"
Fananas,Swim south-east with reef on the left.,-5.4155864,106.469434,,,,,,,,,,,4104113955,node,"{""description"": ""Swim south-east with reef on the left."", ""name"": ""Fananas"", ""scuba_diving:depth"": ""15"", ""scuba_diving:divespot"": ""yes"", ""scuba_diving:maxdepth"": ""30"", ""sport"": ""scuba_diving""}"
JC Slope,"Swim south-east, reef on the left. Not much to see, bad below 10 meters.",-5.4205019,106.4890034,,,,,,,,,,,4104113956,node,"{""description"": ""Swim south-east, reef on the left. Not much to see, bad below 10 meters."", ""name"": ""JC Slope"", ""scuba_diving:depth"": ""10"", ""scuba_diving:divespot"": ""yes"", ""source"": ""="", ""sport"": ""scuba_diving""}"
Valley of the tubes,A lot of tube corals going west. Not too good in terms of human damage and silt. Recommend exploring to the east instead. Nice corals at 5 meters depth.,-5.5834614,106.5929807,,,,,,,,,,,4104175036,node,"{""description"": ""A lot of tube corals going west. Not too good in terms of human damage and silt. Recommend exploring to the east instead. Nice corals at 5 meters depth."", ""name"": ""Valley of the tubes"", ""scuba_diving:divespot"": ""yes"", ""sport"": ""scuba_diving""}"
Tuna Can,"10 and 20 meters swim east, observed a large school of tuna here. Best at 10 meters depth.",-5.4666505,106.4388584,,,,,,,,,,,4104175037,node,"{""description"": ""10 and 20 meters swim east, observed a large school of tuna here. Best at 10 meters depth."", ""name"": ""Tuna Can"", ""scuba_diving:depth"": ""10"", ""scuba_diving:divespot"": ""yes"", ""scuba_diving:maxdepth"": ""25"", ""sport"": ""scuba_diving""}"
Jevry's Drop,Jevry and team went reef on right south-west.,-5.6667085,106.571608,,,,,,,,,,,4104180144,node,"{""description"": ""Jevry and team went reef on right south-west."", ""name"": ""Jevry's Drop"", ""scuba_diving:divespot"": ""yes"", ""sport"": ""scuba_diving""}"
Leon's Cloudy Canyon,"Team Leon dropped, drifted west and crossed the valley at 25 meters depth. A lot of human construction damage, but a nice dive nonetheless. Ended up north-west at the outlet of the stream. Bad visibility at bottom, strong current.",-5.6654889,106.570588,,,,,,,,,,,4104180145,node,"{""description"": ""Team Leon dropped, drifted west and crossed the valley at 25 meters depth. A lot of human construction damage, but a nice dive nonetheless. Ended up north-west at the outlet of the stream. Bad visibility at bottom, strong current."", ""name"": ""Leon's Cloudy Canyon"", ""scuba_diving:divespot"": ""yes"", ""sport"": ""scuba_diving""}"
The Cleavage,"Three possible directions, west, south and south-east. South provides a shallow garden of corals that may get impacted by tide. South-east has bigger corals and more sandy bottom at 30 meters. Ending the dive south-west of the island.",-5.6203007,106.5557914,,,,,,,,,,,4104180154,node,"{""description"": ""Three possible directions, west, south and south-east. South provides a shallow garden of corals that may get impacted by tide. South-east has bigger corals and more sandy bottom at 30 meters. Ending the dive south-west of the island."", ""name"": ""The Cleavage"", ""scuba_diving:depth"": ""10"", ""scuba_diving:divespot"": ""yes"", ""scuba_diving:maxdepth"": ""30"", ""sport"": ""scuba_diving""}"
Agus dream,,-5.4165447,106.4719031,,,,,,,,,,,4104620512,node,"{""name"": ""Agus dream"", ""scuba_diving:diveshop"": ""yes"", ""sport"": ""scuba_diving""}"
Jetski Lagoon,Not any good,-5.6196494,106.552117,,,,,,,,,,,4111041430,node,"{""description"": ""Not any good"", ""name"": ""Jetski Lagoon"", ""scuba_diving:depth"": ""15"", ""scuba_diving:divespot"": ""yes"", ""scuba_diving:maxdepth"": ""20"", ""sport"": ""scuba_diving""}"
Kaliage Kecil Selatan,"Drift south-west, rich corals, red anemone, good bio diversity",-5.6181439,106.5767719,,,,,,,,,,,4111041431,node,"{""description"": ""Drift south-west, rich corals, red anemone, good bio diversity"", ""name"": ""Kaliage Kecil Selatan"", ""scuba_diving:depth"": ""20"", ""scuba_diving:divespot"": ""yes"", ""scuba_diving:maxdepth"": ""30"", ""sport"": ""scuba_diving""}"
Kaliage Kecil Utara,"Good conservation site in the middle, corals are good, and rich. Site may have strong currents in between tides. High turbidity in the deepest part of the valley.",-5.6164142,106.5756668,,,,,,,,,,,4111041432,node,"{""description"": ""Good conservation site in the middle, corals are good, and rich. Site may have strong currents in between tides. High turbidity in the deepest part of the valley."", ""name"": ""Kaliage Kecil Utara"", ""scuba_diving:depth"": ""20"", ""scuba_diving:divespot"": ""yes"", ""scuba_diving:maxdepth"": ""30"", ""sport"": ""scuba_diving""}"
Kayuangin Lagoon,Not any good,-5.5856787,106.5503736,,,,,,,,,,,4111041433,node,"{""description"": ""Not any good"", ""name"": ""Kayuangin Lagoon"", ""scuba_diving:depth"": ""15"", ""scuba_diving:divespot"": ""yes"", ""sport"": ""scuba_diving""}"
Leon's Bikini Bottom,"Mini pinnacles, deep dive, going south-east",-5.5850327,106.5485443,,,,,,,,,,,4111041434,node,"{""description"": ""Mini pinnacles, deep dive, going south-east"", ""name"": ""Leon's Bikini Bottom"", ""scuba_diving:depth"": ""20"", ""scuba_diving:divespot"": ""yes"", ""scuba_diving:maxdepth"": ""30"", ""sport"": ""scuba_diving""}"
Maria's Heart,"Rich hard corals, and heart shaped sponges. Some silt.",-5.6897869,106.5382091,,,,,,,,,,,4111041435,node,"{""description"": ""Rich hard corals, and heart shaped sponges. Some silt."", ""name"": ""Maria's Heart"", ""scuba_diving:depth"": ""15"", ""scuba_diving:divespot"": ""yes"", ""scuba_diving:maxdepth"": ""25"", ""sport"": ""scuba_diving""}"
Noodles,"Drift west, Rich Coral, Channels, Jellyfish",-5.7585227,106.5961052,,,,,,,,,,,4111041436,node,"{""description"": ""Drift west, Rich Coral, Channels, Jellyfish"", ""name"": ""Noodles"", ""scuba_diving:depth"": ""15"", ""scuba_diving:divespot"": ""yes"", ""scuba_diving:maxdepth"": ""30"", ""sport"": ""scuba_diving""}"
Sea Garden,"Conservation Swimthroughs, Fishlife, Softcorals",-5.7350752,106.606427,,,,,,,,,,,4111041437,node,"{""description"": ""Conservation Swimthroughs, Fishlife, Softcorals"", ""name"": ""Sea Garden"", ""scuba_diving:depth"": ""15"", ""scuba_diving:divespot"": ""yes"", ""scuba_diving:maxdepth"": ""30"", ""sport"": ""scuba_diving""}"
Spongebob,"Huge Seafans, open water depth limit",-5.6877104,106.5367446,,,,,,,,,,,4111041438,node,"{""description"": ""Huge Seafans, open water depth limit"", ""name"": ""Spongebob"", ""scuba_diving:depth"": ""15"", ""scuba_diving:divespot"": ""yes"", ""scuba_diving:maxdepth"": ""18"", ""sport"": ""scuba_diving""}"
Turtle Snorkeling Spot,,-8.3401179,116.0419493,,,,www.dare2travel.nl,,,,,,,4201455791,node,"{""location"": ""underwater"", ""name"": ""Turtle Snorkeling Spot"", ""opening_hours"": ""24/7"", ""scuba_diving:type"": ""snorkeling"", ""sport"": ""scuba_diving"", ""tourism"": ""attraction"", ""website"": ""www.dare2travel.nl""}"
Lombok Dive,,-8.3475991,116.0283794,,,,,,,,,,,4270913147,node,"{""name"": ""Lombok Dive"", ""sport"": ""scuba_diving""}"
Underwater Cave,,-8.0974198,114.5263131,,,,,,,,,,,4454995855,node,"{""name"": ""Underwater Cave"", ""natural"": ""cave_entrance"", ""sport"": ""scuba_diving""}"
Blue Corner,,-8.1004242,114.5205089,,,,,,,,,,,4454995856,node,"{""name"": ""Blue Corner"", ""reef"": ""coral"", ""sport"": ""scuba_diving""}"
Post I Jetty,,-8.0963806,114.5031276,,,,,,,,,,,4454995857,node,"{""name"": ""Post I Jetty"", ""reef"": ""coral"", ""sport"": ""scuba_diving""}"
Mangrove Point,,-8.0978736,114.5089187,,,,,,,,,,,4454995858,node,"{""name"": ""Mangrove Point"", ""reef"": ""coral"", ""sport"": ""scuba_diving""}"
Manta Bay,"One of two Manta Bay divesites. Listen to experienced boat captains, these sites have the potential for very strong surges. Do not go too close to the cliffs where the waves break. Only thing here to see is the numerous mantarays usually feeding.",-8.7353445,115.4506577,,,,,,,,,,,4471094391,node,"{""description"": ""One of two Manta Bay divesites. Listen to experienced boat captains, these sites have the potential for very strong surges. Do not go too close to the cliffs where the waves break. Only thing here to see is the numerous mantarays usually feeding."", ""name"": ""Manta Bay"", ""scuba_diving:current"": ""1"", ""scuba_diving:dangers"": ""stones"", ""scuba_diving:depth"": ""10"", ""scuba_diving:difficulty"": ""2"", ""scuba_diving:entry"": ""boat"", ""scuba_diving:maxdepth"": ""20"", ""scuba_diving:type"": ""biology"", ""sport"": ""scuba_diving""}"
Amed wall,,-8.337564,115.6617295,,,,,,,,,,,4527419399,node,"{""name"": ""Amed wall"", ""scuba_diving:type"": ""reef;wall;apnoe"", ""sport"": ""scuba_diving"", ""tourism"": ""attraction""}"
Bali Dive Trek,,-8.3312359,115.6309014,,,,,,,,,,,4694084262,node,"{""leisure"": ""sports_centre"", ""name"": ""Bali Dive Trek"", ""sport"": ""scuba_diving""}"
Blue Lagoon,"Simple divesite, but still can have strong currents. In general bad visibility, OK for beginners. Some underwater statues can be found.",-8.5179074,115.5097974,,,,,,,,,,,4723444230,node,"{""description"": ""Simple divesite, but still can have strong currents. In general bad visibility, OK for beginners. Some underwater statues can be found."", ""name"": ""Blue Lagoon"", ""scuba_diving:depth"": ""20"", ""sport"": ""scuba_diving""}"
Gili Tepekong North,"Dive towards north, some huge boulders to swim among, and open plains of corals.",-8.5311955,115.5858269,,,,,,,,,,,4723444231,node,"{""description"": ""Dive towards north, some huge boulders to swim among, and open plains of corals."", ""name"": ""Gili Tepekong North"", ""scuba_diving:dangers:current"": ""yes"", ""scuba_diving:depth"": ""20"", ""scuba_diving:entry"": ""boat"", ""sport"": ""scuba_diving""}"
Gili Tepekong South,"Dive towards south, a big tunnel and walls.",-8.5316464,115.586138,,,,,,,,,,,4723444232,node,"{""description"": ""Dive towards south, a big tunnel and walls."", ""name"": ""Gili Tepekong South"", ""scuba_diving:dangers:current"": ""yes"", ""scuba_diving:depth"": ""30"", ""scuba_diving:entry"": ""boat"", ""sport"": ""scuba_diving""}"
Crystal Bay,"Also called Penida Bay by some, this divesite condition depends on currents, and may have strong downcurrent. Potential place for Mola-mola.",-8.7155168,115.4574864,,,,,,,,,,,4742534377,node,"{""description"": ""Also called Penida Bay by some, this divesite condition depends on currents, and may have strong downcurrent. Potential place for Mola-mola."", ""name"": ""Crystal Bay"", ""scuba_diving:access_easyness"": ""1"", ""scuba_diving:depth"": ""15"", ""scuba_diving:difficulty"": ""2"", ""scuba_diving:type"": ""reef"", ""sport"": ""scuba_diving""}"
Ped,"Ped, or also known as Peed. A site that can be calm when there is no current, good for photography. Dive as a drift dive in any case, with pickup in another location. A wall goes from around 20 meters and down, but a gentle reef from 0 to 20 meters.",-8.6756914,115.5160285,,,,,,,,,,,4742534378,node,"{""description"": ""Ped, or also known as Peed. A site that can be calm when there is no current, good for photography. Dive as a drift dive in any case, with pickup in another location. A wall goes from around 20 meters and down, but a gentle reef from 0 to 20 meters."", ""name"": ""Ped"", ""scuba_diving:type"": ""reef"", ""sport"": ""scuba_diving""}"
Batu Belah,,-8.3078554,115.6208435,,,,,,,,,,,4747124684,node,"{""name"": ""Batu Belah"", ""sport"": ""scuba_diving""}"
Bulakan,,-8.308309,115.6214953,,,,,,,,,,,4747124685,node,"{""name"": ""Bulakan"", ""sport"": ""scuba_diving""}"
Ray's Dive Adventure,,2.785359,104.203558,,,,https://raysdive.com/,,,,,,,4776516026,node,"{""amenity"": ""dive_centre"", ""name"": ""Ray's Dive Adventure"", ""name:en"": ""Ray's Dive Adventure"", ""sport"": ""scuba_diving"", ""website"": ""https://raysdive.com/""}"
Vila Almarick Biorock,,-8.3461172,116.0433854,,,,,,,,,,,4813305042,node,"{""location"": ""underwater"", ""name"": ""Vila Almarick Biorock"", ""scuba_diving:type"": ""snorkeling"", ""sport"": ""scuba_diving"", ""tourism"": ""attraction""}"
Bale Sampan Biorock,,-8.3479656,116.0438526,,,,,,,,,,,4813305043,node,"{""location"": ""underwater"", ""name"": ""Bale Sampan Biorock"", ""scuba_diving:type"": ""snorkeling"", ""sport"": ""scuba_diving"", ""tourism"": ""attraction""}"
Samba Vilas Biorock,,-8.3481527,116.0439347,,,,,,,,,,,4813305044,node,"{""location"": ""underwater"", ""name"": ""Samba Vilas Biorock"", ""scuba_diving:type"": ""snorkeling"", ""sport"": ""scuba_diving"", ""tourism"": ""attraction""}"
Trawangan Dive Biorock,,-8.3490364,116.0442834,,,,,,,,,,,4813305045,node,"{""location"": ""underwater"", ""name"": ""Trawangan Dive Biorock"", ""scuba_diving:type"": ""snorkeling"", ""sport"": ""scuba_diving"", ""tourism"": ""attraction""}"
Gili Divers Biorock,,-8.3495698,116.0444604,,,,,,,,,,,4813305046,node,"{""location"": ""underwater"", ""name"": ""Gili Divers Biorock"", ""scuba_diving:type"": ""snorkeling"", ""sport"": ""scuba_diving"", ""tourism"": ""attraction""}"
Alung banua,,1.6174836,124.7559944,,,,,,,,,,,4881340466,node,"{""name"": ""Alung banua"", ""sport"": ""scuba_diving""}"
Muka kampung,,1.5944429,124.7738773,,,,,,,,,,,4881341034,node,"{""name"": ""Muka kampung"", ""name:en"": ""Turtle City"", ""sport"": ""scuba_diving""}"
Angel Diver,,5.9176427,102.7220828,,,,https://www.angel-diver.com/,+60 17-358 3567,reservations@angel-diver.com,,,,,4986713423,node,"{""amenity"": ""dive_centre"", ""email"": ""reservations@angel-diver.com"", ""league"": ""PADI"", ""name"": ""Angel Diver"", ""name:en"": ""Angel Diver"", ""phone"": ""+60 17-358 3567"", ""scuba_diving:courses"": ""yes"", ""sport"": ""scuba_diving"", ""website"": ""https://www.angel-diver.com/""}"
Turtle Point,,5.904471,102.7421819,,,,,,,,,,,5036365475,node,"{""name"": ""Turtle Point"", ""name:en"": ""Turtle Point"", ""scuba_diving:divespot"": ""yes"", ""sport"": ""scuba_diving""}"
Sea Sight Divers,,5.913082,102.7172903,,,,,+60 11-2923 0249,,,,,,5037261844,node,"{""amenity"": ""dive_centre"", ""league"": ""PADI"", ""name"": ""Sea Sight Divers"", ""name:en"": ""Sea Sight Divers"", ""phone"": ""+60 11-2923 0249"", ""scuba_diving:education"": ""yes"", ""sport"": ""scuba_diving""}"
Spice Divers,,5.9162202,102.7226892,,,,https://www.spicediversperhentian.com/,+60 11-1076 6735,spicedivers@hotmail.com,,,,,5037261845,node,"{""amenity"": ""dive_centre"", ""email"": ""spicedivers@hotmail.com"", ""league"": ""PADI"", ""name"": ""Spice Divers"", ""name:en"": ""Spice Divers"", ""phone"": ""+60 11-1076 6735"", ""scuba_diving:courses"": ""yes"", ""scuba_diving:education"": ""yes"", ""sport"": ""scuba_diving"", ""website"": ""https://www.spicediversperhentian.com/""}"
Sea Voice Divers,,5.9140326,102.7173153,MY,,Pulau Perhentian Kecil,https://seavoicedivers.com/,+60 13-494 0992,info@seavoicedivers.com,,,,,5037261847,node,"{""addr:city"": ""Pulau Perhentian Kecil"", ""addr:country"": ""MY"", ""addr:state"": ""Terengganu"", ""addr:street"": ""Coral Bay"", ""amenity"": ""dive_centre"", ""email"": ""info@seavoicedivers.com"", ""league"": ""PADI"", ""name"": ""Sea Voice Divers"", ""name:en"": ""Sea Voice Divers"", ""opening_hours"": ""Mo-Su 08:00-20:00"", ""phone"": ""+60 13-494 0992"", ""scuba_diving:courses"": ""yes"", ""scuba_diving:education"": ""yes"", ""scuba_diving:rental"": ""yes"", ""sport"": ""scuba_diving"", ""website"": ""https://seavoicedivers.com/""}"
Matahari Divers,,5.9182062,102.721545,,,,,+60 12-804 6574,mataharidivers@gmail.com,,,,,5037261848,node,"{""amenity"": ""dive_centre"", ""contact:email"": ""mataharidivers@gmail.com"", ""contact:phone"": ""+60 12-804 6574"", ""contact:website"": ""https://mataharidivers.com/"", ""league"": ""PADI"", ""name"": ""Matahari Divers"", ""scuba_diving:courses"": ""yes"", ""scuba_diving:education"": ""yes"", ""sport"": ""scuba_diving""}"
Anti Gravity Divers,PADI 5 Star Dive Center offering diving courses and excursion dives,5.9136187,102.717577,,,,https://www.scubadivingperhentian.com/,+60 12-921 2395,info@scubadivingperhentian.com,,,,,5037261849,node,"{""amenity"": ""dive_centre"", ""description"": ""PADI 5 Star Dive Center offering diving courses and excursion dives"", ""email"": ""info@scubadivingperhentian.com"", ""league"": ""PADI"", ""name"": ""Anti Gravity Divers"", ""name:en"": ""Anti Gravity Divers"", ""opening_hours"": ""Mo-Su 08:00-20:00"", ""operator"": ""Anti Gravity Divers"", ""phone"": ""+60 12-921 2395"", ""scuba_diving:education"": ""yes"", ""sport"": ""scuba_diving"", ""website"": ""https://www.scubadivingperhentian.com/""}"
Panorama Diver,,5.9195466,102.7218971,,,,https://www.panoramaperhentianisland.com/,+60 19-324 7199,panoramadiver@gmail.com,,,,,5037261850,node,"{""amenity"": ""dive_centre"", ""email"": ""panoramadiver@gmail.com"", ""league"": ""PADI"", ""name"": ""Panorama Diver"", ""name:en"": ""Panorama Diver"", ""phone"": ""+60 19-324 7199"", ""scuba_diving:education"": ""yes"", ""sport"": ""scuba_diving"", ""website"": ""https://www.panoramaperhentianisland.com/""}"
Drift Divers Nusa Lembonang,Very nice and good dive center with international dive masters and instructors.,-8.6689985,115.4496932,,,,www.driftdiving.blogspot.com,+6281353003933,,,,,,5091152979,node,"{""description"": ""Very nice and good dive center with international dive masters and instructors."", ""name"": ""Drift Divers Nusa Lembonang"", ""opening_hours"": ""Mo-Su 07:00-19:00"", ""phone"": ""+6281353003933"", ""sport"": ""scuba_diving"", ""website"": ""www.driftdiving.blogspot.com""}"
Bamboo SeaSport,,2.4346693,103.9772257,,,,,,,,,,,5111932610,node,"{""name"": ""Bamboo SeaSport"", ""name:en"": ""Bamboo SeaSport"", ""sport"": ""scuba_diving""}"
Crystal Bay Dive Site,,-8.4472423,119.5682314,,,,,,,,,,,5114515124,node,"{""name"": ""Crystal Bay Dive Site"", ""sport"": ""scuba_diving"", ""tourism"": ""attraction""}"
Pengah Kecil,,-8.5769535,119.6808266,,,,,,,,,,,5114515322,node,"{""name"": ""Pengah Kecil"", ""name:de"": ""Pengah Kecil"", ""sport"": ""scuba_diving"", ""tourism"": ""attraction""}"
Siaba Besar dive site,,-8.558211,119.6450121,,,,,,,,,,,5114515324,node,"{""name"": ""Siaba Besar dive site"", ""name:de"": ""Siaba Besar"", ""sport"": ""scuba_diving"", ""tourism"": ""attraction""}"
Compass Divers,,-8.3539106,116.0421767,,,,,,,,,,,5140847111,node,"{""name"": ""Compass Divers"", ""sport"": ""scuba_diving""}"
Pyramids,,-8.3341953,115.6536502,,,,,,,,,,,5149607925,node,"{""name"": ""Pyramids"", ""sport"": ""scuba_diving"", ""tourism"": ""attraction""}"
Turtle snorkeling spot,,-8.3462772,116.0429691,,,,,,,,,,,5315497721,node,"{""location"": ""underwater"", ""name"": ""Turtle snorkeling spot"", ""scuba_diving:type"": ""snorkeling"", ""sport"": ""scuba_diving"", ""tourism"": ""attraction""}"
Friwen Bonda,,-0.4753454,130.6980161,,,,,,,,,,,5349889523,node,"{""name"": ""Friwen Bonda"", ""sport"": ""scuba_diving"", ""tourism"": ""attraction""}"
Pulau Pieh Dive Site,,-0.8762778,100.0976111,,,,,,,,,,,5357980589,node,"{""name"": ""Pulau Pieh Dive Site"", ""scuba_diving:attraction:reef"": ""yes"", ""scuba_diving:dangers:depth"": ""yes"", ""scuba_diving:depth"": ""10"", ""scuba_diving:entry:boat"": ""yes"", ""scuba_diving:maxdepth"": ""30"", ""scuba_diving:type:sea"": ""yes"", ""scuba_diving:visibility"": ""16"", ""seamark:type"": ""restricted_area"", ""sport"": ""scuba_diving""}"
Togeanadventures.com,Our view out to the Tomini bay is amazing,-0.3262862,121.9306012,,,,togeanadventures.com,+6285298107990,,,,,,5389892922,node,"{""description"": ""Our view out to the Tomini bay is amazing"", ""name"": ""Togeanadventures.com"", ""name:en"": ""Togeanadventures.com"", ""opening_hours"": ""Mo-Su 06:00-10:00"", ""phone"": ""+6285298107990"", ""sport"": ""scuba_diving"", ""website"": ""togeanadventures.com""}"
Kogutu Togeanadventures.com,,-0.327027,121.9312317,,,,togeanadventures.com,+6285298107990,,,,,,5389936693,node,"{""name"": ""Kogutu Togeanadventures.com"", ""operator"": ""Jalan Katupat"", ""phone"": ""+6285298107990"", ""sport"": ""scuba_diving"", ""website"": ""togeanadventures.com""}"
Scubaholic,,5.8823805,95.2438173,,,,,,,,,,,5398106235,node,"{""amenity"": ""dive_centre"", ""name"": ""Scubaholic"", ""scuba_diving:type"": ""reef"", ""sport"": ""scuba_diving""}"
Melissa's Garden,,-0.5900067,130.3152625,,,,,,,,,,,5453439730,node,"{""name"": ""Melissa's Garden"", ""name:en"": ""Melissa\u2019s Garden Dive Site"", ""scuba_diving:divespot"": ""yes"", ""sport"": ""scuba_diving"", ""tourism"": ""attraction""}"
Yanbuba Corner,,-0.5715119,130.6581113,,,,,,,,,,,5453794122,node,"{""name"": ""Yanbuba Corner"", ""sport"": ""scuba_diving"", ""tourism"": ""attraction""}"
Cape Kri,,-0.5569089,130.6900627,,,,,,,,,,,5456602222,node,"{""name"": ""Cape Kri"", ""sport"": ""scuba_diving"", ""tourism"": ""attraction""}"
Scuba Center Asia,"Dive Center for Fundives, Courses and Introduction Dives
PADI 5* IDC resort",-8.6839664,115.4341789,,,Nusa Lembongan,,,info@scubacenterasia.com,,,,,5524527679,node,"{""addr:city"": ""Nusa Lembongan"", ""addr:housenumber"": ""Scuba Center Asia"", ""addr:street"": ""Jl. Mushroom Bay"", ""amenity"": ""dive_centre"", ""description"": ""Dive Center for Fundives, Courses and Introduction Dives\nPADI 5* IDC resort"", ""email"": ""info@scubacenterasia.com"", ""name"": ""Scuba Center Asia"", ""name:en"": ""Scuba Center Asia"", ""opening_hours"": ""Mo-Su 07:00-19:00"", ""operator"": ""PADI"", ""payment:cash"": ""yes"", ""payment:credit_cards"": ""yes"", ""sport"": ""scuba_diving""}"
Baulu Reef,Balu reef is a very nice fish spot,-0.2857518,121.9601941,,,,togeanadventures.com,,,,,,,5643671518,node,"{""description"": ""Balu reef is a very nice fish spot"", ""name"": ""Baulu Reef"", ""sport"": ""scuba_diving"", ""website"": ""togeanadventures.com""}"
Baulu Reef,,-0.2857518,121.9601941,,,,togeanadventures.com,,,,,,,5643700414,node,"{""name"": ""Baulu Reef"", ""sport"": ""scuba_diving"", ""website"": ""togeanadventures.com""}"
Cystal Rock Dive Site,,-8.4416648,119.5677822,,,,,,,,,,,5767096953,node,"{""name"": ""Cystal Rock Dive Site"", ""scuba_diving:dive_spot"": ""yes"", ""sport"": ""scuba_diving"", ""tourism"": ""attraction""}"
The Cauldron Dive Site,,-8.4609097,119.5633723,,,,,,,,,,,5875544788,node,"{""alt_name"": ""Shot gun"", ""name"": ""The Cauldron Dive Site"", ""name:en"": ""The Cauldron Dive Site"", ""scuba_diving:dive_spot"": ""yes"", ""scuba_diving:entry"": ""Boat"", ""scuba_diving:name"": ""The Cauldron"", ""scuba_diving:type"": ""drift"", ""sport"": ""scuba_diving""}"
Arborek shark point,,-0.5672128,130.5071587,,,,,,,,,,,6132126174,node,"{""name"": ""Arborek shark point"", ""sport"": ""scuba_diving""}"
Orca Diveclub Lovina,,-8.1290041,115.0603554,,,,,,,,,,,6173934797,node,"{""name"": ""Orca Diveclub Lovina"", ""sport"": ""scuba_diving""}"
Terumbu Karang,,-3.7949859,115.6091796,,,,,,,,,,,6269037398,node,"{""name"": ""Terumbu Karang"", ""operator"": ""Desa Angsana"", ""scuba_diving:entry:boat"": ""yes"", ""sport"": ""scuba_diving"", ""tourism"": ""attraction""}"
Terumbu Karang,,-3.7860882,115.5659345,,,,,,,,,,,6269037399,node,"{""name"": ""Terumbu Karang"", ""operator"": ""Desa Angsana"", ""scuba_diving:entry:boat"": ""yes"", ""sport"": ""scuba_diving"", ""tourism"": ""attraction""}"
Coral garden,,-8.2769163,115.5946864,,,,,,,,,,,6428015268,node,"{""name"": ""Coral garden"", ""sport"": ""scuba_diving""}"
Snorkelling reef,,-8.730319,115.9102648,,,,,,,,,,,6702850596,node,"{""name"": ""Snorkelling reef"", ""sport"": ""scuba_diving""}"
Snorkelling reef,,-8.748698,115.8927602,,,,,,,,,,,6703093158,node,"{""name"": ""Snorkelling reef"", ""sport"": ""scuba_diving""}"
K.K Bay,,5.8851222,102.7413743,,,,,,,,,,,6717759185,node,"{""name"": ""K.K Bay"", ""name:en"": ""K.K Bay"", ""scuba_diving:divespot"": ""yes"", ""sport"": ""scuba_diving"", ""tourism"": ""attraction""}"
Turtle Point,,-8.3427036,116.0437832,,,,,,,,,,,6750981689,node,"{""location"": ""underwater"", ""name"": ""Turtle Point"", ""name:en"": ""Turtle point"", ""scuba_diving:type"": ""snorkeling"", ""sport"": ""scuba_diving"", ""tourism"": ""attraction""}"
Shark Point,,6.0692468,100.0439171,,,,,,,,,,,6806162537,node,"{""name"": ""Shark Point"", ""name:en"": ""Shark Point"", ""scuba_diving:divespot"": ""yes"", ""scuba_diving:type"": ""sharks"", ""sport"": ""scuba_diving"", ""tourism"": ""attraction""}"
Seahorse Divers,,5.9167733,102.7224999,,,,https://www.seahorsediver.com/,+60 19-984 1181,seahorsediver@yahoo.com,,,,,6847712291,node,"{""amenity"": ""dive_centre"", ""email"": ""seahorsediver@yahoo.com"", ""league"": ""PADI"", ""name"": ""Seahorse Divers"", ""name:en"": ""Seahorse Divers"", ""phone"": ""+60 19-984 1181"", ""scuba_diving:education"": ""yes"", ""scuba_diving:organization"": ""PADI"", ""sport"": ""scuba_diving"", ""website"": ""https://www.seahorsediver.com/""}"
Batu Tiga Dive Site,,-8.5996016,119.5728673,,,,,,,,,,,7182686142,node,"{""name"": ""Batu Tiga Dive Site"", ""sport"": ""scuba_diving""}"
Bonsai dive site,,-8.6034515,119.6544647,,,,,,,,,,,7182733952,node,"{""name"": ""Bonsai dive site"", ""sport"": ""scuba_diving""}"
3 Sisters,,-8.6881122,119.5736556,,,,,,,,,,,7182742081,node,"{""name"": ""3 Sisters"", ""sport"": ""scuba_diving""}"
Sabayor Kecil,,-8.5109788,119.695278,,,,,,,,,,,7182749565,node,"{""name"": ""Sabayor Kecil"", ""sport"": ""scuba_diving""}"
Mini Wall,,-8.5081987,119.7040058,,,,,,,,,,,7182750968,node,"{""name"": ""Mini Wall"", ""sport"": ""scuba_diving""}"
Pillarsteen,,-8.6946259,119.5675945,,,,,,,,,,,7182756520,node,"{""name"": ""Pillarsteen"", ""sport"": ""scuba_diving""}"
Tatawa Besar dive site,,-8.5083587,119.6397238,,,,,,,,,,,7182756978,node,"{""name"": ""Tatawa Besar dive site"", ""sport"": ""scuba_diving""}"
Tatawa Kecil dive site,,-8.5252252,119.6332396,,,,,,,,,,,7182760644,node,"{""name"": ""Tatawa Kecil dive site"", ""sport"": ""scuba_diving""}"
Indihiang,,-8.6520619,119.4960867,,,,,,,,,,,7182760645,node,"{""name"": ""Indihiang"", ""sport"": ""scuba_diving""}"
Gaja Rock dive site,,-8.7451021,119.4825409,,,,,,,,,,,7182762315,node,"{""name"": ""Gaja Rock dive site"", ""sport"": ""scuba_diving""}"
Loh Namu,,-8.641888,119.4868791,,,,,,,,,,,7182769497,node,"{""name"": ""Loh Namu"", ""sport"": ""scuba_diving""}"
Pink Beach,,-8.60391,119.5184013,,,,,,,,,,,7182770013,node,"{""name"": ""Pink Beach"", ""sport"": ""scuba_diving""}"
Wainilu,,-8.6255978,119.7074961,,,,,,,,,,,7182771889,node,"{""name"": ""Wainilu"", ""sport"": ""scuba_diving""}"
Loh Sera dive site,,-8.7355061,119.4569802,,,,,,,,,,,7182771890,node,"{""name"": ""Loh Sera dive site"", ""sport"": ""scuba_diving""}"
Tanjung Loh Sera dive site,,-8.7432085,119.4720907,,,,,,,,,,,7182774875,node,"{""name"": ""Tanjung Loh Sera dive site"", ""sport"": ""scuba_diving""}"
Gindang,,-8.6108571,119.7197489,,,,,,,,,,,7182785203,node,"{""name"": ""Gindang"", ""sport"": ""scuba_diving""}"
Payong,,-8.6804164,119.6057521,,,,,,,,,,,7182786669,node,"{""name"": ""Payong"", ""sport"": ""scuba_diving""}"
Siaba Besar dive site,,-8.5455259,119.6482815,,,,,,,,,,,7242483425,node,"{""name"": ""Siaba Besar dive site"", ""sport"": ""scuba_diving""}"
Mildred's Rock,,-0.3638968,121.8411752,,,,,,,,,,,7270615566,node,"{""name"": ""Mildred's Rock"", ""sport"": ""scuba_diving""}"
Goa Goa,,-0.4154801,121.6845711,,,,,,,,,,,7270645426,node,"{""name"": ""Goa Goa"", ""sport"": ""scuba_diving""}"
Mushroom Rock,,-0.5251125,121.9406534,,,,,,,,,,,7270645769,node,"{""name"": ""Mushroom Rock"", ""sport"": ""scuba_diving""}"
Chinatown,,-0.35285,121.8372138,,,,,,,,,,,7270645770,node,"{""name"": ""Chinatown"", ""sport"": ""scuba_diving""}"
No Fear,,-0.4775389,121.9348818,,,,,,,,,,,7270650755,node,"{""name"": ""No Fear"", ""sport"": ""scuba_diving""}"
Menara 2,,-0.2078931,121.646054,,,,,,,,,,,7270654954,node,"{""name"": ""Menara 2"", ""sport"": ""scuba_diving""}"
Jack Point,,-0.1835211,121.6604099,,,,,,,,,,,7270656646,node,"{""name"": ""Jack Point"", ""sport"": ""scuba_diving""}"
California Reef,,-0.3063465,121.9564193,,,,,,,,,,,7270662759,node,"{""name"": ""California Reef"", ""sport"": ""scuba_diving""}"
Lighthouse,,-0.4201378,121.638428,,,,,,,,,,,7270663250,node,"{""name"": ""Lighthouse"", ""sport"": ""scuba_diving""}"
Turtle Point,,-0.1924605,121.6577829,,,,,,,,,,,7270664145,node,"{""name"": ""Turtle Point"", ""sport"": ""scuba_diving""}"
Taipi Wall,,-0.3177734,121.8387571,,,,,,,,,,,7270664530,node,"{""name"": ""Taipi Wall"", ""sport"": ""scuba_diving""}"
Apollo,,-0.2068821,121.5713092,,,,,,,,,,,7270667231,node,"{""name"": ""Apollo"", ""sport"": ""scuba_diving""}"
Taipi Island,,-0.3361726,121.8513234,,,,,,,,,,,7270668459,node,"{""name"": ""Taipi Island"", ""sport"": ""scuba_diving""}"
Saddleback Reef,,-0.4537005,121.9523344,,,,,,,,,,,7270671152,node,"{""name"": ""Saddleback Reef"", ""sport"": ""scuba_diving""}"
B-24 Bomber Wreck,,-0.426194,121.9743213,,,,,,,,,,,7270674279,node,"{""name"": ""B-24 Bomber Wreck"", ""sport"": ""scuba_diving""}"
Bajo,,-0.3512924,121.8485034,,,,,,,,,,,7270677608,node,"{""name"": ""Bajo"", ""sport"": ""scuba_diving""}"
Chinese Town,,-0.2188239,121.5917393,,,,,,,,,,,7270681269,node,"{""name"": ""Chinese Town"", ""sport"": ""scuba_diving""}"
Nimpi Dinding,,-0.4501405,121.6335686,,,,,,,,,,,7270681410,node,"{""name"": ""Nimpi Dinding"", ""sport"": ""scuba_diving""}"
Gap,,-0.3275464,121.8358574,,,,,,,,,,,7270681411,node,"{""name"": ""Gap"", ""sport"": ""scuba_diving""}"
Channel,,-0.3531598,121.8765404,,,,,,,,,,,7270684189,node,"{""name"": ""Channel"", ""sport"": ""scuba_diving""}"
Candi City,,-0.2013095,121.6517667,,,,,,,,,,,7270685595,node,"{""name"": ""Candi City"", ""sport"": ""scuba_diving""}"
Reef 5,,-0.2137917,122.07655,,,,,,,,,,,7270685929,node,"{""name"": ""Reef 5"", ""sport"": ""scuba_diving""}"
Donut Reef,,-0.4668104,121.9346205,,,,,,,,,,,7270687774,node,"{""name"": ""Donut Reef"", ""sport"": ""scuba_diving""}"
Buhias,,1.708793,124.78332,,,,,,,,,,,7293786943,node,"{""name"": ""Buhias"", ""sport"": ""scuba_diving""}"
Jalan Masuk,,1.7603355,124.7995788,,,,,,,,,,,7293786944,node,"{""name"": ""Jalan Masuk"", ""sport"": ""scuba_diving""}"
Mike's,,1.6351474,124.7431438,,,,,,,,,,,7293794211,node,"{""name"": ""Mike's"", ""sport"": ""scuba_diving""}"
Pangulingan,,1.652869,124.7109802,,,,,,,,,,,7293798869,node,"{""name"": ""Pangulingan"", ""sport"": ""scuba_diving""}"
Likuan 1,,1.5960885,124.7679605,,,,,,,,,,,7293799532,node,"{""name"": ""Likuan 1"", ""sport"": ""scuba_diving""}"
Bualo,,1.6091646,124.7007471,,,,,,,,,,,7293804572,node,"{""name"": ""Bualo"", ""sport"": ""scuba_diving""}"
Tangkasi,,1.7330462,124.7734569,,,,,,,,,,,7293808510,node,"{""name"": ""Tangkasi"", ""sport"": ""scuba_diving""}"
Pangalisan,,1.6031842,124.7828835,,,,,,,,,,,7293823010,node,"{""name"": ""Pangalisan"", ""sport"": ""scuba_diving""}"
Helga Point,,1.7896039,124.8143125,,,,,,,,,,,7293824629,node,"{""name"": ""Helga Point"", ""sport"": ""scuba_diving""}"
Timur 2,,1.6145663,124.7832989,,,,,,,,,,,7293830209,node,"{""name"": ""Timur 2"", ""sport"": ""scuba_diving""}"
Timur 1,,1.5968544,124.7834687,,,,,,,,,,,7293830868,node,"{""name"": ""Timur 1"", ""sport"": ""scuba_diving""}"
Batu Kapal,,1.7927374,124.7720657,,,,,,,,,,,7293832250,node,"{""name"": ""Batu Kapal"", ""sport"": ""scuba_diving""}"
Raymond's,,1.6314914,124.7365353,,,,,,,,,,,7293834009,node,"{""name"": ""Raymond's"", ""sport"": ""scuba_diving""}"
Siladen 1,,1.625049,124.7971832,,,,,,,,,,,7293834999,node,"{""name"": ""Siladen 1"", ""sport"": ""scuba_diving""}"
Mandolin,,1.6111528,124.7329308,,,,,,,,,,,7293835957,node,"{""name"": ""Mandolin"", ""sport"": ""scuba_diving""}"
Tanjung Parigi,,1.6283536,124.7664363,,,,,,,,,,,7293838994,node,"{""name"": ""Tanjung Parigi"", ""sport"": ""scuba_diving""}"
Barracuda Point,,1.7518479,124.7320346,,,,,,,,,,,7293841901,node,"{""name"": ""Barracuda Point"", ""sport"": ""scuba_diving""}"
Tanjung Kopi,,1.6532373,124.6917917,,,,,,,,,,,7293845147,node,"{""name"": ""Tanjung Kopi"", ""sport"": ""scuba_diving""}"
Likuan 3,,1.6050969,124.766713,,,,,,,,,,,7293846657,node,"{""name"": ""Likuan 3"", ""sport"": ""scuba_diving""}"
Bango,,1.692911,124.779776,,,,,,,,,,,7293846778,node,"{""name"": ""Bango"", ""sport"": ""scuba_diving""}"
Likuan 2,,1.6008372,124.7657464,,,,,,,,,,,7293847717,node,"{""name"": ""Likuan 2"", ""sport"": ""scuba_diving""}"
S. Utara,,1.6411589,124.7966476,,,,,,,,,,,7293848927,node,"{""name"": ""S. Utara"", ""sport"": ""scuba_diving""}"
Panorama,,1.6140994,124.7673411,,,,,,,,,,,7293852596,node,"{""name"": ""Panorama"", ""sport"": ""scuba_diving""}"
Siladen 2,,1.624023,124.8079861,,,,,,,,,,,7293852782,node,"{""name"": ""Siladen 2"", ""sport"": ""scuba_diving""}"
Fukui Point,,1.6164622,124.7506949,,,,,,,,,,,7293853324,node,"{""name"": ""Fukui Point"", ""sport"": ""scuba_diving""}"
Muka Gereja,,1.6232667,124.7199353,,,,,,,,,,,7293853962,node,"{""name"": ""Muka Gereja"", ""sport"": ""scuba_diving""}"
Cela Cela,,1.6102864,124.7683402,,,,,,,,,,,7293854507,node,"{""name"": ""Cela Cela"", ""sport"": ""scuba_diving""}"
Tengah,,1.6190291,124.7326589,,,,,,,,,,,7293855286,node,"{""name"": ""Tengah"", ""sport"": ""scuba_diving""}"
Gorango,,1.6942341,124.7534642,,,,,,,,,,,7293857725,node,"{""name"": ""Gorango"", ""sport"": ""scuba_diving""}"
Sachiko's,,1.6312436,124.7740207,,,,,,,,,,,7293857965,node,"{""name"": ""Sachiko's"", ""sport"": ""scuba_diving""}"
Sabolon besar dive site,,-8.3926698,119.8068523,,,,,,,,,,,8022562467,node,"{""name"": ""Sabolon besar dive site"", ""sport"": ""scuba_diving""}"
Sabolon kecil dive site,,-8.3896766,119.7984087,,,,,,,,,,,8022562468,node,"{""name"": ""Sabolon kecil dive site"", ""sport"": ""scuba_diving""}"
Lighthouse Reef Dive Site,,-8.4409708,119.5837837,,,,,,,,,,,8022562480,node,"{""name"": ""Lighthouse Reef Dive Site"", ""scuba_diving:dive_spot"": ""yes"", ""sport"": ""scuba_diving""}"
Sebayur dive site,,-8.5046306,119.7078895,,,,,,,,,,,8022733115,node,"{""name"": ""Sebayur dive site"", ""sport"": ""scuba_diving""}"
Seraya kecil dive site,,-8.4181211,119.8625135,,,,,,,,,,,8022733116,node,"{""name"": ""Seraya kecil dive site"", ""sport"": ""scuba_diving""}"
Dive Tioman,,2.8381284,104.1601302,,,,,+60 19-719 9041,,,,,,8067609585,node,"{""amenity"": ""dive_centre"", ""contact:phone"": ""+60 19-719 9041"", ""name"": ""Dive Tioman"", ""name:en"": ""Dive Tioman"", ""sport"": ""scuba_diving""}"
Moby Tek,,2.8352326,104.1604014,,,,,+60 12-774 8269,,,,,,8067619394,node,"{""amenity"": ""dive_centre"", ""contact:phone"": ""+60 12-774 8269"", ""contact:website"": ""https://www.moby-tek.com/"", ""name"": ""Moby Tek"", ""name:en"": ""Moby Tek"", ""name:ms"": ""Moby Tek"", ""sport"": ""scuba_diving""}"
Big Fins TecDiving,,-8.2784946,115.5933629,,,,,,,,,,,9028333855,node,"{""name"": ""Big Fins TecDiving"", ""sport"": ""scuba_diving""}"
Fam Wall,,-0.5915939,130.2967816,,,,,,,,,,,9865430908,node,"{""name"": ""Fam Wall"", ""sport"": ""scuba_diving"", ""tourism"": ""attraction""}"
Sawandarek Jetty,,-0.5897798,130.6033001,,,,,,,,,,,9865439531,node,"{""name"": ""Sawandarek Jetty"", ""sport"": ""scuba_diving"", ""tourism"": ""attraction""}"
Aerborek Jetty,,-0.5634152,130.5186131,,,,,,,,,,,9865449636,node,"{""name"": ""Aerborek Jetty"", ""sport"": ""scuba_diving"", ""tourism"": ""attraction""}"
Yenkoranu Jetty,,-0.5574918,130.6720178,,,,,,,,,,,9865460216,node,"{""name"": ""Yenkoranu Jetty"", ""sport"": ""scuba_diving"", ""tourism"": ""attraction""}"
Sardine Reef,,-0.5333183,130.7139487,,,,,,,,,,,9865460718,node,"{""name"": ""Sardine Reef"", ""scuba_diving:entry:boat"": ""yes"", ""sport"": ""scuba_diving"", ""tourism"": ""attraction""}"
Makassar Reef (Manta Point),,-8.5335442,119.5905966,,,,,,,,,,,10252897714,node,"{""name"": ""Makassar Reef (Manta Point)"", ""sport"": ""scuba_diving""}"
Cosmic Divers,,5.890445,102.7397787,,,,,+60 13-302 2588,,,,,,10716286776,node,"{""amenity"": ""dive_centre"", ""contact:phone"": ""+60 13-302 2588"", ""contact:website"": ""www.cosmic-divers.com"", ""league"": ""PADI"", ""name"": ""Cosmic Divers"", ""name:en"": ""Cosmic Divers"", ""scuba_diving:air_filling"": ""yes"", ""scuba_diving:courses"": ""yes"", ""scuba_diving:rental"": ""yes"", ""sport"": ""scuba_diving""}"
Menjangan - Pos 2,,-8.0964808,114.5279094,,,,,,,,,,,10874989402,node,"{""name"": ""Menjangan - Pos 2"", ""sport"": ""scuba_diving""}"
Coral Garden,,-8.0912588,114.5220724,,,,,,,,,,,10875039981,node,"{""name"": ""Coral Garden"", ""sport"": ""scuba_diving""}"
Lekker Divers,,5.9186391,102.721804,,,Pulau Perhentian Kecil,,+60 13-606 0616,,,,,,10989305874,node,"{""addr:city"": ""Pulau Perhentian Kecil"", ""addr:district"": ""Besut"", ""addr:place"": ""Long Beach"", ""addr:state"": ""Terengganu"", ""amenity"": ""dive_centre"", ""contact:instagram"": ""lekkerdivers"", ""contact:phone"": ""+60 13-606 0616"", ""contact:website"": ""www.lekkerdivers.com"", ""league"": ""PADI"", ""name"": ""Lekker Divers"", ""name:en"": ""Lekker Divers"", ""opening_hours"": ""08:00-19:00"", ""scuba_diving:courses"": ""yes"", ""sport"": ""scuba_diving""}"
Oh Lala Divers,,5.9214118,102.7232735,,,Pulau Perhentian Kecil,,+60 19-331 9624,arisdiver@hotmail.com,,,,,10989315761,node,"{""addr:city"": ""Pulau Perhentian Kecil"", ""addr:postcode"": ""22300"", ""addr:province"": ""Besut"", ""addr:state"": ""Terengganu"", ""addr:street"": ""Long Beach"", ""amenity"": ""dive_centre"", ""contact:email"": ""arisdiver@hotmail.com"", ""contact:phone"": ""+60 19-331 9624"", ""contact:website"": ""https://ohlalaperhentian.com/"", ""league"": ""PADI"", ""name"": ""Oh Lala Divers"", ""name:en"": ""Oh Lala Divers"", ""scuba_diving:courses"": ""yes"", ""sport"": ""scuba_diving""}"
Vietnamese Wreck,,5.894148,102.712432,,,,,,,,,,,11169096311,node,"{""name"": ""Vietnamese Wreck"", ""sport"": ""scuba_diving""}"
Sugar Wreck,,5.8796704,102.6404967,,,,,,,,,,,11169107467,node,"{""name"": ""Sugar Wreck"", ""sport"": ""scuba_diving""}"
San Choi Wreck,,5.933905,102.715836,,,,,,,,,,,11169113671,node,"{""historic"": ""wreck"", ""name"": ""San Choi Wreck"", ""scuba_diving:divespot"": ""yes"", ""seamark:type"": ""wreck"", ""sport"": ""scuba_diving"", ""tourism"": ""attraction"", ""wreck:type"": ""ship""}"
Temple of the Sea,,5.9610039,102.6550374,,,,,,,,,,,11169113672,node,"{""name"": ""Temple of the Sea"", ""name:ms"": ""Tokong Laut"", ""sport"": ""scuba_diving""}"
Kapal Polis,,5.912943,102.7491243,,,,,,,,,,,11169135239,node,"{""historic"": ""wreck"", ""name"": ""Kapal Polis"", ""name:en"": ""Police Wreck"", ""name:ms"": ""Kapal Polis"", ""scuba_diving:divespot"": ""yes"", ""seamark:type"": ""wreck"", ""sport"": ""scuba_diving""}"
Batu Layar,,5.912281,102.744517,,,,,,,,,,,11169135240,node,"{""name"": ""Batu Layar"", ""name:en"": ""Batu Layar Rock"", ""name:ms"": ""Batu Layar"", ""scuba_diving:divespot"": ""yes"", ""sport"": ""scuba_diving""}"
Blue Lagoon,,5.9104176,102.7487457,,,,,,,,,,,11169135241,node,"{""name"": ""Blue Lagoon"", ""name:en"": ""Blue Lagoon"", ""scuba_diving:divespot"": ""yes"", ""sport"": ""scuba_diving""}"
T3,,5.9002988,102.7739619,,,,,,,,,,,11233931008,node,"{""name"": ""T3"", ""name:ms"": ""Terumbu Tiga"", ""sport"": ""scuba_diving""}"
Emerald,,-8.2837348,115.6028731,,,,,,,,,,,12052475969,node,"{""name"": ""Emerald"", ""sport"": ""scuba_diving"", ""tourism"": ""attraction""}"
Friwen Garden,,-0.4713256,130.6985472,,,,,,,,,,,12167193373,node,"{""name"": ""Friwen Garden"", ""sport"": ""scuba_diving""}"
Yembuba,,-0.5718143,130.6618405,,,,,,,,,,,12167193374,node,"{""name"": ""Yembuba"", ""sport"": ""scuba_diving""}"
Lalosi,,-0.5457583,130.496442,,,,,,,,,,,12167206795,node,"{""name"": ""Lalosi"", ""sport"": ""scuba_diving""}"
The Cathedral,,-0.4200947,130.5683194,,,,,,,,,,,12167252226,node,"{""name"": ""The Cathedral"", ""sport"": ""scuba_diving""}"
Chicken Reef,,-0.5453593,130.7052249,,,,,,,,,,,12167252227,node,"{""name"": ""Chicken Reef"", ""sport"": ""scuba_diving""}"
Friwen Laut,,-0.4744472,130.7000962,,,,,,,,,,,12167270979,node,"{""name"": ""Friwen Laut"", ""sport"": ""scuba_diving""}"
Mayhen,,-0.5142787,130.4457185,,,,,,,,,,,12167275309,node,"{""name"": ""Mayhen"", ""sport"": ""scuba_diving""}"
Koh,,-0.5529745,130.6979979,,,,,,,,,,,12167277224,node,"{""name"": ""Koh"", ""sport"": ""scuba_diving""}"
Kabui,,-0.4343816,130.6872477,,,,,,,,,,,12167277390,node,"{""name"": ""Kabui"", ""sport"": ""scuba_diving""}"
Kakatua reef,,-0.415233,130.6744537,,,,,,,,,,,12167277473,node,"{""name"": ""Kakatua reef"", ""sport"": ""scuba_diving""}"
Batu Lima,,-0.4503087,130.698695,,,,,,,,,,,12167277474,node,"{""name"": ""Batu Lima"", ""sport"": ""scuba_diving""}"
Mioskun,,-0.4970983,130.719783,,,,,,,,,,,12167278047,node,"{""name"": ""Mioskun"", ""sport"": ""scuba_diving""}"
Manta Sandy,,-0.5532675,130.5299532,,,,,,,,,,,12167282450,node,"{""name"": ""Manta Sandy"", ""sport"": ""scuba_diving""}"
Ot Di Ma,,-0.5297741,130.6385512,,,,,,,,,,,12167284772,node,"{""name"": ""Ot Di Ma"", ""sport"": ""scuba_diving""}"
Blue Magic,,-0.5190107,130.7254735,,,,,,,,,,,12167285285,node,"{""name"": ""Blue Magic"", ""sport"": ""scuba_diving""}"
Selat Kabui,,-0.4321515,130.5515835,,,,,,,,,,,12167285438,node,"{""alt_name"": ""The Passage"", ""name"": ""Selat Kabui"", ""sport"": ""scuba_diving""}"
Mangrove,,-0.5251113,130.461759,,,,,,,,,,,12167289732,node,"{""name"": ""Mangrove"", ""sport"": ""scuba_diving""}"
Francisco,,-0.4673361,130.6941364,,,,,,,,,,,12167291184,node,"{""name"": ""Francisco"", ""sport"": ""scuba_diving""}"
Lao lao,,-0.5038958,130.718396,,,,,,,,,,,12167293760,node,"{""name"": ""Lao lao"", ""sport"": ""scuba_diving""}"
Andrea's Point,,-0.4641228,130.690372,,,,,,,,,,,12167296132,node,"{""name"": ""Andrea's Point"", ""sport"": ""scuba_diving""}"
West Mensuar,,-0.6087297,130.5466783,,,,,,,,,,,12167296133,node,"{""name"": ""West Mensuar"", ""sport"": ""scuba_diving""}"
Friwen Wall,,-0.4746023,130.6868607,,,,,,,,,,,12167299512,node,"{""name"": ""Friwen Wall"", ""sport"": ""scuba_diving""}"
Cross Over,,-0.5495349,130.6844603,,,,,,,,,,,12167300639,node,"{""name"": ""Cross Over"", ""sport"": ""scuba_diving""}"
Urai,,-0.4125069,130.6995888,,,,,,,,,,,12167301105,node,"{""name"": ""Urai"", ""sport"": ""scuba_diving""}"
Mike's Point,,-0.5117099,130.6723328,,,,,,,,,,,12167303316,node,"{""name"": ""Mike's Point"", ""sport"": ""scuba_diving""}"
Ransiwor,,-0.565852,130.6591085,,,,,,,,,,,12167303501,node,"{""name"": ""Ransiwor"", ""sport"": ""scuba_diving""}"
Wai FPW,,-0.7021871,130.7126716,,,,,,,,,,,12182208860,node,"{""name"": ""Wai FPW"", ""sport"": ""scuba_diving""}"
Anita Garden,,-0.543592,130.2514455,,,,,,,,,,,12185383593,node,"{""name"": ""Anita Garden"", ""source"": ""Erens"", ""sport"": ""scuba_diving""}"
Erens New,,-0.5823501,130.643081,,,,,,,,,,,12185384429,node,"{""name"": ""Erens New"", ""source"": ""Erens Diving Center Sawandarek"", ""sport"": ""scuba_diving""}"
Irvin's Mantas,,-0.7930622,130.5047585,,,,,,,,,,,12185388276,node,"{""name"": ""Irvin's Mantas"", ""sport"": ""scuba_diving""}"
Tiga Ruang,Please do not literally translate the name to Three Spaces but preserve the native name instead.,5.913863,102.7535919,,,,,,,,,,,12278833512,node,"{""name"": ""Tiga Ruang"", ""name:en"": ""Tiga Ruang"", ""name:ms"": ""Tiga Ruang"", ""natural"": ""reef"", ""note"": ""Please do not literally translate the name to Three Spaces but preserve the native name instead."", ""scuba_diving:divespot"": ""yes"", ""sport"": ""scuba_diving""}"
House Reef,,-0.7523122,121.7620927,,,,,,,,,,,12769986290,node,"{""name"": ""House Reef"", ""scuba_diving:divespot"": ""yes"", ""sport"": ""scuba_diving""}"
Cookie Monster,,-0.8259531,121.5938859,,,,,,,,,,,12769990888,node,"{""name"": ""Cookie Monster"", ""scuba_diving:divespot"": ""yes"", ""sport"": ""scuba_diving""}"
Nurek,"Coral garden dive spot. ""Nurek"" means ""diver"" in Polish.",-0.7523651,121.7690837,,,,,,,,,,,12769991804,node,"{""description"": ""Coral garden dive spot. \""Nurek\"" means \""diver\"" in Polish."", ""name"": ""Nurek"", ""scuba_diving:divespot"": ""yes"", ""sport"": ""scuba_diving""}"
Bima Sakti 1,,-0.7377503,121.7734271,,,,,,,,,,,12770023353,node,"{""name"": ""Bima Sakti 1"", ""scuba_diving:divespot"": ""yes"", ""sport"": ""scuba_diving""}"
Tanjung Gurita,,-0.7405208,121.7579097,,,,,,,,,,,12770028729,node,"{""name"": ""Tanjung Gurita"", ""scuba_diving:divespot"": ""yes"", ""sport"": ""scuba_diving""}"
SpaceX,,-0.7363043,121.766766,,,,,,,,,,,12770033185,node,"{""name"": ""SpaceX"", ""scuba_diving:divespot"": ""yes"", ""sport"": ""scuba_diving""}"
Bima Sakti 3,,-0.7379916,121.7659961,,,,,,,,,,,12770036839,node,"{""name"": ""Bima Sakti 3"", ""scuba_diving:divespot"": ""yes"", ""sport"": ""scuba_diving""}"
Survival,,-0.7610055,121.7715927,,,,,,,,,,,12770041807,node,"{""name"": ""Survival"", ""scuba_diving:divespot"": ""yes"", ""sport"": ""scuba_diving""}"
Rap God,,-0.7459502,121.7545824,,,,,,,,,,,12770052101,node,"{""name"": ""Rap God"", ""scuba_diving:divespot"": ""yes"", ""sport"": ""scuba_diving""}"
Tanjung Tampo,,-0.8111953,121.663937,,,,,,,,,,,12787919668,node,"{""name"": ""Tanjung Tampo"", ""scuba_diving:divespot"": ""yes"", ""sport"": ""scuba_diving""}"
Circus,,-0.7532412,121.7658429,,,,,,,,,,,12787932002,node,"{""name"": ""Circus"", ""scuba_diving:divespot"": ""yes"", ""sport"": ""scuba_diving""}"
LumbaLumba,,5.8533944,95.2697444,,,,https://www.lumbalumba.com/,,,,,,,92699576,way,"{""amenity"": ""dive_centre"", ""building"": ""yes"", ""building:levels"": ""3"", ""name"": ""LumbaLumba"", ""source"": ""Bing Aerial Images"", ""sport"": ""scuba_diving"", ""website"": ""https://www.lumbalumba.com/""}"
Rubiah Sea Garden,,5.8801557,95.2600141,,,,,,,,,,,370447979,way,"{""name"": ""Rubiah Sea Garden"", ""natural"": ""reef"", ""reef"": ""coral"", ""scuba_diving:type:snorkeling"": ""yes"", ""sport"": ""scuba_diving"", ""tourism"": ""yes""}"
Coral Reef,,5.8792122,95.2529243,,,,,,,,,,,370554234,way,"{""name"": ""Coral Reef"", ""natural"": ""reef"", ""reef"": ""coral"", ""scuba_diving:type:snorkeling"": ""yes"", ""sport"": ""scuba_diving""}"
Long Beach Reef,,5.8827546,95.2459194,,,,,,,,,,,370554248,way,"{""name"": ""Long Beach Reef"", ""natural"": ""reef"", ""reef"": ""coral"", ""scuba_diving:type:snorkeling"": ""yes"", ""sport"": ""scuba_diving""}"
Sardine Reef,Checked on diving map,-0.5339694,130.7144067,,,,,,,,,,,551174168,way,"{""name"": ""Sardine Reef"", ""natural"": ""reef"", ""note"": ""Checked on diving map"", ""sport"": ""scuba_diving""}"
Nautilus Diving Bali Shop,,-8.6890892,115.1657589,,,,,,,,,,,562955480,way,"{""building"": ""yes"", ""name"": ""Nautilus Diving Bali Shop"", ""sport"": ""scuba_diving""}"
Cape Kri,Checked on diving map,-0.5562761,130.6915275,,,,,,,,,,,565524431,way,"{""name"": ""Cape Kri"", ""note"": ""Checked on diving map"", ""sport"": ""scuba_diving""}"
Yenkoranu Jetty,,-0.5575219,130.6720492,,,,,,,,,,,565524432,way,"{""name"": ""Yenkoranu Jetty"", ""natural"": ""water"", ""sport"": ""scuba_diving""}"
Cape Mansuar,,-0.569893,130.6584611,,,,,,,,,,,565524433,way,"{""name"": ""Cape Mansuar"", ""sport"": ""scuba_diving"", ""tourism"": ""attraction""}"
Sawandarek Jetty,,-0.589818,130.6047713,,,,,,,,,,,567915039,way,"{""name"": ""Sawandarek Jetty"", ""sport"": ""scuba_diving""}"
Aerborek Jetty Dive Site,,-0.5633165,130.5184177,,,,,,,,,,,568677752,way,"{""name"": ""Aerborek Jetty Dive Site"", ""scuba_diving:divespot"": ""yes"", ""sport"": ""scuba_diving"", ""tourism"": ""attraction""}"
Fam Wall,,-0.5917237,130.296831,,,,,,,,,,,568677754,way,"{""name"": ""Fam Wall"", ""place"": ""locality"", ""scuba_diving:divespot"": ""yes"", ""sport"": ""scuba_diving"", ""tourism"": ""attraction""}"
Friwen Wall,,-0.4774477,130.6960298,,,,,,,,,,,672703117,way,"{""area"": ""yes"", ""name"": ""Friwen Wall"", ""sport"": ""scuba_diving"", ""tourism"": ""attraction""}"
Bintang Beach Club Dive And Water Sport,,-8.7561929,115.2215899,,,,,,,,,,,890776335,way,"{""addr:housenumber"": ""108A"", ""addr:street"": ""Jalan Pratama"", ""building"": ""yes"", ""leisure"": ""sports_centre"", ""name"": ""Bintang Beach Club Dive And Water Sport"", ""sport"": ""scuba_diving""}"
All 4 Diving Indonesia,,-8.6873648,115.167168,,,,,,,,,,,1087124627,way,"{""building"": ""yes"", ""name"": ""All 4 Diving Indonesia"", ""sport"": ""scuba_diving""}"
Sea Bell,,5.9101441,102.7097828,,,,,,,,,,,1327253036,way,"{""name"": ""Sea Bell"", ""name:en"": ""Sea Bell"", ""natural"": ""reef"", ""reef"": ""rock"", ""scuba_diving:divespot"": ""yes"", ""sport"": ""scuba_diving""}"
Sea Bell,,5.9101441,102.7097828,,,,,,,,,,multipolygon,18196428,relation,"{""name"": ""Sea Bell"", ""name:en"": ""Sea Bell"", ""natural"": ""reef"", ""reef"": ""rock"", ""scuba_diving:divespot"": ""yes"", ""sport"": ""scuba_diving"", ""type"": ""multipolygon""}"
