name,description,lat,lon,country,region,city,website,phone,email,difficulty,max_depth,entry_type,site_type,osm_id,osm_type,tags
CB Timanfaya,,28.9213052,-13.6666138,,,,,,,,,,,298970442,node,"{""amenity"": ""dive_centre"", ""name"": ""CB Timanfaya"", ""sport"": ""scuba_diving""}"
CB Profundo Azul,,38.5069342,-0.2275569,,,,,,,,,,,299664068,node,"{""leisure"": ""sports_centre"", ""name"": ""CB Profundo Azul"", ""sport"": ""scuba_diving""}"
CB Alisub,,38.5085906,-0.2187457,,,,,,,,,,,299664069,node,"{""leisure"": ""sports_centre"", ""name"": ""CB Alisub"", ""sport"": ""scuba_diving""}"
CB iSub,,36.7610456,-2.1112219,,,,,,,,,,,299665191,node,"{""name"": ""CB iSub"", ""sport"": ""scuba_diving""}"
CB Almasub,,36.9897353,-1.9012368,,,,,,,,,,,299665303,node,"{""name"": ""CB Almasub"", ""sport"": ""scuba_diving""}"
CB Costa Campello,,38.4314687,-0.3868671,,,,,,,,,,,299665756,node,"{""name"": ""CB Costa Campello"", ""sport"": ""scuba_diving""}"
CB Alphasub,,36.7627599,-2.1041183,,,,,,,,,,,307196217,node,"{""name"": ""CB Alphasub"", ""sport"": ""scuba_diving""}"
Dive & Fun Font de Sa Cala,,39.6833328,3.4515396,,,,http://www.mallorcadiving.de/,+34971818036,info@mallorcadiving.de,,,,,494221434,node,"{""amenity"": ""dive_centre"", ""check_date"": ""2024-04-14"", ""email"": ""info@mallorcadiving.de"", ""name"": ""Dive & Fun Font de Sa Cala"", ""phone"": ""+34971818036"", ""sport"": ""scuba_diving"", ""website"": ""http://www.mallorcadiving.de/""}"
El Bajón,,27.635451,-17.989397,,,,http://www.dive-links.com/tauchplatz.php?id=1816,,,,,,,663869527,node,"{""name"": ""El Baj\u00f3n"", ""source"": ""www.dive-links.com"", ""sport"": ""scuba_diving"", ""verified"": ""no, please check and del this tag"", ""website"": ""http://www.dive-links.com/tauchplatz.php?id=1816""}"
Cala Roja- Cabo de Palos,,37.6325832,-0.6900091,,,,,,,,,,,663869529,node,"{""name"": ""Cala Roja- Cabo de Palos"", ""sport"": ""scuba_diving"", ""verified"": ""no, please check and del this tag""}"
Cala Cerrada,,37.540948,-1.153609,,,,,,,,,,,663869530,node,"{""name"": ""Cala Cerrada"", ""source"": ""www.dive-links.com"", ""sport"": ""scuba_diving"", ""verified"": ""no, please check and del this tag""}"
la Pedrosa,,42.073431,3.2048378,,,,http://www.dive-links.com/tauchplatz.php?id=1835,,,,,,,663869682,node,"{""location"": ""underwater"", ""name"": ""la Pedrosa"", ""natural"": ""cave_entrance"", ""scuba_diving:divespot"": ""yes"", ""source"": ""www.dive-links.com"", ""sport"": ""scuba_diving"", ""verified"": ""no, please check and del this tag"", ""website"": ""http://www.dive-links.com/tauchplatz.php?id=1835""}"
Massa d'Or (la Rata),,42.319954,3.3314833,,,,http://www.dive-links.com/tauchplatz.php?id=1834,,,,,,,663869684,node,"{""name"": ""Massa d'Or (la Rata)"", ""source"": ""www.dive-links.com"", ""sport"": ""scuba_diving"", ""verified"": ""no, please check and del this tag"", ""website"": ""http://www.dive-links.com/tauchplatz.php?id=1834""}"
Le Liban,,43.2073445,5.3370887,,,,http://www.dive-links.com/tauchplatz.php?id=1286,,,,,,,663869688,node,"{""historic"": ""wreck"", ""name"": ""Le Liban"", ""scuba_diving:type"": ""wreck"", ""seamark:type"": ""wreck"", ""source"": ""www.dive-links.com"", ""sport"": ""scuba_diving"", ""website"": ""http://www.dive-links.com/tauchplatz.php?id=1286"", ""wikidata"": ""Q684484"", ""wikipedia"": ""fr:Liban (bateau de 1882)""}"
Wrack 'Sagona' (Le Grec),,42.9932666,6.2739333,,,,http://www.dive-links.com/tauchplatz.php?id=1415,,,,,,,663869693,node,"{""name"": ""Wrack 'Sagona' (Le Grec)"", ""source"": ""www.dive-links.com"", ""sport"": ""scuba_diving"", ""verified"": ""no, please check and del this tag"", ""website"": ""http://www.dive-links.com/tauchplatz.php?id=1415"", ""wreck:depth"": ""35m""}"
Arroyo,,43.0483396,5.8697301,,,,http://scubaspot.free.fr/epaves/arroyo.html,,,,,,,663869694,node,"{""historic"": ""wreck"", ""name"": ""Arroyo"", ""scuba_diving:divespot"": ""yes"", ""scuba_diving:entry:boat"": ""yes"", ""scuba_diving:maxdepth"": ""36"", ""scuba_diving:mindepth"": ""20"", ""scuba_diving:type:sea"": ""yes"", ""seamark:type"": ""wreck"", ""source"": ""www.dive-links.com"", ""sport"": ""scuba_diving"", ""url"": ""http://scubaspot.free.fr/epaves/arroyo.html""}"
Wrack 'Prosper Schiaffino' (Alias Donator),,42.9941166,6.2783333,,,,http://www.dive-links.com/tauchplatz.php?id=1416,,,,,,,663869699,node,"{""name"": ""Wrack 'Prosper Schiaffino' (Alias Donator)"", ""source"": ""www.dive-links.com"", ""sport"": ""scuba_diving"", ""verified"": ""no, please check and del this tag"", ""website"": ""http://www.dive-links.com/tauchplatz.php?id=1416"", ""wreck:depth"": ""25m""}"
La Tantine,please check and del this tag,43.0244334,6.3611,,,,http://www.dive-links.com/tauchplatz.php?id=1417,,,,,,,663869700,node,"{""alt_name"": ""La Barge aux congres"", ""historic"": ""wreck"", ""name"": ""La Tantine"", ""name:en"": ""Wrack 'Tantine'"", ""note"": ""please check and del this tag"", ""seamark:type"": ""wreck"", ""source"": ""www.dive-links.com"", ""sport"": ""scuba_diving"", ""verified"": ""no"", ""website"": ""http://www.dive-links.com/tauchplatz.php?id=1417""}"
Wildcat,,43.09185,6.3962166,,,,http://www.dive-links.com/tauchplatz.php?id=1418,,,,,,,663869701,node,"{""historic"": ""wreck"", ""name"": ""Wildcat"", ""seamark:type"": ""wreck"", ""source"": ""www.dive-links.com"", ""sport"": ""scuba_diving"", ""verified"": ""no, please check and del this tag"", ""website"": ""http://www.dive-links.com/tauchplatz.php?id=1418"", ""wreck:type"": ""aircraft""}"
Michel C,,43.0114667,6.1441,,,,http://scubaspot.free.fr/epaves/michelc.html,,,,,,,686704396,node,"{""historic"": ""wreck"", ""name"": ""Michel C"", ""scuba_diving:divespot"": ""yes"", ""scuba_diving:entry:boat"": ""yes"", ""scuba_diving:maxdepth"": ""39"", ""scuba_diving:mindepth"": ""32"", ""scuba_diving:type:sea"": ""yes"", ""seamark:type"": ""wreck"", ""sport"": ""scuba_diving"", ""url"": ""http://scubaspot.free.fr/epaves/michelc.html"", ""wreck:clearance"": ""32 m"", ""wreck:date_sunk"": ""1900-11-27"", ""wreck:depth"": ""39 m"", ""wreck:gross_tonnage"": ""285Tx"", ""wreck:length"": ""39.25 m"", ""wreck:width"": ""5.75 m""}"
les Salines,,42.0609543,3.2153709,,,,,,,,,,,791018422,node,"{""name"": ""les Salines"", ""sport"": ""scuba_diving""}"
Tasco Gros,,42.0420658,3.2279425,,,,,,,,,,,791018569,node,"{""name"": ""Tasco Gros"", ""scuba_diving:divespot"": ""yes"", ""scuba_diving:entry"": ""boat"", ""sport"": ""scuba_diving""}"
Dolfi Sud,,42.0437364,3.2264109,,,,,,,,,,,791018571,node,"{""name"": ""Dolfi Sud"", ""scuba_diving:divespot"": ""yes"", ""scuba_diving:entry"": ""boat"", ""sport"": ""scuba_diving""}"
la Vaca,,42.0473849,3.2256198,,,,,,,,,,,791018574,node,"{""name"": ""la Vaca"", ""scuba_diving:divespot"": ""yes"", ""scuba_diving:entry"": ""boat"", ""sport"": ""scuba_diving""}"
el Medallot,,42.0518457,3.2210025,,,,,,,,,,,791018578,node,"{""name"": ""el Medallot"", ""scuba_diving:divespot"": ""yes"", ""scuba_diving:entry"": ""boat"", ""sport"": ""scuba_diving""}"
el Salpatxot,,42.0495342,3.22052,,,,,,,,,,,791018585,node,"{""name"": ""el Salpatxot"", ""scuba_diving:divespot"": ""yes"", ""sport"": ""scuba_diving""}"
la Pota del Llop,,42.0493917,3.2262165,,,,,,,,,,,791018588,node,"{""name"": ""la Pota del Llop"", ""scuba_diving:divespot"": ""yes"", ""scuba_diving:entry"": ""boat"", ""sport"": ""scuba_diving""}"
la Pedra de Déu,,42.0503403,3.2250261,,,,,,,,,,,791018601,node,"{""name"": ""la Pedra de D\u00e9u"", ""scuba_diving:divespot"": ""yes"", ""scuba_diving:entry"": ""boat"", ""sport"": ""scuba_diving""}"
Tasco Petit,,42.0410957,3.2268263,,,,,,,,,,,791018606,node,"{""name"": ""Tasco Petit"", ""scuba_diving:divespot"": ""yes"", ""scuba_diving:entry"": ""boat"", ""sport"": ""scuba_diving""}"
les Ferranelles,,42.0421812,3.2254886,,,,,,,,,,,791018614,node,"{""name"": ""les Ferranelles"", ""scuba_diving:divespot"": ""yes"", ""scuba_diving:entry"": ""boat"", ""sport"": ""scuba_diving""}"
Carall Bernat,,42.0414835,3.2286086,,,,,,,,,,,791018619,node,"{""name"": ""Carall Bernat"", ""scuba_diving:divespot"": ""yes"", ""scuba_diving:entry"": ""boat"", ""sport"": ""scuba_diving""}"
Dolfi Nord,,42.0442477,3.2258048,,,,,,,,,,,791018624,node,"{""name"": ""Dolfi Nord"", ""scuba_diving:divespot"": ""yes"", ""scuba_diving:entry"": ""boat"", ""sport"": ""scuba_diving""}"
Cova de la Reina,,42.0465633,3.2249746,,,,,,,,,,,791058243,node,"{""name"": ""Cova de la Reina"", ""scuba_diving:divespot"": ""yes"", ""scuba_diving:entry"": ""boat"", ""sport"": ""scuba_diving""}"
Gouffre de Cabouy,,44.7902569,1.5845039,,,,,,,,,,,796228861,node,"{""name"": ""Gouffre de Cabouy"", ""natural"": ""cave_entrance"", ""scuba_diving:attraction:cave"": ""yes"", ""scuba_diving:maxdepth"": ""31"", ""source"": ""cadastre-dgi-fr source : Direction G\u00e9n\u00e9rale des Imp\u00f4ts - Cadastre;mise \u00e0 jour : 2010"", ""sport"": ""scuba_diving""}"
Arrecifal,,27.6418663,-17.982086,,,,,,,,,,,1011494392,node,"{""amenity"": ""dive_centre"", ""name"": ""Arrecifal"", ""sport"": ""scuba_diving""}"
Extra Divers El Hierro,,27.6409644,-17.9808239,,,La Restinga,https://extradivers-elhierro.com/,+34 922 557086,,,,,,1011494498,node,"{""addr:city"": ""La Restinga"", ""addr:housenumber"": ""2"", ""addr:postcode"": ""38917"", ""addr:street"": ""Avenida Mar\u00edtima"", ""amenity"": ""dive_centre"", ""name"": ""Extra Divers El Hierro"", ""operator"": ""Extra Divers Worldwide"", ""phone"": ""+34 922 557086"", ""sport"": ""scuba_diving"", ""website"": ""https://extradivers-elhierro.com/""}"
FAN Diving,,27.6408283,-17.9794695,ES,,La Restinga,http://www.el-hierro-tauchen.de/,,,,,,,1011494527,node,"{""addr:city"": ""La Restinga"", ""addr:country"": ""ES"", ""addr:housenumber"": ""4"", ""addr:postcode"": ""38915"", ""addr:street"": ""El Varadero"", ""amenity"": ""dive_centre"", ""name"": ""FAN Diving"", ""sport"": ""scuba_diving"", ""website"": ""http://www.el-hierro-tauchen.de/""}"
Benthos Buceo,,27.6428459,-17.9799421,,,,,,,,,,,1011495076,node,"{""amenity"": ""dive_centre"", ""name"": ""Benthos Buceo"", ""sport"": ""scuba_diving""}"
Buceo Costa Nerja,,36.7515097,-3.8660532,,,,,,,,,,,1119698062,node,"{""amenity"": ""dive_centre"", ""check_date"": ""2021-09-30"", ""name"": ""Buceo Costa Nerja"", ""ref"": ""798808"", ""scuba_diving:organization"": ""PADI"", ""sport"": ""scuba_diving""}"
Plongée Passion,,43.4337352,3.7769065,FR,,Frontignan,http://www.plongee-passion.com/,+33 4 67 18 40 80,plongeepassionfr@hotmail.com,,,,,1305757871,node,"{""addr:city"": ""Frontignan"", ""addr:country"": ""FR"", ""addr:housenumber"": ""1"", ""addr:postcode"": ""34110"", ""addr:street"": ""Rue Ferdinand de Lesseps"", ""amenity"": ""dive_centre"", ""email"": ""plongeepassionfr@hotmail.com"", ""name"": ""Plong\u00e9e Passion"", ""phone"": ""+33 4 67 18 40 80"", ""sport"": ""scuba_diving"", ""url"": ""http://www.plongee-passion.com/""}"
Société Nautique Estaque Mourepiane,,43.3570369,5.3192391,,,,http://snemplongee.zeblog.com/,,,,,,,1486024677,node,"{""leisure"": ""sports_centre"", ""name"": ""Soci\u00e9t\u00e9 Nautique Estaque Mourepiane"", ""sport"": ""scuba_diving"", ""website"": ""http://snemplongee.zeblog.com/""}"
Le Doris Plongée,,43.3613012,5.3123245,,,,http://le.doris.free.fr/,,,,,,,1669070691,node,"{""leisure"": ""sports_centre"", ""name"": ""Le Doris Plong\u00e9e"", ""sport"": ""scuba_diving"", ""website"": ""http://le.doris.free.fr/""}"
el Reggio,,42.0810324,3.2018565,,,,,,,,,,,1788581869,node,"{""name"": ""el Reggio"", ""sport"": ""scuba_diving""}"
el Rossinyol,,42.068088,3.2126259,,,,,,,,,,,1788581870,node,"{""name"": ""el Rossinyol"", ""scuba_diving:divespot"": ""yes"", ""sport"": ""scuba_diving""}"
la Ferriola,,42.0844478,3.1971438,,,,,,,,,,,1788581871,node,"{""name"": ""la Ferriola"", ""sport"": ""scuba_diving""}"
Negre del Falaguer,,42.0660198,3.2106594,,,,,,,,,,,1788581872,node,"{""name"": ""Negre del Falaguer"", ""sport"": ""scuba_diving""}"
Calypso Diving,,42.0493885,3.1962005,,,,,,,,,,,1938956753,node,"{""amenity"": ""dive_centre"", ""check_date"": ""2023-08-16"", ""language:de"": ""yes"", ""language:en"": ""yes"", ""language:fr"": ""yes"", ""language:nl"": ""yes"", ""name"": ""Calypso Diving"", ""scuba_diving:education"": ""yes"", ""scuba_diving:organization"": ""PADI,CMAS"", ""scuba_diving:spoken_languages"": ""es,en,de,nl,fr"", ""sport"": ""scuba_diving""}"
Easy Divers,,28.0783533,-16.7357446,,,,http://www.divingblueplanetenerife.com/,+34 922 712 429,info@easydiverstenerife.com,,,,,2110649069,node,"{""amenity"": ""dive_centre"", ""email"": ""info@easydiverstenerife.com"", ""name"": ""Easy Divers"", ""opening_hours"": ""08:00-20:00"", ""operator"": ""PADI"", ""phone"": ""+34 922 712 429"", ""sport"": ""scuba_diving"", ""website"": ""http://www.divingblueplanetenerife.com/""}"
Fontaine de la Burle,Plongée interdite sans autorisation de la municipalité,44.3669135,3.4102964,,,,,,,,,,,2411637407,node,"{""description"": ""Plong\u00e9e interdite sans autorisation de la municipalit\u00e9"", ""name"": ""Fontaine de la Burle"", ""natural"": ""spring"", ""scuba_diving:maxdepth"": ""39"", ""scuba_diving:type:cave"": ""yes"", ""scuba_diving:type:speleology"": ""yes"", ""sport"": ""scuba_diving""}"
Les fromages,,43.2101465,5.3402094,,,,,,,,,,,2467186943,node,"{""name"": ""Les fromages"", ""scuba_diving:depth"": ""10"", ""scuba_diving:maxdepth"": ""35"", ""scuba_diving:type:biology"": ""yes"", ""sport"": ""scuba_diving""}"
Tombant des pharillons,Certainement la plongée la plus célèbre de Marseille avec ces arches immenses son tombant de gorgones vertigineux et son épave le Liban qui repose sur 35 m de fond depuis plus de 100 ans,43.2072875,5.3378956,,,,,,,,,,,2467186944,node,"{""description"": ""Certainement la plong\u00e9e la plus c\u00e9l\u00e8bre de Marseille avec ces arches immenses son tombant de gorgones vertigineux et son \u00e9pave le Liban qui repose sur 35 m de fond depuis plus de 100 ans"", ""name"": ""Tombant des pharillons"", ""scuba_diving:depth"": ""20"", ""scuba_diving:maxdepth"": ""45"", ""scuba_diving:type:wall"": ""yes"", ""sport"": ""scuba_diving""}"
Exsurgence de Port-Miou,,43.2051748,5.5129118,,,,,,,,,,,2479149211,node,"{""karst"": ""yes"", ""name"": ""Exsurgence de Port-Miou"", ""name:oc"": ""S\u00f2rga de P\u00f2rt Miu"", ""natural"": ""spring"", ""scuba_diving:depth"": ""20"", ""scuba_diving:divespot"": ""yes"", ""scuba_diving:maxdepth"": ""223"", ""scuba_diving:type:speleology"": ""yes"", ""source:name:oc"": ""ieo-bdtopoc"", ""sport"": ""scuba_diving"", ""wikidata"": ""Q3062499"", ""wikipedia"": ""fr:Exsurgence de Port-Miou""}"
Amphores du frioul,,43.266369,5.2972538,,,,,,,,,,,2549677982,node,"{""name"": ""Amphores du frioul"", ""scuba_diving:depth"": ""14"", ""scuba_diving:difficulty"": ""1"", ""scuba_diving:maxdepth"": ""15"", ""scuba_diving:type:archaeology"": ""yes"", ""sport"": ""scuba_diving""}"
Arche du plannier,,43.1979667,5.2235667,,,,,,,,,,,2549677986,node,"{""name"": ""Arche du plannier"", ""scuba_diving:depth"": ""40"", ""scuba_diving:difficulty"": ""3"", ""scuba_diving:maxdepth"": ""50"", ""sport"": ""scuba_diving""}"
Boué Bora,,43.23825,5.3475833,,,,,,,,,,,2549677990,node,"{""name"": ""Bou\u00e9 Bora"", ""scuba_diving:depth"": ""24"", ""scuba_diving:difficulty"": ""2"", ""scuba_diving:maxdepth"": ""24"", ""sport"": ""scuba_diving""}"
Calanque des Contrebandiers,,43.1738983,5.3857083,,,,,,,,,,,2549677993,node,"{""alt_name"": ""Calanque des Anglais"", ""fixme"": ""\u00e0 v\u00e9rifier/sourcer (alt_name)"", ""name"": ""Calanque des Contrebandiers"", ""natural"": ""bay"", ""scuba_diving:depth"": ""25"", ""scuba_diving:difficulty"": ""2"", ""scuba_diving:maxdepth"": ""45"", ""sport"": ""scuba_diving""}"
Cavau,,43.2638333,5.28575,,,,,,,,,,,2549677997,node,"{""name"": ""Cavau"", ""name:oc"": ""Cap Avau"", ""scuba_diving:maxdepth"": ""35"", ""source:name:oc"": ""ieo-bdtopoc"", ""sport"": ""scuba_diving""}"
Cathédrale,,43.209289,5.333337,,,,,,,,,,,2549678000,node,"{""name"": ""Cath\u00e9drale"", ""scuba_diving:depth"": ""23"", ""scuba_diving:difficulty"": ""2"", ""scuba_diving:maxdepth"": ""28"", ""sport"": ""scuba_diving""}"
Grand Congloué,,43.1761167,5.4030667,,,,,,,,,,,2549678003,node,"{""name"": ""Grand Conglou\u00e9"", ""name:oc"": ""Lo Conclu\u00e1"", ""scuba_diving:depth"": ""20"", ""scuba_diving:difficulty"": ""2"", ""scuba_diving:maxdepth"": ""55"", ""source:name:oc"": ""ieo-bdtopoc"", ""sport"": ""scuba_diving""}"
Grotte Arc en Ciel,,43.1968167,5.3636333,,,,,,,,,,,2549678007,node,"{""name"": ""Grotte Arc en Ciel"", ""scuba_diving:depth"": ""17"", ""scuba_diving:difficulty"": ""1"", ""scuba_diving:maxdepth"": ""24"", ""sport"": ""scuba_diving""}"
Grotte Mystérieuse,,43.1953667,5.3659333,,,,,,,,,,,2549678011,node,"{""name"": ""Grotte Myst\u00e9rieuse"", ""scuba_diving:depth"": ""10"", ""scuba_diving:difficulty"": ""1"", ""scuba_diving:maxdepth"": ""15"", ""scuba_diving:type:cavern"": ""yes"", ""scuba_diving:type:high"": ""no"", ""sport"": ""scuba_diving""}"
Grotte à corail,,43.2105667,5.3328,,,,,,,,,,,2549678014,node,"{""name"": ""Grotte \u00e0 corail"", ""scuba_diving:depth"": ""9"", ""scuba_diving:difficulty"": ""1"", ""scuba_diving:maxdepth"": ""25"", ""scuba_diving:type:cavern"": ""yes"", ""sport"": ""scuba_diving""}"
Iles des moyades,,43.1767333,5.3703333,,,,,,,,,,,2549678018,node,"{""name"": ""Iles des moyades"", ""name:oc"": ""Illon dei Molhadas"", ""scuba_diving:depth"": ""15"", ""scuba_diving:difficulty"": ""1"", ""scuba_diving:maxdepth"": ""45"", ""source:name:oc"": ""ieo-bdtopoc"", ""sport"": ""scuba_diving""}"
Junker 88,,43.2746833,5.2867,,,,,,,,,,,2549678021,node,"{""historic"": ""wreck"", ""name"": ""Junker 88"", ""scuba_diving:depth"": ""50"", ""scuba_diving:difficulty"": ""3"", ""scuba_diving:maxdepth"": ""54"", ""scuba_diving:type:wreck"": ""yes"", ""sport"": ""scuba_diving"", ""wreck:type"": ""aircraft""}"
La drome,,43.2309333,5.31975,,,,https://www.wannadive.net/spot/Europe/France/Mediterranean/Marseille/Roadstead_of_Marseille/La_Drome/index.html,,,,,,,2549678025,node,"{""historic"": ""wreck"", ""name"": ""La drome"", ""scuba_diving:depth"": ""44"", ""scuba_diving:difficulty"": ""3"", ""scuba_diving:maxdepth"": ""53"", ""scuba_diving:type:wreck"": ""yes"", ""seamark:type"": ""wreck"", ""sport"": ""scuba_diving"", ""url"": ""http://uboat.net/wwi/ships_hit/3430.html"", ""website"": ""https://www.wannadive.net/spot/Europe/France/Mediterranean/Marseille/Roadstead_of_Marseille/La_Drome/index.html"", ""wikidata"": ""Q6639178"", ""wikipedia"": ""en:List of shipwrecks in January 1918""}"
Le Chaouen,,43.1987,5.2288167,,,,,,,,,,,2549678029,node,"{""comment"": ""le Chaouen, un cargo de nationalit\u00e9 marocaine \u00e9chou\u00e9 le 21 f\u00e9vrier 1970"", ""name"": ""Le Chaouen"", ""name:oc"": ""Lo Chaoen"", ""scuba_diving:depth"": ""15"", ""scuba_diving:difficulty"": ""1"", ""scuba_diving:entry:boat"": ""yes"", ""scuba_diving:maxdepth"": ""35"", ""scuba_diving:type:wreck"": ""yes"", ""seamark:type"": ""wreck"", ""source:name:oc"": ""ieo-bdtopoc"", ""sport"": ""scuba_diving"", ""wikidata"": ""Q2956465"", ""wikipedia"": ""fr:Chaouen (\u00e9pave)""}"
Le Dalton,,43.19975,5.23065,,,,,,,,,,,2549678034,node,"{""historic"": ""wreck"", ""name"": ""Le Dalton"", ""scuba_diving:depth"": ""18"", ""scuba_diving:difficulty"": ""2"", ""scuba_diving:maxdepth"": ""45"", ""scuba_diving:type:wreck"": ""yes"", ""seamark:type"": ""wreck"", ""sport"": ""scuba_diving""}"
Les Veyrons,,43.2068667,5.2535333,,,,,,,,,,,2549678038,node,"{""name"": ""Les Veyrons"", ""scuba_diving:depth"": ""16"", ""scuba_diving:difficulty"": ""2"", ""scuba_diving:maxdepth"": ""25"", ""sport"": ""scuba_diving""}"
Messerschmit,,43.2001333,5.2297333,,,,,,,,,,,2549678041,node,"{""historic"": ""wreck"", ""name"": ""Messerschmit"", ""scuba_diving:depth"": ""45"", ""scuba_diving:difficulty"": ""3"", ""scuba_diving:maxdepth"": ""45"", ""scuba_diving:type:wreck"": ""yes"", ""seamark:type"": ""wreck"", ""sport"": ""scuba_diving"", ""wikidata"": ""Q3307032"", ""wikipedia"": ""fr:Messerschmitt Bf 109 (\u00e9pave de Marseille)"", ""wreck:type"": ""aircraft""}"
Moyadons,,43.1780667,5.3684833,,,,,,,,,,,2549678046,node,"{""name"": ""Moyadons"", ""name:oc"": ""Lei Molhadons"", ""scuba_diving:depth"": ""20"", ""scuba_diving:difficulty"": ""2"", ""scuba_diving:maxdepth"": ""45"", ""source:name:oc"": ""ieo-bdtopoc"", ""sport"": ""scuba_diving""}"
Nord Ratoneau,,43.28545,5.3050833,,,,,,,,,,,2549678049,node,"{""name"": ""Nord Ratoneau"", ""name:oc"": ""Raton\u00e8u N\u00f2rd"", ""scuba_diving:depth"": ""5"", ""scuba_diving:difficulty"": ""1"", ""scuba_diving:maxdepth"": ""38"", ""source:name:oc"": ""ieo-bdtopoc"", ""sport"": ""scuba_diving""}"
Pierre de Briancon,,43.1969265,5.3615145,,,,,,,,,,,2549678053,node,"{""name"": ""Pierre de Briancon"", ""scuba_diving:depth"": ""10"", ""scuba_diving:difficulty"": ""1"", ""scuba_diving:maxdepth"": ""25"", ""sport"": ""scuba_diving""}"
Pierre fendue,,43.2647,5.2843,,,,,,,,,,,2549678056,node,"{""name"": ""Pierre fendue"", ""scuba_diving:depth"": ""35"", ""scuba_diving:difficulty"": ""2"", ""scuba_diving:maxdepth"": ""45"", ""sport"": ""scuba_diving""}"
Cala maussana,,43.1737117,5.3982744,,,,,,,,,,,2549678059,node,"{""comment"": ""Confusion r roul\u00e9/ l et graphie ancienne ign/ in. Fr. Malsaine"", ""name"": ""Cala maussana"", ""name:oc"": ""Cala Mausana"", ""scuba_diving:maxdepth"": ""45"", ""source:name:oc"": ""ieo-bdtopoc"", ""sport"": ""scuba_diving""}"
Saint Dominique,,43.3100667,5.3464833,,,,,,,,,,,2549678062,node,"{""historic"": ""wreck"", ""name"": ""Saint Dominique"", ""scuba_diving:depth"": ""25"", ""scuba_diving:difficulty"": ""2"", ""scuba_diving:maxdepth"": ""33"", ""scuba_diving:type:wreck"": ""yes"", ""seamark:type"": ""wreck"", ""sport"": ""scuba_diving""}"
Tiboulen de Maire,,43.2134982,5.3251446,,,,,,,,,,,2549678067,node,"{""name"": ""Tiboulen de Maire"", ""scuba_diving:depth"": ""15"", ""scuba_diving:difficulty"": ""1"", ""scuba_diving:maxdepth"": ""25"", ""sport"": ""scuba_diving""}"
Tiboulen de frioul,,43.2804167,5.2862833,,,,,,,,,,,2549678071,node,"{""name"": ""Tiboulen de frioul"", ""scuba_diving:depth"": ""15"", ""scuba_diving:difficulty"": ""1"", ""scuba_diving:maxdepth"": ""45"", ""sport"": ""scuba_diving""}"
Tunnel de planne,,43.18895,5.385,,,,,,,,,,,2549678074,node,"{""name"": ""Tunnel de planne"", ""scuba_diving:depth"": ""1"", ""scuba_diving:difficulty"": ""1"", ""scuba_diving:maxdepth"": ""8"", ""sport"": ""scuba_diving""}"
House Reef,,41.9176257,3.2093751,,,,,,,,,,,2586593280,node,"{""name"": ""House Reef"", ""scuba_diving:attraction:biology"": ""yes"", ""scuba_diving:attraction:night"": ""yes"", ""scuba_diving:attraction:reef"": ""yes"", ""scuba_diving:attraction:rocks"": ""yes"", ""scuba_diving:depth"": ""5"", ""scuba_diving:entry:steps"": ""yes"", ""scuba_diving:maxdepth"": ""13"", ""scuba_diving:surface:sand"": ""yes"", ""scuba_diving:type:sea"": ""yes"", ""sport"": ""scuba_diving""}"
Camp Bay,,36.1192631,-5.3516265,,,,,,,,,,,2629930892,node,"{""name"": ""Camp Bay"", ""name:fr"": ""Baie de Camp"", ""natural"": ""bay"", ""sport"": ""scuba_diving"", ""wikidata"": ""Q5026991"", ""wikipedia"": ""en:Camp Bay, Gibraltar""}"
Atalaia Diving,,32.6418949,-16.8298615,,,,,,,,,,,2649557695,node,"{""leisure"": ""sports_centre"", ""name"": ""Atalaia Diving"", ""sport"": ""scuba_diving"", ""toilets:wheelchair"": ""no"", ""wheelchair"": ""limited""}"
Site de plongée de Guéthary,,43.43373,-1.6168,,,,,,,,,,,2937587818,node,"{""name"": ""Site de plong\u00e9e de Gu\u00e9thary"", ""source"": ""data.gouv.fr:Le minist\u00e8re des droits des femmes, de la ville, de la jeunesse et des sports - 2014"", ""sport"": ""scuba_diving""}"
Sites de plongée de Chicharvel,,43.3937,-1.76956,,,,,,,,,,,2937587819,node,"{""name"": ""Sites de plong\u00e9e de Chicharvel"", ""source"": ""data.gouv.fr:Le minist\u00e8re des droits des femmes, de la ville, de la jeunesse et des sports - 2014"", ""sport"": ""scuba_diving""}"
Sites de plongée de la Basse des Esclaves,,43.48337,-1.61416,,,,,,,,,,,2937587820,node,"{""name"": ""Sites de plong\u00e9e de la Basse des Esclaves"", ""source"": ""data.gouv.fr:Le minist\u00e8re des droits des femmes, de la ville, de la jeunesse et des sports - 2014"", ""sport"": ""scuba_diving""}"
Erretak,,43.3953,-1.74876,,,,,,,,,,,2937587821,node,"{""name"": ""Erretak"", ""name:fr"": ""Sites de plong\u00e9e des Briquets"", ""source"": ""data.gouv.fr:Le minist\u00e8re des droits des femmes, de la ville, de la jeunesse et des sports - 2014;https://www.euskaltzaindia.eus/index.php?option=com_euskaltzaindiarenarauak&view=frontpage&Itemid=424&lang=eu&arauaId=199"", ""sport"": ""scuba_diving""}"
Gouffre de Poumayssen,Regard sur la rivière souterraine de l'Ouysse : l'aval résurge à Cabouy,44.7909084,1.5932728,,,,,,,,,,,2990625416,node,"{""description"": ""Regard sur la rivi\u00e8re souterraine de l'Ouysse : l'aval r\u00e9surge \u00e0 Cabouy"", ""name"": ""Gouffre de Poumayssen"", ""natural"": ""cave_entrance"", ""scuba_diving:attraction:cave"": ""yes"", ""scuba_diving:maxdepth"": ""31"", ""sport"": ""scuba_diving""}"
Bosse du Chameau,"""Pain de sucre"" remontant jusqu'à 15 m de la surface, difficile à trouver. Emplacement approximatif.",43.1709683,5.3961359,,,,,,,,,,,2990794867,node,"{""name"": ""Bosse du Chameau"", ""note"": ""\""Pain de sucre\"" remontant jusqu'\u00e0 15 m de la surface, difficile \u00e0 trouver. Emplacement approximatif."", ""scuba_diving:attraction:biology"": ""yes"", ""scuba_diving:dangers:depth"": ""yes"", ""scuba_diving:entry:boat"": ""yes"", ""scuba_diving:maxdepth"": ""60"", ""scuba_diving:type:sea"": ""yes"", ""sport"": ""scuba_diving""}"
Impérial de Terre,"Petits tunnels, belle ambiance photographique. Possibilité de faire aussi le tombant de David.",43.1728871,5.392925,,,,,,,,,,,2990794868,node,"{""name"": ""Imp\u00e9rial de Terre"", ""name:oc"": ""L\u2019Imperiau de T\u00e8rra"", ""note"": ""Petits tunnels, belle ambiance photographique. Possibilit\u00e9 de faire aussi le tombant de David."", ""scuba_diving:attraction:biology"": ""yes"", ""scuba_diving:attraction:reef"": ""no"", ""scuba_diving:attraction:rocks"": ""yes"", ""scuba_diving:depth"": ""12"", ""scuba_diving:entry:boat"": ""yes"", ""scuba_diving:maxdepth"": ""25"", ""scuba_diving:type:sea"": ""yes"", ""source:name:oc"": ""ieo-bdtopoc"", ""sport"": ""scuba_diving""}"
Impérial du Large,Tombant,43.169658,5.3944172,,,,,,,,,,,2990794869,node,"{""name"": ""Imp\u00e9rial du Large"", ""name:oc"": ""L\u2019Imperiau de F\u00f2ra"", ""note"": ""Tombant"", ""scuba_diving:dangers:depth"": ""yes"", ""scuba_diving:entry:boat"": ""yes"", ""scuba_diving:maxdepth"": ""65"", ""scuba_diving:type:sea"": ""yes"", ""source:name:oc"": ""ieo-bdtopoc"", ""sport"": ""scuba_diving""}"
Impérial du Milieu,La plongée se fait en faisant le tour de l'île,43.1715248,5.3941207,,,,,,,,,,,2990794870,node,"{""name"": ""Imp\u00e9rial du Milieu"", ""name:oc"": ""L\u2019Imperiau dau Mitan"", ""note"": ""La plong\u00e9e se fait en faisant le tour de l'\u00eele"", ""scuba_diving:entry:boat"": ""yes"", ""scuba_diving:maxdepth"": ""60"", ""scuba_diving:type:sea"": ""yes"", ""source:name:oc"": ""ieo-bdtopoc"", ""sport"": ""scuba_diving""}"
Tombant de David,,43.1730559,5.3943411,,,,,,,,,,,2990794871,node,"{""name"": ""Tombant de David"", ""name:oc"": ""Tombant de D\u00e0vid"", ""scuba_diving:attraction:biology"": ""yes"", ""scuba_diving:attraction:rocks"": ""yes"", ""scuba_diving:depth"": ""20"", ""scuba_diving:entry:boat"": ""yes"", ""scuba_diving:maxdepth"": ""25"", ""scuba_diving:type:sea"": ""yes"", ""source:name:oc"": ""ieo-bdtopoc"", ""sport"": ""scuba_diving""}"
Grotte de la Triperie,,43.2032972,5.4516116,,,,,,,,,,,2990809754,node,"{""name"": ""Grotte de la Triperie"", ""name:oc"": ""Avenc de la Tripari\u00e1"", ""natural"": ""cave_entrance"", ""scuba_diving:depth"": ""10"", ""scuba_diving:entry:boat"": ""yes"", ""scuba_diving:maxdepth"": ""20"", ""scuba_diving:type:sea"": ""yes"", ""source:name:oc"": ""ieo-bdtopoc"", ""sport"": ""scuba_diving"", ""wikidata"": ""Q3117199"", ""wikipedia"": ""fr:Grotte de la Triperie""}"
Les Canons,Deux canons napoléoniens tombés des batteries de la falaise sont visibles. Tombant au sud-ouest.,43.2029076,5.4551918,,,,,,,,,,,2990809755,node,"{""name"": ""Les Canons"", ""note"": ""Deux canons napol\u00e9oniens tomb\u00e9s des batteries de la falaise sont visibles. Tombant au sud-ouest."", ""scuba_diving:attraction:archaeology"": ""yes"", ""scuba_diving:attraction:biology"": ""yes"", ""scuba_diving:entry:boat"": ""yes"", ""scuba_diving:maxdepth"": ""40"", ""scuba_diving:type:sea"": ""yes"", ""sport"": ""scuba_diving"", ""tourism"": ""attraction""}"
Fontaine Saint-Georges,Résurgence de la rivière de Padirac,44.8894714,1.6190594,,,,,,,,,,,3024194905,node,"{""name"": ""Fontaine Saint-Georges"", ""natural"": ""cave_entrance"", ""note"": ""R\u00e9surgence de la rivi\u00e8re de Padirac"", ""scuba_diving:attraction:cave"": ""yes"", ""scuba_diving:dangers:depth"": ""yes"", ""scuba_diving:entry:shore"": ""yes"", ""scuba_diving:maxdepth"": ""80"", ""scuba_diving:type"": ""cave"", ""sport"": ""scuba_diving""}"
Source de la Finou,Résurgence de la rivière de Padirac,44.8793032,1.6149012,,,,,,,,,,,3024206446,node,"{""name"": ""Source de la Finou"", ""natural"": ""cave_entrance"", ""note"": ""R\u00e9surgence de la rivi\u00e8re de Padirac"", ""scuba_diving:attraction:cave"": ""yes"", ""sport"": ""scuba_diving""}"
Source de Combe Nègre,"Multi-siphons, début étroit.",44.8467771,1.4901119,,,,,,,,,,,3024484145,node,"{""name"": ""Source de Combe N\u00e8gre"", ""natural"": ""cave_entrance"", ""note"": ""Multi-siphons, d\u00e9but \u00e9troit."", ""scuba_diving:attraction:cave"": ""yes"", ""sport"": ""scuba_diving""}"
Marche-Pied,"Multi-siphons, entrée très étroite.",44.5401129,1.7650104,,,,,,,,,,,3024534806,node,"{""name"": ""Marche-Pied"", ""natural"": ""spring"", ""note"": ""Multi-siphons, entr\u00e9e tr\u00e8s \u00e9troite."", ""scuba_diving:attraction:cave"": ""yes"", ""sport"": ""scuba_diving""}"
Crégols,"Multi-siphons, entrée étroite, escalade.",44.4572666,1.6988336,,,,,,,,,,,3024648993,node,"{""name"": ""Cr\u00e9gols"", ""natural"": ""spring"", ""note"": ""Multi-siphons, entr\u00e9e \u00e9troite, escalade."", ""scuba_diving:attraction:cave"": ""yes"", ""sport"": ""scuba_diving""}"
Réesurgence de la Landenouse,,44.487654,1.8656664,,,,,,,,,,,3024804118,node,"{""karst"": ""yes"", ""name"": ""R\u00e9esurgence de la Landenouse"", ""natural"": ""cave_entrance"", ""scuba_diving:attraction:cave"": ""yes"", ""scuba_diving:entry:ladder"": ""yes"", ""sport"": ""scuba_diving""}"
Wildcat,,43.1007264,6.3860343,,,,,,,,,,,3135111241,node,"{""name"": ""Wildcat"", ""scuba_diving:depth"": ""53m"", ""scuba_diving:type:wreck"": ""yes"", ""source"": ""data.gouv.fr:Le minist\u00e8re des droits des femmes, de la ville, de la jeunesse et des sports - 2014"", ""sport"": ""scuba_diving""}"
Centro de Buceo,,36.7337234,-3.9753289,,,,https://www.blackfrogdivers.com/,+34 952968273,,,,,,3331922438,node,"{""amenity"": ""dive_centre"", ""check_date"": ""2016-05-25"", ""name"": ""Centro de Buceo"", ""phone"": ""+34 952968273"", ""ref"": ""289917"", ""scuba_diving:organization"": ""PADI"", ""sport"": ""scuba_diving"", ""website"": ""https://www.blackfrogdivers.com/""}"
Puerto del Carmen (east),,28.9205562,-13.6715704,,,,,,,,,,,3545998235,node,"{""name"": ""Puerto del Carmen (east)"", ""scuba_diving:access_easyness"": ""1"", ""scuba_diving:current"": ""1"", ""scuba_diving:difficulty"": ""1"", ""scuba_diving:entry"": ""shore"", ""scuba_diving:type:training"": ""yes"", ""sport"": ""scuba_diving""}"
Puerto del Carmen (west),,28.9196145,-13.6759375,,,,,,,,,,,3545998236,node,"{""name"": ""Puerto del Carmen (west)"", ""scuba_diving:access_easyness"": ""1"", ""scuba_diving:current"": ""1"", ""scuba_diving:dangers:ship"": ""yes"", ""scuba_diving:depth"": ""20m-40m"", ""scuba_diving:difficulty"": ""1"", ""scuba_diving:entry"": ""boat"", ""scuba_diving:maxdepth"": ""45m"", ""scuba_diving:type:wreck"": ""yes"", ""sport"": ""scuba_diving""}"
Amigos do Mar,,41.6852673,-8.8461241,,,,,,,,,,,3563429593,node,"{""name"": ""Amigos do Mar"", ""sport"": ""scuba_diving""}"
Émergence de la Pescalerie,,44.5214392,1.6701145,,,,http://www.plongeesout.com/sites/roussilon-pyrenees/lot/pescalerie.htm,,,,,,,3648765071,node,"{""access"": ""private"", ""image"": ""https://fr.wikipedia.org/wiki/Cabrerets#/media/File:Cabrerets_La_Pescalerie2.JPG"", ""name"": ""\u00c9mergence de la Pescalerie"", ""natural"": ""spring"", ""scuba_diving:type"": ""cavern"", ""sport"": ""scuba_diving"", ""url"": ""http://www.plongeesout.com/sites/roussilon-pyrenees/lot/pescalerie.htm"", ""wikipedia"": ""fr:Cabrerets#Lieux et monuments""}"
Émergence de Meyraguet,,44.8516875,1.5432982,,,,http://www.plongeesout.com/sites/roussilon-pyrenees/lot/meyraguet.htm,,,,,,,3649148443,node,"{""name"": ""\u00c9mergence de Meyraguet"", ""natural"": ""cave_entrance"", ""scuba_diving:type"": ""cavern"", ""sport"": ""scuba_diving"", ""url"": ""http://www.plongeesout.com/sites/roussilon-pyrenees/lot/meyraguet.htm""}"
Émergence du Bestouan,Émergence d'une rivère souterraine,43.2135811,5.5329005,,,,http://www.plongeesout.com/sites/provence/bouches%20du%20rhone/bestouan.htm,,,,,,,3658660687,node,"{""name"": ""\u00c9mergence du Bestouan"", ""name:oc"": ""Sorgent de Best\u00f2n"", ""natural"": ""spring"", ""note"": ""\u00c9mergence d'une riv\u00e8re souterraine"", ""scuba_diving:maxdepth"": ""30"", ""scuba_diving:type"": ""cave"", ""scuba_diving:type:speleology"": ""yes"", ""source:name:oc"": ""ieo-bdtopoc"", ""sport"": ""scuba_diving"", ""url"": ""http://www.plongeesout.com/sites/provence/bouches%20du%20rhone/bestouan.htm""}"
Bahia-Sub,,42.4901472,-8.8883611,,,,https://www.bahiasub.com/,+34 607911523,,,,,,3665128843,node,"{""amenity"": ""dive_centre"", ""contact:phone"": ""+34 607911523"", ""name"": ""Bahia-Sub"", ""source"": ""survey"", ""sport"": ""scuba_diving"", ""website"": ""https://www.bahiasub.com/""}"
Trou Madame,,44.4507847,1.754216,,,,,,,,,,,3771900297,node,"{""name"": ""Trou Madame"", ""natural"": ""cave_entrance"", ""sport"": ""scuba_diving""}"
Centre de Plongée Souterraine,,44.5713252,1.6943503,,,,https://www.lotcavediving.eu/,+33 6 45 63 94 37,info@lotcavediving.eu,,,,,3842620651,node,"{""contact:facebook"": ""lotcavediving"", ""email"": ""info@lotcavediving.eu"", ""leisure"": ""sports_centre"", ""name"": ""Centre de Plong\u00e9e Souterraine"", ""phone"": ""+33 6 45 63 94 37"", ""sport"": ""scuba_diving"", ""website"": ""https://www.lotcavediving.eu/""}"
Lobosonda,,32.7184417,-17.1715909,PT,,Calheta,https://www.lobosonda.com/,+351 968 400 980,info@lobosonda.com,,,,,3882547823,node,"{""addr:city"": ""Calheta"", ""addr:country"": ""PT"", ""addr:postcode"": ""9370-133"", ""addr:street"": ""Avenida D. Manuel I"", ""email"": ""info@lobosonda.com"", ""name"": ""Lobosonda"", ""phone"": ""+351 968 400 980"", ""scuba_diving:type:snorkeling"": ""yes"", ""sport"": ""scuba_diving"", ""website"": ""https://www.lobosonda.com/""}"
Federación Galega de Actividades Subacuáticas,,43.3681486,-8.3877273,,,A Coruña,https://www.fegas.net/,+34 981 22 16 85,,,,,,4172032140,node,"{""addr:city"": ""A Coru\u00f1a"", ""addr:flats"": ""1"", ""addr:housenumber"": ""6"", ""addr:postcode"": ""15001"", ""addr:street"": ""Paseo Alcalde Francisco V\u00e1zquez"", ""name"": ""Federaci\u00f3n Galega de Actividades Subacu\u00e1ticas"", ""office"": ""association"", ""phone"": ""+34 981 22 16 85"", ""short_name"": ""FEGAS"", ""sport"": ""scuba_diving"", ""website"": ""https://www.fegas.net/""}"
Ecosystem Centre De Plongée,,43.5274653,3.9287676,,,,,,,,,,,4262592490,node,"{""name"": ""Ecosystem Centre De Plong\u00e9e"", ""sport"": ""scuba_diving""}"
Font del Truffe,,44.8250173,1.55079,,,,,,,,,,,4286676101,node,"{""name"": ""Font del Truffe"", ""natural"": ""cave_entrance"", ""scuba_diving:type"": ""cave"", ""sport"": ""scuba_diving""}"
Calanque de Figuerolles,,43.166283,5.5963,,,,,,,,,,,4356710559,node,"{""name"": ""Calanque de Figuerolles"", ""source"": ""data.gouv.fr:Le minist\u00e8re des droits des femmes, de la ville, de la jeunesse et des sports - 11/2015"", ""sport"": ""scuba_diving""}"
Source de Marnade,,44.2521023,4.4410032,,,,,,,,,,,4543573870,node,"{""name"": ""Source de Marnade"", ""natural"": ""spring"", ""scuba_diving:type:cave"": ""yes"", ""sport"": ""scuba_diving""}"
L embarrancat,,42.2614041,3.1490798,,,,https://www.lembarrancat.com/,,,,,,,4729729203,node,"{""addr:housenumber"": ""23"", ""name"": ""L embarrancat"", ""sport"": ""scuba_diving"", ""website"": ""https://www.lembarrancat.com/""}"
ASPTT Toulouse Plongée,,43.6108878,1.4737243,,,Toulouse,http://www.asptt-plongee.fr/,,president-asptt-plongee-toulouse@googlegroups.com,,,,,4817971493,node,"{""addr:city"": ""Toulouse"", ""addr:housenumber"": ""47"", ""addr:postcode"": ""31500"", ""addr:street"": ""Rue de Soupetard"", ""email"": ""president-asptt-plongee-toulouse@googlegroups.com"", ""leisure"": ""sports_centre"", ""name"": ""ASPTT Toulouse Plong\u00e9e"", ""sport"": ""scuba_diving"", ""website"": ""http://www.asptt-plongee.fr/""}"
Les Capelans,"Une arche, petit tunnel, grotte bleue.",43.2050775,5.4267145,,,,,,,,,,,4845978161,node,"{""name"": ""Les Capelans"", ""note"": ""Une arche, petit tunnel, grotte bleue."", ""scuba_diving:attraction:biology"": ""yes"", ""scuba_diving:entry:boat"": ""yes"", ""scuba_diving:maxdepth"": ""20"", ""scuba_diving:type:sea"": ""yes"", ""sport"": ""scuba_diving""}"
Source de l'Esperelle,,44.1207633,3.2095251,,,,,,,,,,,4846565493,node,"{""name"": ""Source de l'Esperelle"", ""natural"": ""spring"", ""scuba_diving:maxdepth"": ""65"", ""scuba_diving:type:cave"": ""yes"", ""scuba_diving:type:speleology"": ""yes"", ""sport"": ""scuba_diving""}"
Baume Rousse,site de plongée (scuba_diving NOT diving) se présentant sous forme d'un tombant (=falaise sous-marine),43.3313798,5.239625,,,,,,,,,,,4870148960,node,"{""name"": ""Baume Rousse"", ""name:oc"": ""Bauma Rossa"", ""natural"": ""cliff"", ""note"": ""site de plong\u00e9e (scuba_diving NOT diving) se pr\u00e9sentant sous forme d'un tombant (=falaise sous-marine)"", ""scuba_diving:entry:boat"": ""yes"", ""scuba_diving:type"": ""wall"", ""scuba_diving:type:sea"": ""yes"", ""source:name:oc"": ""ieo-bdtopoc"", ""sport"": ""scuba_diving""}"
Lanzarote Non Stop Divers,,28.8630064,-13.8251916,,,,http://lanzarotenonstopdivers.com,+ 34 928 51 72 77,info@lanzarotenonstopdivers.com,,,,,4936215524,node,"{""addr:housenumber"": ""18"", ""addr:postcode"": ""35580"", ""addr:street"": ""Avenida de Papagayo"", ""email"": ""info@lanzarotenonstopdivers.com"", ""name"": ""Lanzarote Non Stop Divers"", ""opening_hours"": ""Mo-Sa 09:30-18:00"", ""phone"": ""+ 34 928 51 72 77"", ""sport"": ""scuba_diving"", ""website"": ""http://lanzarotenonstopdivers.com""}"
Club le Rederis,,42.4812079,3.1331576,,,,,,,,,,,4973966062,node,"{""name"": ""Club le Rederis"", ""sport"": ""scuba_diving""}"
Site de Plongée Le Sentier Sous Marin,,43.27407,3.45889,,,,,,,,,,,5026935010,node,"{""name"": ""Site de Plong\u00e9e Le Sentier Sous Marin"", ""source"": ""data.gouv.fr:Le minist\u00e8re des droits des femmes, de la ville, de la jeunesse et des sports - 11/2015"", ""sport"": ""scuba_diving""}"
Snorkeling Experience,,28.138874,-15.4366663,,,,,,,,,,,5194458096,node,"{""name"": ""Snorkeling Experience"", ""sport"": ""scuba_diving""}"
"Mirafondos, Centro de Buceo",,28.1353562,-15.4355818,,,Las Palmas de Gran Canaria,http://www.mirafondos.com/,+34 676 658 361,,,,,,5233366609,node,"{""addr:city"": ""Las Palmas de Gran Canaria"", ""addr:housenumber"": ""51"", ""addr:postcode"": ""35010"", ""addr:street"": ""Calle Galileo"", ""amenity"": ""dive_centre"", ""name"": ""Mirafondos, Centro de Buceo"", ""opening_hours"": ""Mo-Fr 10:00-14:00,17:00-20:00; Sa-Su 10:00-14:00"", ""phone"": ""+34 676 658 361"", ""scuba_diving:courses"": ""yes"", ""scuba_diving:rental"": ""yes"", ""sport"": ""scuba_diving"", ""website"": ""http://www.mirafondos.com/""}"
Scuba Madeira,,32.6361369,-16.9303615,,,,https://www.scuba-madeira.com,+351910864147,,,,,,5337055627,node,"{""name"": ""Scuba Madeira"", ""opening_hours"": ""Mo-Sa 10:00-17:00"", ""phone"": ""+351910864147"", ""sport"": ""scuba_diving"", ""website"": ""https://www.scuba-madeira.com""}"
Diver entry point,,28.9190178,-13.6694654,,,,,,,,,,,5478169950,node,"{""name"": ""Diver entry point"", ""sport"": ""scuba_diving""}"
Diving Menorca,,40.0534607,4.129645,,,Es Mercadal,https://www.divingmenorca.com/,,,,,,,5528296956,node,"{""addr:city"": ""Es Mercadal"", ""addr:housenumber"": ""34"", ""addr:postcode"": ""07748"", ""addr:street"": ""Passeig Mar\u00edtim Gumersind Riera"", ""addr:unit"": ""Fornells"", ""mobile"": ""+34 625712631"", ""name"": ""Diving Menorca"", ""sport"": ""scuba_diving"", ""website"": ""https://www.divingmenorca.com/""}"
L'Enfant et la Mer,,43.2424185,5.3667167,,,,http://www.enfantmer.fr,,,,,,,5538749918,node,"{""association"": ""sport"", ""name"": ""L'Enfant et la Mer"", ""office"": ""association"", ""sport"": ""scuba_diving"", ""website"": ""http://www.enfantmer.fr""}"
CMCAS Plongée,,43.2426471,5.366883,,,,http://www.cmcasplongee.com/,,,,,,,5538749919,node,"{""association"": ""sport"", ""name"": ""CMCAS Plong\u00e9e"", ""office"": ""association"", ""sport"": ""scuba_diving"", ""website"": ""http://www.cmcasplongee.com/""}"
Dune,,43.2427526,5.3670868,,,,,,,,,,,5538749920,node,"{""amenity"": ""dive_centre"", ""name"": ""Dune"", ""sport"": ""scuba_diving""}"
Badia de Tamariu,,41.9172405,3.2084694,,,,,,,,,,,5596181551,node,"{""name"": ""Badia de Tamariu"", ""natural"": ""bay"", ""scuba_diving:difficulty"": ""1"", ""scuba_diving:entry"": ""shore"", ""scuba_diving:maxdepth"": ""18"", ""sport"": ""scuba_diving""}"
Aigua Xelida,,41.9212911,3.215998,,,,,,,,,,,5596181553,node,"{""name"": ""Aigua Xelida"", ""natural"": ""bay"", ""scuba_diving:difficulty"": ""1"", ""scuba_diving:entry"": ""shore"", ""scuba_diving:maxdepth"": ""25"", ""sport"": ""scuba_diving""}"
Cala des Tramadiu,,41.9295692,3.2166427,,,,,,,,,,,5596181560,node,"{""name"": ""Cala des Tramadiu"", ""natural"": ""bay"", ""scuba_diving:difficulty"": ""1"", ""scuba_diving:entry"": ""boat"", ""scuba_diving:maxdepth"": ""18"", ""sport"": ""scuba_diving"", ""wikidata"": ""Q124399808"", ""wikipedia"": ""ca:Cala des Tramadiu""}"
Aiguablava,,41.934412,3.2165735,,,,,,,,,,,5596181564,node,"{""name"": ""Aiguablava"", ""natural"": ""bay"", ""scuba_diving:difficulty"": ""1"", ""scuba_diving:entry"": ""shore"", ""scuba_diving:maxdepth"": ""16"", ""sport"": ""scuba_diving""}"
Cala de sa Riera,,41.9741581,3.2118597,,,,,,,,,,,5596197481,node,"{""name"": ""Cala de sa Riera"", ""natural"": ""bay"", ""scuba_diving:difficulty"": ""1"", ""scuba_diving:entry"": ""shore"", ""scuba_diving:maxdepth"": ""12"", ""sport"": ""scuba_diving""}"
Cala d'Aiguafreda,,41.9637833,3.2287675,,,,,,,,,,,5596197484,node,"{""name"": ""Cala d'Aiguafreda"", ""natural"": ""bay"", ""scuba_diving:difficulty"": ""1"", ""scuba_diving:entry"": ""shore"", ""scuba_diving:maxdepth"": ""24"", ""sport"": ""scuba_diving""}"
sa Tuna,,41.9610527,3.2316315,,,,,,,,,,,5596197486,node,"{""name"": ""sa Tuna"", ""natural"": ""bay"", ""scuba_diving:difficulty"": ""1"", ""scuba_diving:entry"": ""shore"", ""scuba_diving:maxdepth"": ""25"", ""sport"": ""scuba_diving""}"
Eden Dive,,43.1710254,5.6055879,,,,,,,,,,,5697642882,node,"{""name"": ""Eden Dive"", ""sport"": ""scuba_diving""}"
Abyss Garden,diving school,43.1795047,5.6119306,,,,https://www.abyss-garden.com/,,,,,,,5697651513,node,"{""description"": ""diving school"", ""name"": ""Abyss Garden"", ""sport"": ""scuba_diving"", ""website"": ""https://www.abyss-garden.com/""}"
Ker-Bihan,,43.230333,5.316667,,,,,,,,,,,5806730179,node,"{""historic"": ""wreck"", ""name"": ""Ker-Bihan"", ""scuba_diving:depth"": ""55"", ""scuba_diving:difficulty"": ""3"", ""scuba_diving:maxdepth"": ""57"", ""scuba_diving:type:wreck"": ""yes"", ""seamark:type"": ""wreck"", ""sport"": ""scuba_diving""}"
KrakenDive,,41.7225025,2.9387381,,,,https://krakendive.com/,+34668 837 388,,,,,,5809064126,node,"{""amenity"": ""dive_centre"", ""name"": ""KrakenDive"", ""phone"": ""+34668 837 388"", ""scuba_diving:air_filling"": ""yes"", ""scuba_diving:courses"": ""yes"", ""scuba_diving:nitrox_filling"": ""yes"", ""scuba_diving:rental"": ""yes"", ""scuba_diving:trimix_filling"": ""yes"", ""sport"": ""scuba_diving"", ""website"": ""https://krakendive.com/""}"
Mustang P51,,43.0363289,6.078642,,,,http://scubaspot.free.fr/epaves/mustang.html,,,,,,,6022696241,node,"{""historic"": ""wreck"", ""name"": ""Mustang P51"", ""scuba_diving:divespot"": ""yes"", ""scuba_diving:entry:boat"": ""yes"", ""scuba_diving:maxdepth"": ""56"", ""scuba_diving:mindepth"": ""54"", ""scuba_diving:type:sea"": ""yes"", ""seamark:type"": ""wreck"", ""sport"": ""scuba_diving"", ""url"": ""http://scubaspot.free.fr/epaves/mustang.html"", ""wreck:date_sunk"": ""1944-08-12"", ""wreck:type"": ""aircraft"", ""wreck:visible_at_high_tide"": ""no"", ""wreck:visible_at_low_tide"": ""no""}"
Le Tromblon,Canonnière.,43.066654,5.9055537,,,,http://scubaspot.free.fr/epaves/tromblon.html,,,,,,,6022696242,node,"{""description"": ""Canonni\u00e8re."", ""historic"": ""wreck"", ""name"": ""Le Tromblon"", ""scuba_diving:divespot"": ""yes"", ""scuba_diving:entry:boat"": ""yes"", ""scuba_diving:maxdepth"": ""27"", ""scuba_diving:mindepth"": ""24"", ""scuba_diving:type:sea"": ""yes"", ""seamark:type"": ""wreck"", ""sport"": ""scuba_diving"", ""url"": ""http://scubaspot.free.fr/epaves/tromblon.html""}"
Tombant des Deux Frères,,43.0480083,5.8685875,,,,,,,,,,,6022696243,node,"{""name"": ""Tombant des Deux Fr\u00e8res"", ""scuba_diving:attraction:biology"": ""yes"", ""scuba_diving:attraction:rocks"": ""yes"", ""scuba_diving:divespot"": ""yes"", ""scuba_diving:entry:boat"": ""yes"", ""scuba_diving:maxdepth"": ""40"", ""scuba_diving:mindepth"": ""15"", ""scuba_diving:type:sea"": ""yes"", ""sport"": ""scuba_diving""}"
Buceo Norte,,28.1512513,-15.6951328,,,,,,,,,,,6171606976,node,"{""name"": ""Buceo Norte"", ""sport"": ""scuba_diving""}"
Großes Muränenriff,,28.0427708,-14.3305888,,,,,,,,,,,6372064739,node,"{""name"": ""Gro\u00dfes Mur\u00e4nenriff"", ""sport"": ""scuba_diving""}"
Kleines Muränenriff,,28.0423758,-14.3344922,,,,,,,,,,,6372064740,node,"{""name"": ""Kleines Mur\u00e4nenriff"", ""sport"": ""scuba_diving""}"
Hafenmauer,,28.0485048,-14.3641009,,,,,,,,,,,6372064741,node,"{""name"": ""Hafenmauer"", ""sport"": ""scuba_diving""}"
Foux de Pompignan,,43.8767012,3.8538703,,,,,,,,,,,6524269588,node,"{""name"": ""Foux de Pompignan"", ""natural"": ""spring"", ""scuba_diving:maxdepth"": ""20"", ""scuba_diving:type:cave"": ""yes"", ""scuba_diving:type:speleology"": ""yes"", ""sport"": ""scuba_diving""}"
Dive Pro Fuerte,,28.1491695,-14.2326931,,,,https://www.dive-pro-fuerte.com,,,,,,,6611885852,node,"{""amenity"": ""dive_centre"", ""name"": ""Dive Pro Fuerte"", ""scuba_diving:education"": ""yes"", ""sport"": ""scuba_diving"", ""website"": ""https://www.dive-pro-fuerte.com""}"
buceo Faro del Teno,,28.3425042,-16.9199301,,,,,,,,,,,6733889086,node,"{""leisure"": ""diving"", ""name"": ""buceo Faro del Teno""}"
G.P.E.S.,,43.1788635,5.6114309,,,,https://www.gpes.fr/,+33 6 52 65 84 67,,,,,,6764191566,node,"{""amenity"": ""dive_centre"", ""name"": ""G.P.E.S."", ""phone"": ""+33 6 52 65 84 67"", ""sport"": ""scuba_diving"", ""website"": ""https://www.gpes.fr/""}"
Pongée Nature,,44.1972168,2.7746594,,,,http://ok-plongee-nature.fr/,+33 7 81 18 33 05,,,,,,6855701683,node,"{""leisure"": ""sports_centre"", ""name"": ""Pong\u00e9e Nature"", ""phone"": ""+33 7 81 18 33 05"", ""sport"": ""scuba_diving"", ""website"": ""http://ok-plongee-nature.fr/""}"
Tech Océan,Activité de plongée sous-marine : randonnée palmée et baptême de plongée. ,43.3946085,-1.6846509,,,Ciboure,https://www.tech-ocean.fr/,+33 6 16 36 11 76,contact@tech-ocean.fr,,,,,7655463582,node,"{""addr:city"": ""Ciboure"", ""addr:housenumber"": ""45"", ""addr:postcode"": ""64500"", ""addr:street"": ""Avenue du Commandant Passicot"", ""amenity"": ""dive_centre"", ""contact:facebook"": ""https://www.facebook.com/philippe.missegue.5"", ""description"": ""Activit\u00e9 de plong\u00e9e sous-marine : randonn\u00e9e palm\u00e9e et bapt\u00eame de plong\u00e9e. "", ""email"": ""contact@tech-ocean.fr"", ""name"": ""Tech Oc\u00e9an"", ""phone"": ""+33 6 16 36 11 76"", ""phone_1"": ""+33 5 59 47 96 75"", ""ref:FR:NAF"": ""9329Z"", ""ref:FR:SIREN"": ""324511963"", ""ref:FR:SIRET"": ""32451196300013"", ""source"": ""INSEE - 2024-11"", ""sport"": ""scuba_diving"", ""website"": ""https://www.tech-ocean.fr/""}"
Atlantic Pirogue,,43.3945647,-1.6846866,,,Ciboure,http://www.atlantic-pirogue.com/,+33 5 59 47 21 67,contact@atlantic-pirogue.com,,,,,7673212898,node,"{""addr:city"": ""Ciboure"", ""addr:housenumber"": ""43"", ""addr:postcode"": ""64500"", ""addr:street"": ""Avenue du Comandant Passicot"", ""amenity"": ""dive_centre"", ""email"": ""contact@atlantic-pirogue.com"", ""name"": ""Atlantic Pirogue"", ""phone"": ""+33 5 59 47 21 67"", ""ref:FR:NAF"": ""8551Z"", ""ref:FR:SIREN"": ""430258749"", ""ref:FR:SIRET"": ""43025874900018"", ""source"": ""INSEE - 2024-11"", ""sport"": ""scuba_diving"", ""website"": ""http://www.atlantic-pirogue.com/""}"
Kenavo,,43.1362076,6.3737601,,,,,,,,,,,7781054632,node,"{""name"": ""Kenavo"", ""operator"": ""Lavandou Plong\u00e9e"", ""sport"": ""scuba_diving"", ""tourism"": ""ship""}"
Sentier sous-marin,,43.0281025,6.1573745,,,,https://destination.portcros-parcnational.fr/outdoor-site/12-Sentier-sous-marin-de-la-pointe-du-Bouvet-(Tour-Fondue),,,,,,,7859233612,node,"{""access"": ""yes"", ""fee"": ""no"", ""name"": ""Sentier sous-marin"", ""name:en"": ""Underwater path with antique vases and wreck"", ""name:fr"": ""Sentier sous-marin"", ""scuba_diving:divespot"": ""yes"", ""sport"": ""scuba_diving"", ""website"": ""https://destination.portcros-parcnational.fr/outdoor-site/12-Sentier-sous-marin-de-la-pointe-du-Bouvet-(Tour-Fondue)""}"
Palma Wracks,,39.5435415,2.630957,,,,,,,,,,,8367416021,node,"{""name"": ""Palma Wracks"", ""scuba_diving:divespot"": ""yes"", ""sport"": ""scuba_diving""}"
La Llosa des Patró Pere,,40.085242,4.1002201,,,,,,,,,,,9130386751,node,"{""name"": ""La Llosa des Patr\u00f3 Pere"", ""sport"": ""scuba_diving""}"
Punta des Murter,,40.0681714,4.138814,,,,,,,,,,,9130386752,node,"{""name"": ""Punta des Murter"", ""sport"": ""scuba_diving""}"
Le ponton de la bordelaise,"Spot de plongée réputé pour ses hippocampes, il est dans les 80 meilleurs spot de plongés du monde !
De 2m à 6m de profondeur.
Accessible avec masque et tuba.
Vous croiserez probablement pascal.",43.4246283,3.7001817,,,,,,,,,,,9948901369,node,"{""description"": ""Spot de plong\u00e9e r\u00e9put\u00e9 pour ses hippocampes, il est dans les 80 meilleurs spot de plong\u00e9s du monde !\nDe 2m \u00e0 6m de profondeur.\nAccessible avec masque et tuba.\nVous croiserez probablement pascal."", ""name"": ""Le ponton de la bordelaise"", ""sport"": ""scuba_diving""}"
Le Sec Aux Murennes,,43.00134,6.15444,,,,,,,,,,,11026523224,node,"{""name"": ""Le Sec Aux Murennes"", ""natural"": ""reef"", ""sport"": ""scuba_diving""}"
Goule de Marcenac,,44.4938899,1.6536006,,,,,,,,,,,11138359901,node,"{""access"": ""yes"", ""fee"": ""no"", ""name"": ""Goule de Marcenac"", ""natural"": ""cave_entrance"", ""source"": ""local survey"", ""sport"": ""scuba_diving"", ""wheelchair"": ""no""}"
Arco de Formentera,,38.7238068,1.3864794,,,,,,,,,,,11180579479,node,"{""name"": ""Arco de Formentera"", ""natural"": ""arch"", ""scuba_diving:divespot"": ""yes"", ""sport"": ""scuba_diving""}"
Hole in the Wall,,27.8717756,-15.3822128,,,,,,,,,,,11356028407,node,"{""name"": ""Hole in the Wall"", ""sport"": ""scuba_diving""}"
Pythéas,,42.5216304,3.1229691,,,,,,,,,,,11736882875,node,"{""access"": ""yes"", ""historic"": ""wreck"", ""name"": ""Pyth\u00e9as"", ""scuba_diving:divespot"": ""yes"", ""seamark:type"": ""wreck"", ""seamark:wreck:category"": ""non-dangerous"", ""sport"": ""scuba_diving"", ""wreck:clearance"": ""4.6"", ""wreck:date_commissioned"": ""1856"", ""wreck:date_sunk"": ""1897-10-19"", ""wreck:depth"": ""16"", ""wreck:visible_at_high_tide"": ""no"", ""wreck:visible_at_low_tide"": ""no""}"
Pelleteuse,,42.4812049,3.1392682,,,,,,,,,,,11736993514,node,"{""historic"": ""wreck"", ""name"": ""Pelleteuse"", ""scuba_diving:divespot"": ""yes"", ""seamark:wreck:category"": ""non-dangerous"", ""sport"": ""scuba_diving"", ""wreck:depth"": ""14"", ""wreck:type"": ""digger"", ""wreck:visible_at_high_tide"": ""no"", ""wreck:visible_at_low_tide"": ""no""}"
Aquablue,,42.4800189,3.1345263,,,,,,,,,,,11837415061,node,"{""club"": ""sport"", ""name"": ""Aquablue"", ""sport"": ""scuba_diving""}"
Andromède,,43.5432746,3.9750072,,,,https://andromedeplongeebio.com/,,,,,,,11987051367,node,"{""club"": ""sport"", ""name"": ""Androm\u00e8de"", ""sport"": ""scuba_diving"", ""website"": ""https://andromedeplongeebio.com/""}"
Underwater path for snorkelling,,43.0136617,6.3909956,,,,,,,,,,,11991566562,node,"{""name"": ""Underwater path for snorkelling"", ""sport"": ""scuba_diving""}"
Club d'Escafandrisme Sasba,,41.4439344,2.2481445,,,,https://www.sasbabadalona.com,,,,,,,12020533809,node,"{""addr:street"": ""Passeig Mar\u00edtim"", ""check_date"": ""2024-06-29"", ""club"": ""sport"", ""name"": ""Club d'Escafandrisme Sasba"", ""sport"": ""scuba_diving"", ""website"": ""https://www.sasbabadalona.com""}"
Roca Montiell,,41.915449,3.2129398,,,,,,,,,,,12132826525,node,"{""name"": ""Roca Montiell"", ""scuba_diving:difficulty"": ""1"", ""scuba_diving:entry"": ""boat"", ""scuba_diving:maxdepth"": ""25"", ""seamark:rock:water_level"": ""submerged"", ""seamark:type"": ""rock"", ""sport"": ""scuba_diving""}"
Canons de Tamariu,,41.92021,3.2218042,,,,,,,,,,,12132826555,node,"{""alt_name"": ""Llosa de Cala Nova"", ""name"": ""Canons de Tamariu"", ""name:ca"": ""Canons de Tamariu"", ""name:es"": ""Ca\u00f1ones de Tamariu"", ""scuba_diving:dangers:current"": ""yes"", ""scuba_diving:difficulty"": ""2"", ""scuba_diving:entry"": ""boat"", ""scuba_diving:maxdepth"": ""40"", ""seamark:rock:water_level"": ""submerged"", ""seamark:type"": ""rock"", ""sport"": ""scuba_diving""}"
Barda de l'Illa Negra,,41.9442364,3.2290305,,,,,,,,,,,12132826556,node,"{""location"": ""underwater"", ""name"": ""Barda de l'Illa Negra"", ""natural"": ""rock"", ""scuba_diving:difficulty"": ""2"", ""scuba_diving:entry"": ""boat"", ""scuba_diving:maxdepth"": ""31"", ""seamark:mooring:category"": ""buoy"", ""sport"": ""scuba_diving""}"
Barda de Pere el Flaquer,,41.9545799,3.2330345,,,,,,,,,,,12132826557,node,"{""location"": ""underwater"", ""name"": ""Barda de Pere el Flaquer"", ""natural"": ""rock"", ""scuba_diving:difficulty"": ""3"", ""scuba_diving:entry"": ""boat"", ""scuba_diving:maxdepth"": ""44"", ""sport"": ""scuba_diving""}"
Cap de Begur (Buceig),,41.9507601,3.234438,,,,,,,,,,,12132826558,node,"{""location"": ""underwater"", ""name"": ""Cap de Begur (Buceig)"", ""name:ca"": ""Cap de Begur (Buceig)"", ""name:es"": ""Cap de Begur (Buceo)"", ""natural"": ""rock"", ""scuba_diving:difficulty"": ""2;3"", ""scuba_diving:entry"": ""boat"", ""scuba_diving:maxdepth"": ""38"", ""sport"": ""scuba_diving""}"
Punta des Plom (Buceig),,41.9628965,3.2335401,,,,,,,,,,,12132826559,node,"{""name"": ""Punta des Plom (Buceig)"", ""name:ca"": ""Punta des Plom (Buceig)"", ""name:es"": ""Punta des Plom (Buceo)"", ""natural"": ""rock"", ""scuba_diving:difficulty"": ""1;2"", ""scuba_diving:entry"": ""boat"", ""scuba_diving:maxdepth"": ""40"", ""sport"": ""scuba_diving""}"
Barda de Fitor,,41.9576006,3.2367038,,,,,,,,,,,12132826563,node,"{""alt_name"": ""Furi\u00f3 Fitor"", ""location"": ""underwater"", ""name"": ""Barda de Fitor"", ""natural"": ""rock"", ""scuba_diving:difficulty"": ""2;3"", ""scuba_diving:entry"": ""boat"", ""scuba_diving:maxdepth"": ""54"", ""sport"": ""scuba_diving""}"
Les Alzines,,41.9654983,3.2330233,,,,,,,,,,,12132826564,node,"{""name"": ""Les Alzines"", ""natural"": ""rock"", ""scuba_diving:difficulty"": ""3"", ""scuba_diving:entry"": ""boat"", ""scuba_diving:maxdepth"": ""45"", ""sport"": ""scuba_diving""}"
Cala de Cap sa Sal,,41.9656764,3.2309582,,,,,,,,,,,12132826565,node,"{""name"": ""Cala de Cap sa Sal"", ""natural"": ""bay"", ""scuba_diving:difficulty"": ""2"", ""scuba_diving:entry"": ""boat;shore"", ""scuba_diving:maxdepth"": ""31"", ""sport"": ""scuba_diving""}"
Boia dels Ulls de Llop,,41.9743614,3.2196542,,,,,,,,,,,12132826566,node,"{""name"": ""Boia dels Ulls de Llop"", ""scuba_diving:difficulty"": ""1"", ""scuba_diving:entry"": ""shore"", ""scuba_diving:maxdepth"": ""20"", ""seamark:mooring:category"": ""buoy"", ""seamark:type"": ""mooring"", ""sport"": ""scuba_diving""}"
Font Estramar,,42.8591773,2.9584854,,,,,,,,,,,84954571,way,"{""alt_name"": ""Font de Salses"", ""name"": ""Font Estramar"", ""name:ca"": ""Font Estramar"", ""natural"": ""water"", ""scuba_diving:divespot"": ""yes"", ""scuba_diving:maxdepth"": ""-262M"", ""scuba_diving:type:speleology"": ""yes"", ""source"": ""CNES 2004-2007 / Spot Image"", ""sport"": ""scuba_diving"", ""wikidata"": ""Q3059037"", ""wikipedia"": ""fr:Estramar (Font)""}"
Divecenter Ulla und Paul,,42.2869232,3.2970516,,,,,,,,,,,130074231,way,"{""leisure"": ""sports_centre"", ""name"": ""Divecenter Ulla und Paul"", ""sport"": ""scuba_diving""}"
Centre de Loisirs des Goudes,,43.2176674,5.3459125,,,,https://www.goudes-plongee.com/,,,,,,,154225750,way,"{""building"": ""yes"", ""name"": ""Centre de Loisirs des Goudes"", ""source"": ""cadastre-dgi-fr source : Direction G\u00e9n\u00e9rale des Imp\u00f4ts - Cadastre. Mise \u00e0 jour : 2010"", ""sport"": ""scuba_diving"", ""website"": ""https://www.goudes-plongee.com/""}"
Lac des Graves,,45.0148925,2.561544,,,,,,,,,,,168080099,way,"{""fishing"": ""yes"", ""leisure"": ""fishing"", ""name"": ""Lac des Graves"", ""natural"": ""water"", ""source"": ""cadastre-dgi-fr source : Direction G\u00e9n\u00e9rale des Imp\u00f4ts - Cadastre. Mise \u00e0 jour : 2012"", ""source:2"": ""data.gouv.fr:Le minist\u00e8re des droits des femmes, de la ville, de la jeunesse et des sports - 11/2015"", ""sport"": ""scuba_diving"", ""water"": ""lake""}"
DIVE&DIVE Centro de Buceo,,38.6369419,0.0715312,,,,,,,,,,,168275360,way,"{""building"": ""yes"", ""name"": ""DIVE&DIVE Centro de Buceo"", ""sport"": ""scuba_diving"", ""waterway"": ""boatyard""}"
GRASM - CEFERAS Centre de plongée,,43.2950227,5.3557134,,,,www.grasm-plongee.com,,,,,,,179138978,way,"{""leisure"": ""sports_centre"", ""name"": ""GRASM - CEFERAS Centre de plong\u00e9e"", ""source"": ""cadastre-dgi-fr source : Direction G\u00e9n\u00e9rale des Imp\u00f4ts - Cadastre. Mise \u00e0 jour : 2012"", ""sport"": ""scuba_diving"", ""website"": ""www.grasm-plongee.com""}"
CIP Le Lavandou,,43.137087,6.371362,,,,https://www.ciplavandou.com,+33 4 94 71 54 57,info@cip-lavandou.fr,,,,,204918398,way,"{""amenity"": ""dive_centre"", ""building"": ""yes"", ""contact:facebook"": ""https://www.facebook.com/CIPduLavandou/"", ""contact:mobile"": ""+33 7 87 98 14 98"", ""email"": ""info@cip-lavandou.fr"", ""image"": ""https://static.wixstatic.com/media/8f9542_44cef2f44cd34958bd3d7435dde96375~mv2.gif"", ""name"": ""CIP Le Lavandou"", ""opening_hours"": ""8:00-12:00; 14:00-19:00"", ""phone"": ""+33 4 94 71 54 57"", ""scuba_diving:air_fill"": ""yes"", ""scuba_diving:education"": ""yes"", ""scuba_diving:equipment"": ""yes"", ""source"": ""cadastre-dgi-fr source : Direction G\u00e9n\u00e9rale des Imp\u00f4ts - Cadastre. Mise \u00e0 jour : 2013"", ""sport"": ""scuba_diving"", ""website"": ""https://www.ciplavandou.com""}"
Immersion Plongée,,43.115252,6.198545,,,,http://www.immersion-plongee.com,,,,,,,221883665,way,"{""addr:housenumber"": ""13"", ""addr:postcode"": ""83400"", ""addr:street"": ""Avenue des Chalutiers"", ""amenity"": ""dive_centre"", ""building"": ""yes"", ""name"": ""Immersion Plong\u00e9e"", ""operator"": ""Centre Immersion Plong\u00e9e"", ""scuba_diving:courses"": ""yes"", ""source"": ""cadastre-dgi-fr source : Direction G\u00e9n\u00e9rale des Imp\u00f4ts - Cadastre. Mise \u00e0 jour : 2013"", ""sport"": ""scuba_diving"", ""website"": ""http://www.immersion-plongee.com""}"
Centre UCPA - Niolon,,43.3384278,5.2578603,,,Le Rove,https://ucpa.asso.fr,+33 4 91469016,niolon@ucpa.asso.fr,,,,,232529290,way,"{""access"": ""private"", ""addr:city"": ""Le Rove"", ""addr:postcode"": ""13740"", ""email"": ""niolon@ucpa.asso.fr"", ""landuse"": ""residential"", ""leisure"": ""sports_centre"", ""name"": ""Centre UCPA - Niolon"", ""phone"": ""+33 4 91469016"", ""sport"": ""scuba_diving"", ""website"": ""https://ucpa.asso.fr""}"
Magmar Watersport,,28.0304071,-17.1909475,,,,http://magmar-watersport.com,,,,,,,249673221,way,"{""amenity"": ""dive_centre"", ""building"": ""yes"", ""name"": ""Magmar Watersport"", ""scuba_diving:air_fill"": ""yes"", ""scuba_diving:education"": ""yes"", ""scuba_diving:rental"": ""yes"", ""sport"": ""scuba_diving"", ""website"": ""http://magmar-watersport.com""}"
Fosse de Plongée,,44.01329,1.3668727,,,,,,,,,,,250623087,way,"{""access"": ""yes"", ""covered"": ""no"", ""leisure"": ""swimming_pool"", ""location"": ""outdoor"", ""name"": ""Fosse de Plong\u00e9e"", ""source"": ""cadastre-dgi-fr source : Direction G\u00e9n\u00e9rale des Imp\u00f4ts - Cadastre. Mise \u00e0 jour : 2009"", ""sport"": ""scuba_diving""}"
Centro de actividades subacuáticas de Viveiro,,43.6674615,-7.598459,,,,,,,,,,,342398643,way,"{""area"": ""yes"", ""club"": ""sport"", ""name"": ""Centro de actividades subacu\u00e1ticas de Viveiro"", ""sport"": ""scuba_diving""}"
S'Encalladora,,41.9577018,3.234656,,,,,,,,,,,356731947,way,"{""alt_name"": ""Furi\u00f3 Fitor;Illa Fitor"", ""name"": ""S'Encalladora"", ""natural"": ""coastline"", ""place"": ""islet"", ""scuba_diving:difficulty"": ""1;2"", ""scuba_diving:entry"": ""boat"", ""scuba_diving:maxdepth"": ""29"", ""sport"": ""scuba_diving""}"
Telamon,,28.9754561,-13.5227312,,,,,,,,,,,375371093,way,"{""historic"": ""wreck"", ""name"": ""Telamon"", ""scuba_diving:access_easyness"": ""1"", ""scuba_diving:current"": ""0"", ""scuba_diving:depth"": ""10m"", ""scuba_diving:difficulty"": ""1"", ""scuba_diving:entry"": ""shore"", ""scuba_diving:maxdepth"": ""15m"", ""scuba_diving:type:photography"": ""yes"", ""scuba_diving:type:wreck"": ""yes"", ""seamark:type"": ""wreck"", ""sport"": ""scuba_diving"", ""tourism"": ""attraction"", ""wikidata"": ""Q1359531"", ""wikipedia"": ""es:Temple Hall""}"
Ecole de Plongée sous marine,,36.8117376,2.9520992,,,,,,,,,,,468743150,way,"{""building"": ""bungalow"", ""name"": ""Ecole de Plong\u00e9e sous marine"", ""sport"": ""scuba_diving""}"
Goul du Pont,,44.3703825,4.6410171,,,,,,,,,,,541919611,way,"{""name"": ""Goul du Pont"", ""natural"": ""water"", ""scuba_diving:type:speleology"": ""yes"", ""sport"": ""scuba_diving"", ""water"": ""basin""}"
Goul de la Tannerie,,44.3696695,4.6413123,,,,,,,,,,,541919613,way,"{""landuse"": ""basin"", ""name"": ""Goul de la Tannerie"", ""natural"": ""spring"", ""scuba_diving:type:speleology"": ""yes"", ""sport"": ""scuba_diving""}"
Buceo Rías Baixas,,42.2893933,-8.8108445,,,,https://www.buceoriasbaixas.com/,+34 600 281 484,,,,,,633718647,way,"{""amenity"": ""dive_centre"", ""building"": ""yes"", ""name"": ""Buceo R\u00edas Baixas"", ""opening_hours"": ""Mo-Su 09:30-20:00"", ""phone"": ""+34 600 281 484"", ""scuba_diving:education"": ""yes"", ""sport"": ""scuba_diving"", ""website"": ""https://www.buceoriasbaixas.com/""}"
Cap Llebeig,,39.159796,2.9169801,,,,,,,,,,,724682561,way,"{""area"": ""yes"", ""name"": ""Cap Llebeig"", ""scuba_diving:type"": ""boat"", ""sport"": ""scuba_diving""}"
Cala Galiota,,39.154846,2.9189691,,,,,,,,,,,724682562,way,"{""area"": ""yes"", ""name"": ""Cala Galiota"", ""scuba_diving:type"": ""boat"", ""sport"": ""scuba_diving""}"
Sentier sous-marin de Banyuls-Cerbère,,42.4611998,3.158953,,,,https://www.banyuls-sur-mer.com/tourisme/decouvrir/la-mer-et-ses-tresors/incontournables-de-la-mediterranee/sentier-sous-marin/,,,,,,,824227244,way,"{""name"": ""Sentier sous-marin de Banyuls-Cerb\u00e8re"", ""opening_hours"": ""24/7"", ""scuba_diving:type"": ""snorkeling"", ""sport"": ""scuba_diving"", ""tourism"": ""theme_park"", ""website"": ""https://www.banyuls-sur-mer.com/tourisme/decouvrir/la-mer-et-ses-tresors/incontournables-de-la-mediterranee/sentier-sous-marin/""}"
Sentier marin archéologique d'Olbia,,43.079414,6.1228717,,,,https://www.hyeres-tourisme.com/sentier-marin-dolbia/,,,,,,,961147609,way,"{""access"": ""yes"", ""name"": ""Sentier marin arch\u00e9ologique d'Olbia"", ""scuba_diving:access_easyness"": ""1"", ""scuba_diving:depth"": ""3"", ""scuba_diving:difficulty"": ""1"", ""scuba_diving:maxdepth"": ""5"", ""scuba_diving:type"": ""snorkeling"", ""sport"": ""scuba_diving"", ""tourism"": ""attraction"", ""website"": ""https://www.hyeres-tourisme.com/sentier-marin-dolbia/""}"
Belharra-Perdun,Haut-fond connu pour ses activités de plongée sous-marine et de surf extreme sur sa vague géante,43.4111795,-1.7188364,,,,,,,,,,,967839148,way,"{""description"": ""Haut-fond connu pour ses activit\u00e9s de plong\u00e9e sous-marine et de surf extreme sur sa vague g\u00e9ante"", ""name"": ""Belharra-Perdun"", ""natural"": ""reef"", ""reef"": ""rock"", ""seamark:rock:water_level"": ""submerged"", ""seamark:type"": ""rock"", ""source"": ""knowledge"", ""sport"": ""scuba_diving"", ""tourism"": ""attraction""}"
Furió d'Aigua Xelida,,41.9191092,3.2198659,,,,,,,,,,,1310714019,way,"{""name"": ""Furi\u00f3 d'Aigua Xelida"", ""natural"": ""coastline"", ""place"": ""islet"", ""scuba_diving:dangers:current"": ""yes"", ""scuba_diving:difficulty"": ""1;2"", ""scuba_diving:entry"": ""boat"", ""scuba_diving:maxdepth"": ""38"", ""sport"": ""scuba_diving""}"
Societat d'Exploracions Submarines de Tarragona,,41.089759,1.2279582,,,,https://www.sestarragona.org/,,,,,,multipolygon,17065016,relation,"{""amenity"": ""dive_centre"", ""name"": ""Societat d'Exploracions Submarines de Tarragona"", ""sport"": ""scuba_diving"", ""type"": ""multipolygon"", ""website"": ""https://www.sestarragona.org/""}"
Illa Negra,,41.9445328,3.2270867,,,,,,,,,,multipolygon,17966971,relation,"{""name"": ""Illa Negra"", ""place"": ""islet"", ""scuba_diving:difficulty"": ""1"", ""scuba_diving:entry"": ""boat"", ""scuba_diving:maxdepth"": ""25"", ""sport"": ""scuba_diving"", ""type"": ""multipolygon""}"
Illa de Sa Gavina,,41.9253943,3.2192691,,,,,,,,,,multipolygon,17966972,relation,"{""name"": ""Illa de Sa Gavina"", ""place"": ""islet"", ""scuba_diving:difficulty"": ""1"", ""scuba_diving:entry"": ""boat"", ""scuba_diving:maxdepth"": ""28"", ""sport"": ""scuba_diving"", ""type"": ""multipolygon""}"
