[
  {
    "name": "Diamond Rock",
    "filename": "diamond-rock.md",
    "lat": 14.445,
    "lng": -61.04,
    "difficulty": "Advanced",
    "maxDepth": 40,
    "entryType": "boat",
    "siteType": "wall",
    "ref": "",
    "osmId": null
  },
  {
    "name": "Rocher du Diamant Cave",
    "filename": "rocher-du-diamant-cave.md",
    "lat": 14.447,
    "lng": -61.038,
    "difficulty": "Intermediate",
    "maxDepth": 20,
    "entryType": "boat",
    "siteType": "cave",
    "ref": "",
    "osmId": null
  },
  {
    "name": "Anse Dufour",
    "filename": "anse-dufour.md",
    "lat": 14.525,
    "lng": -61.085,
    "difficulty": "Beginner",
    "maxDepth": 12,
    "entryType": "shore",
    "siteType": "reef",
    "ref": "",
    "osmId": null
  },
  {
    "name": "St. Pierre Wrecks",
    "filename": "st-pierre-wrecks.md",
    "lat": 14.74,
    "lng": -61.18,
    "difficulty": "Advanced",
    "maxDepth": 60,
    "entryType": "boat",
    "siteType": "wreck",
    "ref": "",
    "osmId": null
  },
  {
    "name": "Rocher de la Perle",
    "filename": "rocher-de-la-perle.md",
    "lat": 14.77,
    "lng": -61.21,
    "difficulty": "Advanced",
    "maxDepth": 40,
    "entryType": "boat",
    "siteType": "wall",
    "ref": "",
    "osmId": null
  },
  {
    "name": "Anse Noire",
    "filename": "anse-noire.md",
    "lat": 14.53,
    "lng": -61.088,
    "difficulty": "Beginner",
    "maxDepth": 8,
    "entryType": "shore",
    "siteType": "reef",
    "ref": "",
    "osmId": null
  },
  {
    "name": "Cap Enragé",
    "filename": "cap-enragé.md",
    "lat": 14.44,
    "lng": -61.03,
    "difficulty": "Intermediate",
    "maxDepth": 22,
    "entryType": "boat",
    "siteType": "reef",
    "ref": "",
    "osmId": null
  },
  {
    "name": "Pointe Burgos",
    "filename": "pointe-burgos.md",
    "lat": 14.55,
    "lng": -61.09,
    "difficulty": "Beginner",
    "maxDepth": 12,
    "entryType": "boat",
    "siteType": "reef",
    "ref": "",
    "osmId": null
  },
  {
    "name": "Nahoon Wreck",
    "filename": "nahoon-wreck.md",
    "lat": 14.735,
    "lng": -61.175,
    "difficulty": "Advanced",
    "maxDepth": 35,
    "entryType": "boat",
    "siteType": "wreck",
    "ref": "",
    "osmId": null
  },
  {
    "name": "Grande Anse Reef",
    "filename": "grande-anse-reef.md",
    "lat": 14.46,
    "lng": -61.05,
    "difficulty": "Beginner",
    "maxDepth": 14,
    "entryType": "boat",
    "siteType": "reef",
    "ref": "",
    "osmId": null
  },
  {
    "name": "Citadelle",
    "filename": "citadelle.md",
    "lat": 14.745,
    "lng": -61.185,
    "difficulty": "Beginner",
    "maxDepth": 16,
    "entryType": "shore",
    "siteType": "reef",
    "ref": "",
    "osmId": null
  },
  {
    "name": "Jardin Tropical",
    "filename": "jardin-tropical.md",
    "lat": 14.52,
    "lng": -61.08,
    "difficulty": "Beginner",
    "maxDepth": 10,
    "entryType": "shore",
    "siteType": "reef",
    "ref": "",
    "osmId": null
  },
  {
    "name": "Site de Plongée La Perle",
    "filename": "site-de-plongée-la-perle.md",
    "lat": 14.8415362,
    "lng": -61.2278178,
    "difficulty": "Advanced",
    "maxDepth": 40,
    "entryType": "boat",
    "siteType": "wall",
    "ref": "",
    "osmId": 6226315751
  },
  {
    "name": "Krystal Toy",
    "filename": "krystal-toy.md",
    "lat": 14.464,
    "lng": -60.879,
    "difficulty": "Intermediate",
    "maxDepth": 30,
    "entryType": "boat",
    "siteType": "wreck",
    "ref": "",
    "osmId": 7114610541
  },
  {
    "name": "Le Roraima (épave)",
    "filename": "le-roraima-épave.md",
    "lat": 14.7406783,
    "lng": -61.1802312,
    "difficulty": "Advanced",
    "maxDepth": 55,
    "entryType": "boat",
    "siteType": "wreck",
    "ref": "",
    "osmId": 10876753895
  },
  {
    "name": "Épave Amelie",
    "filename": "épave-amelie.md",
    "lat": 14.7249268,
    "lng": -61.1820679,
    "difficulty": "Beginner",
    "maxDepth": 6,
    "entryType": "shore",
    "siteType": "wreck",
    "ref": "",
    "osmId": 11001881741
  },
  {
    "name": "Le Banc de Sable",
    "filename": "le-banc-de-sable.md",
    "lat": 14.7664378,
    "lng": -60.9647172,
    "difficulty": "Beginner",
    "maxDepth": 12,
    "entryType": "boat",
    "siteType": "reef",
    "ref": "",
    "osmId": 481585921
  },
  {
    "name": "Banc du Singe",
    "filename": "banc-du-singe.md",
    "lat": 14.451809,
    "lng": -60.8877312,
    "difficulty": "Intermediate",
    "maxDepth": 18,
    "entryType": "boat",
    "siteType": "reef",
    "ref": "",
    "osmId": 550156698
  },
  {
    "name": "Caye Duprey",
    "filename": "caye-duprey.md",
    "lat": 14.4578256,
    "lng": -60.8863538,
    "difficulty": "Intermediate",
    "maxDepth": 20,
    "entryType": "boat",
    "siteType": "reef",
    "ref": "",
    "osmId": 550157225
  },
  {
    "name": "Banc du Mitan",
    "filename": "banc-du-mitan.md",
    "lat": 14.4629552,
    "lng": -60.872625,
    "difficulty": "Beginner",
    "maxDepth": 15,
    "entryType": "boat",
    "siteType": "reef",
    "ref": "",
    "osmId": 550157501
  },
  {
    "name": "Banc Major",
    "filename": "banc-major.md",
    "lat": 14.4625903,
    "lng": -60.8788598,
    "difficulty": "Intermediate",
    "maxDepth": 20,
    "entryType": "boat",
    "siteType": "reef",
    "ref": "",
    "osmId": 550157502
  },
  {
    "name": "Grand-Caye",
    "filename": "grand-caye.md",
    "lat": 14.458436,
    "lng": -60.921857,
    "difficulty": "Intermediate",
    "maxDepth": 18,
    "entryType": "boat",
    "siteType": "reef",
    "ref": "",
    "osmId": 550157935
  },
  {
    "name": "Baignoire de Joséphine",
    "filename": "baignoire-de-joséphine.md",
    "lat": 14.6284876,
    "lng": -60.8495339,
    "difficulty": "Beginner",
    "maxDepth": 2,
    "entryType": "boat",
    "siteType": "reef",
    "ref": "",
    "osmId": 903851062
  }
]
