[
  {
    "name": "Diamond Rock",
    "filename": "diamond-rock.md",
    "lat": 14.445,
    "lng": -61.04,
    "difficulty": "Advanced",
    "maxDepth": 35,
    "entryType": "boat",
    "siteType": "wall",
    "ref": "",
    "osmId": null
  },
  {
    "name": "Rocher du Diamant Cave",
    "filename": "rocher-du-diamant-cave.md",
    "lat": 14.447,
    "lng": -61.038,
    "difficulty": "Advanced",
    "maxDepth": 25,
    "entryType": "boat",
    "siteType": "cave",
    "ref": "",
    "osmId": null
  },
  {
    "name": "Anse Dufour",
    "filename": "anse-dufour.md",
    "lat": 14.525,
    "lng": -61.085,
    "difficulty": "Beginner",
    "maxDepth": 12,
    "entryType": "shore",
    "siteType": "reef",
    "ref": "",
    "osmId": null
  },
  {
    "name": "St. Pierre Wrecks",
    "filename": "st-pierre-wrecks.md",
    "lat": 14.74,
    "lng": -61.18,
    "difficulty": "Advanced",
    "maxDepth": 30,
    "entryType": "boat",
    "siteType": "wreck",
    "ref": "",
    "osmId": null
  },
  {
    "name": "Rocher de la Perle",
    "filename": "rocher-de-la-perle.md",
    "lat": 14.77,
    "lng": -61.21,
    "difficulty": "Intermediate",
    "maxDepth": 20,
    "entryType": "boat",
    "siteType": "reef",
    "ref": "",
    "osmId": null
  },
  {
    "name": "Anse Noire",
    "filename": "anse-noire.md",
    "lat": 14.53,
    "lng": -61.088,
    "difficulty": "Beginner",
    "maxDepth": 8,
    "entryType": "shore",
    "siteType": "reef",
    "ref": "",
    "osmId": null
  },
  {
    "name": "Cap Enragé",
    "filename": "cap-enragé.md",
    "lat": 14.44,
    "lng": -61.03,
    "difficulty": "Intermediate",
    "maxDepth": 22,
    "entryType": "boat",
    "siteType": "reef",
    "ref": "",
    "osmId": null
  },
  {
    "name": "Pointe Burgos",
    "filename": "pointe-burgos.md",
    "lat": 14.55,
    "lng": -61.09,
    "difficulty": "Intermediate",
    "maxDepth": 18,
    "entryType": "boat",
    "siteType": "reef",
    "ref": "",
    "osmId": null
  },
  {
    "name": "Nahoon Wreck",
    "filename": "nahoon-wreck.md",
    "lat": 14.735,
    "lng": -61.175,
    "difficulty": "Advanced",
    "maxDepth": 28,
    "entryType": "boat",
    "siteType": "wreck",
    "ref": "",
    "osmId": null
  },
  {
    "name": "Grande Anse Reef",
    "filename": "grande-anse-reef.md",
    "lat": 14.46,
    "lng": -61.05,
    "difficulty": "Beginner",
    "maxDepth": 14,
    "entryType": "boat",
    "siteType": "reef",
    "ref": "",
    "osmId": null
  },
  {
    "name": "Citadelle",
    "filename": "citadelle.md",
    "lat": 14.745,
    "lng": -61.185,
    "difficulty": "Beginner",
    "maxDepth": 16,
    "entryType": "shore",
    "siteType": "reef",
    "ref": "",
    "osmId": null
  },
  {
    "name": "Jardin Tropical",
    "filename": "jardin-tropical.md",
    "lat": 14.52,
    "lng": -61.08,
    "difficulty": "Beginner",
    "maxDepth": 10,
    "entryType": "shore",
    "siteType": "reef",
    "ref": "",
    "osmId": null
  }
]