[
  {
    "name": "USS PT-371",
    "filename": "uss-pt-371.md",
    "lat": 2.0917,
    "lng": 127.8305,
    "difficulty": "Intermediate",
    "maxDepth": 15,
    "entryType": "boat",
    "siteType": "wreck",
    "ref": "",
    "osmId": 2144506344
  },
  {
    "name": "Tosei Maru",
    "filename": "tosei-maru.md",
    "lat": 1.1452,
    "lng": 127.8332,
    "difficulty": "Intermediate",
    "maxDepth": 20,
    "entryType": "boat",
    "siteType": "wreck",
    "ref": "",
    "osmId": 20315906
  },
  {
    "name": "Biatabang",
    "filename": "biatabang.md",
    "lat": 0.76,
    "lng": 127.37,
    "difficulty": "Advanced",
    "maxDepth": 30,
    "entryType": "boat",
    "siteType": "wall",
    "ref": "",
    "osmId": null
  },
  {
    "name": "Taman Nukila Wreck",
    "filename": "taman-nukila-wreck.md",
    "lat": 0.782,
    "lng": 127.374,
    "difficulty": "Beginner",
    "maxDepth": 23,
    "entryType": "shore",
    "siteType": "wreck",
    "ref": "",
    "osmId": null
  },
  {
    "name": "Pulau Tifore",
    "filename": "pulau-tifore.md",
    "lat": 0.9708,
    "lng": 126.1445,
    "difficulty": "Intermediate",
    "maxDepth": 30,
    "entryType": "boat",
    "siteType": "reef",
    "ref": "",
    "osmId": null
  },
  {
    "name": "Reenie's Rock",
    "filename": "reenies-rock.md",
    "lat": -0.0233,
    "lng": 127.222,
    "difficulty": "Intermediate",
    "maxDepth": 40,
    "entryType": "boat",
    "siteType": "reef",
    "ref": "",
    "osmId": null
  },
  {
    "name": "Batu Mandi",
    "filename": "batu-mandi.md",
    "lat": -0.0271,
    "lng": 127.207,
    "difficulty": "Intermediate",
    "maxDepth": 30,
    "entryType": "boat",
    "siteType": "wall",
    "ref": "",
    "osmId": null
  },
  {
    "name": "Terumbu Gora",
    "filename": "terumbu-gora.md",
    "lat": -0.0292,
    "lng": 127.224,
    "difficulty": "Intermediate",
    "maxDepth": 35,
    "entryType": "boat",
    "siteType": "pinnacle",
    "ref": "",
    "osmId": null
  },
  {
    "name": "Proco Channel",
    "filename": "proco-channel.md",
    "lat": -0.4078,
    "lng": 127.7278,
    "difficulty": "Advanced",
    "maxDepth": 30,
    "entryType": "boat",
    "siteType": "drift",
    "ref": "",
    "osmId": null
  },
  {
    "name": "Batu Jabu",
    "filename": "batu-jabu.md",
    "lat": -0.3995,
    "lng": 127.735,
    "difficulty": "Intermediate",
    "maxDepth": 35,
    "entryType": "boat",
    "siteType": "reef",
    "ref": "",
    "osmId": null
  },
  {
    "name": "Foya Wreck",
    "filename": "foya-wreck.md",
    "lat": 0.32,
    "lng": 127.88,
    "difficulty": "Intermediate",
    "maxDepth": 30,
    "entryType": "boat",
    "siteType": "wreck",
    "ref": "",
    "osmId": null
  },
  {
    "name": "Shark Mountain",
    "filename": "shark-mountain.md",
    "lat": 0.38,
    "lng": 128.01,
    "difficulty": "Advanced",
    "maxDepth": 40,
    "entryType": "boat",
    "siteType": "pinnacle",
    "ref": "",
    "osmId": null
  },
  {
    "name": "Pulau Pisang",
    "filename": "pulau-pisang.md",
    "lat": -1.401,
    "lng": 128.9207,
    "difficulty": "Intermediate",
    "maxDepth": 35,
    "entryType": "boat",
    "siteType": "pinnacle",
    "ref": "",
    "osmId": null
  },
  {
    "name": "Bristol Plane Wreck",
    "filename": "bristol-plane-wreck.md",
    "lat": 2.18,
    "lng": 128.28,
    "difficulty": "Advanced",
    "maxDepth": 50,
    "entryType": "boat",
    "siteType": "wreck",
    "ref": "",
    "osmId": null
  },
  {
    "name": "Womow Reef",
    "filename": "womow-reef.md",
    "lat": 1.78,
    "lng": 128.05,
    "difficulty": "Intermediate",
    "maxDepth": 35,
    "entryType": "boat",
    "siteType": "pinnacle",
    "ref": "",
    "osmId": null
  },
  {
    "name": "Makian Black Sand",
    "filename": "makian-black-sand.md",
    "lat": 0.32,
    "lng": 127.395,
    "difficulty": "Beginner",
    "maxDepth": 20,
    "entryType": "boat",
    "siteType": "muck",
    "ref": "",
    "osmId": null
  }
]
