[
  {
    "name": "Edmonds Underwater Park",
    "filename": "edmonds-underwater-park.md",
    "lat": 47.8137076,
    "lng": -122.384577,
    "difficulty": "Intermediate",
    "maxDepth": 14,
    "entryType": "beach",
    "siteType": "reef",
    "ref": "",
    "osmId": 356542710
  },
  {
    "name": "Tumbo Reef",
    "filename": "tumbo-reef.md",
    "lat": 48.7993212,
    "lng": -123.053264,
    "difficulty": "Intermediate",
    "maxDepth": 21,
    "entryType": "boat",
    "siteType": "reef",
    "ref": "",
    "osmId": 1631947869
  },
  {
    "name": "Shirt Tail Reef",
    "filename": "shirt-tail-reef.md",
    "lat": 48.5876066,
    "lng": -123.0216542,
    "difficulty": "Intermediate",
    "maxDepth": 18,
    "entryType": "boat",
    "siteType": "reef",
    "ref": "",
    "osmId": 1731207317
  },
  {
    "name": "SS Dauntless",
    "filename": "ss-dauntless.md",
    "lat": 47.6970822,
    "lng": -122.4053555,
    "difficulty": "Intermediate",
    "maxDepth": 21,
    "entryType": "boat",
    "siteType": "wreck",
    "ref": "",
    "osmId": 2261080075
  },
  {
    "name": "Danger Rock",
    "filename": "danger-rock.md",
    "lat": 48.66382,
    "lng": -123.0671742,
    "difficulty": "Intermediate",
    "maxDepth": 15,
    "entryType": "boat",
    "siteType": "reef",
    "ref": "",
    "osmId": 3251209577
  },
  {
    "name": "Blake Island Reef",
    "filename": "blake-island-reef.md",
    "lat": 47.5295753,
    "lng": -122.4945867,
    "difficulty": "Intermediate",
    "maxDepth": 24,
    "entryType": "boat",
    "siteType": "reef",
    "ref": "",
    "osmId": 5002157910
  },
  {
    "name": "Osprey",
    "filename": "osprey.md",
    "lat": 48.7681908,
    "lng": -122.5282916,
    "difficulty": "Intermediate",
    "maxDepth": 18,
    "entryType": "boat",
    "siteType": "wreck",
    "ref": "",
    "osmId": 9682570285
  },
  {
    "name": "Juanitas Rock",
    "filename": "juanitas-rock.md",
    "lat": 48.1440604,
    "lng": -122.7773598,
    "difficulty": "Intermediate",
    "maxDepth": 21,
    "entryType": "boat",
    "siteType": "reef",
    "ref": "",
    "osmId": 9978724359
  },
  {
    "name": "Wreck of a PB4Y bomber",
    "filename": "wreck-of-a-pb4y-bomber.md",
    "lat": 47.6774857,
    "lng": -122.2413892,
    "difficulty": "Advanced",
    "maxDepth": 45,
    "entryType": "boat",
    "siteType": "wreck",
    "ref": "",
    "osmId": 11846236191
  },
  {
    "name": "Decatur Reef",
    "filename": "decatur-reef.md",
    "lat": 47.5811921,
    "lng": -122.4735262,
    "difficulty": "Intermediate",
    "maxDepth": 18,
    "entryType": "boat",
    "siteType": "reef",
    "ref": "",
    "osmId": 13429609334
  },
  {
    "name": "Tyee Shoal",
    "filename": "tyee-shoal.md",
    "lat": 47.6112789,
    "lng": -122.4864061,
    "difficulty": "Intermediate",
    "maxDepth": 18,
    "entryType": "boat",
    "siteType": "reef",
    "ref": "",
    "osmId": 13429643555
  },
  {
    "name": "Seacrest Park",
    "filename": "seacrest-park.md",
    "lat": 47.5889246,
    "lng": -122.3796806,
    "difficulty": "Intermediate",
    "maxDepth": 27,
    "entryType": "beach",
    "siteType": "reef",
    "ref": "",
    "osmId": 49830903
  },
  {
    "name": "Entertainment Reef",
    "filename": "entertainment-reef.md",
    "lat": 48.7327201,
    "lng": -123.0303725,
    "difficulty": "Intermediate",
    "maxDepth": 18,
    "entryType": "boat",
    "siteType": "reef",
    "ref": "",
    "osmId": 277183068
  },
  {
    "name": "Center Reef",
    "filename": "center-reef.md",
    "lat": 48.6357132,
    "lng": -123.1616104,
    "difficulty": "Intermediate",
    "maxDepth": 18,
    "entryType": "boat",
    "siteType": "reef",
    "ref": "",
    "osmId": 620673918
  },
  {
    "name": "Shag Reef",
    "filename": "shag-reef.md",
    "lat": 48.6541318,
    "lng": -123.1339722,
    "difficulty": "Intermediate",
    "maxDepth": 18,
    "entryType": "boat",
    "siteType": "reef",
    "ref": "",
    "osmId": 632577924
  },
  {
    "name": "Gull Reef",
    "filename": "gull-reef.md",
    "lat": 48.6547,
    "lng": -123.1469422,
    "difficulty": "Intermediate",
    "maxDepth": 18,
    "entryType": "boat",
    "siteType": "reef",
    "ref": "",
    "osmId": 632577932
  },
  {
    "name": "Shark Reef",
    "filename": "shark-reef.md",
    "lat": 48.4759257,
    "lng": -122.9475209,
    "difficulty": "Intermediate",
    "maxDepth": 18,
    "entryType": "boat",
    "siteType": "reef",
    "ref": "",
    "osmId": 632577933
  },
  {
    "name": "Leo Reef",
    "filename": "leo-reef.md",
    "lat": 48.5529527,
    "lng": -122.8558186,
    "difficulty": "Intermediate",
    "maxDepth": 18,
    "entryType": "boat",
    "siteType": "reef",
    "ref": "",
    "osmId": 632735255
  },
  {
    "name": "Turn Rock",
    "filename": "turn-rock.md",
    "lat": 48.5349255,
    "lng": -122.9645732,
    "difficulty": "Intermediate",
    "maxDepth": 21,
    "entryType": "boat",
    "siteType": "reef",
    "ref": "",
    "osmId": 632735265
  },
  {
    "name": "Lawson Reef",
    "filename": "lawson-reef.md",
    "lat": 48.4024556,
    "lng": -122.713943,
    "difficulty": "Intermediate",
    "maxDepth": 18,
    "entryType": "boat",
    "siteType": "reef",
    "ref": "",
    "osmId": 844904383
  },
  {
    "name": "Mouatt Reef",
    "filename": "mouatt-reef.md",
    "lat": 48.6845784,
    "lng": -123.046361,
    "difficulty": "Intermediate",
    "maxDepth": 18,
    "entryType": "boat",
    "siteType": "reef",
    "ref": "",
    "osmId": 1198854415
  },
  {
    "name": "Parker Reef",
    "filename": "parker-reef.md",
    "lat": 48.7257769,
    "lng": -122.8933075,
    "difficulty": "Intermediate",
    "maxDepth": 18,
    "entryType": "boat",
    "siteType": "reef",
    "ref": "",
    "osmId": 1198856783
  },
  {
    "name": "USCGC Tiger",
    "filename": "uscgc-tiger.md",
    "lat": 47.2949033,
    "lng": -122.4200095,
    "difficulty": "Intermediate",
    "maxDepth": 18,
    "entryType": "boat",
    "siteType": "wreck",
    "ref": "",
    "osmId": 1304763529
  },
  {
    "name": "Boat",
    "filename": "boat.md",
    "lat": 47.9646714,
    "lng": -122.0201225,
    "difficulty": "Intermediate",
    "maxDepth": 12,
    "entryType": "boat",
    "siteType": "wreck",
    "ref": "",
    "osmId": 1384791467
  },
  {
    "name": "MV Olympic",
    "filename": "mv-olympic.md",
    "lat": 47.1609893,
    "lng": -122.6304155,
    "difficulty": "Intermediate",
    "maxDepth": 15,
    "entryType": "boat",
    "siteType": "wreck",
    "ref": "",
    "osmId": 1433700226
  },
  {
    "name": "Dennis Shoal",
    "filename": "dennis-shoal.md",
    "lat": 48.4579649,
    "lng": -122.7142894,
    "difficulty": "Intermediate",
    "maxDepth": 15,
    "entryType": "boat",
    "siteType": "reef",
    "ref": "",
    "osmId": 1467715296
  },
  {
    "name": "Bakers Reef",
    "filename": "bakers-reef.md",
    "lat": 48.6837218,
    "lng": -122.6777526,
    "difficulty": "Intermediate",
    "maxDepth": 18,
    "entryType": "boat",
    "siteType": "reef",
    "ref": "",
    "osmId": 1469826239
  },
  {
    "name": "Cypress Reef",
    "filename": "cypress-reef.md",
    "lat": 48.6136022,
    "lng": -122.7224932,
    "difficulty": "Intermediate",
    "maxDepth": 18,
    "entryType": "boat",
    "siteType": "reef",
    "ref": "",
    "osmId": 1470400960
  },
  {
    "name": "Buckeye Shoal",
    "filename": "buckeye-shoal.md",
    "lat": 48.6241418,
    "lng": -122.7301123,
    "difficulty": "Intermediate",
    "maxDepth": 18,
    "entryType": "boat",
    "siteType": "reef",
    "ref": "",
    "osmId": 1470402223
  },
  {
    "name": "Boulder Reef",
    "filename": "boulder-reef.md",
    "lat": 48.6348115,
    "lng": -122.690753,
    "difficulty": "Intermediate",
    "maxDepth": 18,
    "entryType": "boat",
    "siteType": "reef",
    "ref": "",
    "osmId": 1470404677
  },
  {
    "name": "Yellow Bluff Reef",
    "filename": "yellow-bluff-reef.md",
    "lat": 48.5363465,
    "lng": -122.6533759,
    "difficulty": "Intermediate",
    "maxDepth": 24,
    "entryType": "boat",
    "siteType": "wall",
    "ref": "",
    "osmId": 1471817869
  },
  {
    "name": "Case Shoal",
    "filename": "case-shoal.md",
    "lat": 47.8489364,
    "lng": -122.6726058,
    "difficulty": "Intermediate",
    "maxDepth": 15,
    "entryType": "boat",
    "siteType": "reef",
    "ref": "",
    "osmId": 1473261925
  }
]
