[
  {
    "name": "NAD Lembeh",
    "filename": "nad-lembeh.md",
    "lat": 1.4447743,
    "lng": 125.2409649,
    "difficulty": "Intermediate",
    "maxDepth": 20,
    "entryType": "boat",
    "siteType": "muck",
    "ref": "",
    "osmId": 2138645003
  },
  {
    "name": "Hairball",
    "filename": "hairball.md",
    "lat": 1.4667,
    "lng": 125.2333,
    "difficulty": "Intermediate",
    "maxDepth": 29,
    "entryType": "boat",
    "siteType": "muck",
    "ref": "",
    "osmId": null
  },
  {
    "name": "TK1",
    "filename": "tk1.md",
    "lat": 1.475,
    "lng": 125.2417,
    "difficulty": "Beginner",
    "maxDepth": 25,
    "entryType": "boat",
    "siteType": "muck",
    "ref": "",
    "osmId": null
  },
  {
    "name": "TK2",
    "filename": "tk2.md",
    "lat": 1.4767,
    "lng": 125.24,
    "difficulty": "Beginner",
    "maxDepth": 20,
    "entryType": "boat",
    "siteType": "muck",
    "ref": "",
    "osmId": null
  },
  {
    "name": "TK3",
    "filename": "tk3.md",
    "lat": 1.4783,
    "lng": 125.2383,
    "difficulty": "Beginner",
    "maxDepth": 25,
    "entryType": "boat",
    "siteType": "muck",
    "ref": "",
    "osmId": null
  },
  {
    "name": "Nudi Falls",
    "filename": "nudi-falls.md",
    "lat": 1.4833,
    "lng": 125.25,
    "difficulty": "Intermediate",
    "maxDepth": 25,
    "entryType": "boat",
    "siteType": "muck",
    "ref": "",
    "osmId": null
  },
  {
    "name": "Police Pier",
    "filename": "police-pier.md",
    "lat": 1.4583,
    "lng": 125.2167,
    "difficulty": "Beginner",
    "maxDepth": 15,
    "entryType": "boat",
    "siteType": "muck",
    "ref": "",
    "osmId": null
  },
  {
    "name": "Jahir",
    "filename": "jahir.md",
    "lat": 1.4917,
    "lng": 125.2583,
    "difficulty": "Intermediate",
    "maxDepth": 28,
    "entryType": "boat",
    "siteType": "muck",
    "ref": "",
    "osmId": null
  },
  {
    "name": "Makawide",
    "filename": "makawide.md",
    "lat": 1.47,
    "lng": 125.2283,
    "difficulty": "Intermediate",
    "maxDepth": 24,
    "entryType": "boat",
    "siteType": "muck",
    "ref": "",
    "osmId": null
  },
  {
    "name": "Aer Bajo",
    "filename": "aer-bajo.md",
    "lat": 1.5,
    "lng": 125.2667,
    "difficulty": "Beginner",
    "maxDepth": 25,
    "entryType": "boat",
    "siteType": "muck",
    "ref": "",
    "osmId": null
  },
  {
    "name": "Nudi Retreat",
    "filename": "nudi-retreat.md",
    "lat": 1.485,
    "lng": 125.2533,
    "difficulty": "Intermediate",
    "maxDepth": 20,
    "entryType": "boat",
    "siteType": "muck",
    "ref": "",
    "osmId": null
  },
  {
    "name": "Angel's Window",
    "filename": "angels-window.md",
    "lat": 1.4633,
    "lng": 125.22,
    "difficulty": "Intermediate",
    "maxDepth": 32,
    "entryType": "boat",
    "siteType": "muck",
    "ref": "",
    "osmId": null
  },
  {
    "name": "Retak Larry",
    "filename": "retak-larry.md",
    "lat": 1.48,
    "lng": 125.245,
    "difficulty": "Intermediate",
    "maxDepth": 25,
    "entryType": "boat",
    "siteType": "muck",
    "ref": "",
    "osmId": null
  }
]
