[
  {
    "name": "อ่าวลึก",
    "filename": "อาวลก.md",
    "lat": 10.0710681,
    "lng": 99.8410882,
    "difficulty": "Beginner",
    "maxDepth": 10,
    "entryType": "boat",
    "siteType": "bay",
    "ref": "",
    "osmId": 859428681
  },
  {
    "name": "Japanese Garden",
    "filename": "japanese-garden.md",
    "lat": 10.1188103,
    "lng": 99.8145504,
    "difficulty": "Beginner",
    "maxDepth": 14,
    "entryType": "boat",
    "siteType": "reef",
    "ref": "",
    "osmId": 859428779
  },
  {
    "name": "Red Rock",
    "filename": "red-rock.md",
    "lat": 10.1234449,
    "lng": 99.8148536,
    "difficulty": "Beginner",
    "maxDepth": 25,
    "entryType": "boat",
    "siteType": "reef",
    "ref": "",
    "osmId": 859428812
  },
  {
    "name": "อ่าวโตนด",
    "filename": "อาวโตนด.md",
    "lat": 10.0833646,
    "lng": 99.8498136,
    "difficulty": "Beginner",
    "maxDepth": 16,
    "entryType": "boat",
    "siteType": "bay",
    "ref": "",
    "osmId": 859428879
  },
  {
    "name": "Twins",
    "filename": "twins.md",
    "lat": 10.1159286,
    "lng": 99.8120026,
    "difficulty": "Beginner",
    "maxDepth": 18,
    "entryType": "boat",
    "siteType": "pinnacle",
    "ref": "",
    "osmId": 859428938
  },
  {
    "name": "Green Rock",
    "filename": "green-rock.md",
    "lat": 10.1237522,
    "lng": 99.8100987,
    "difficulty": "Advanced",
    "maxDepth": 25,
    "entryType": "boat",
    "siteType": "reef",
    "ref": "",
    "osmId": 859428968
  },
  {
    "name": "Shark Island",
    "filename": "shark-island.md",
    "lat": 10.0623691,
    "lng": 99.8456663,
    "difficulty": "Intermediate",
    "maxDepth": 25,
    "entryType": "boat",
    "siteType": "reef",
    "ref": "",
    "osmId": 859428997
  },
  {
    "name": "Chumpon Pinnacle",
    "filename": "chumpon-pinnacle.md",
    "lat": 10.1719265,
    "lng": 99.7783071,
    "difficulty": "Intermediate",
    "maxDepth": 35,
    "entryType": "boat",
    "siteType": "pinnacle",
    "ref": "",
    "osmId": 865081862
  },
  {
    "name": "Scuba Junction",
    "filename": "scuba-junction.md",
    "lat": 10.0954715,
    "lng": 99.8276977,
    "difficulty": "Beginner",
    "maxDepth": 20,
    "entryType": "boat",
    "siteType": "reef",
    "ref": "",
    "osmId": 2616078980
  },
  {
    "name": "อ่าวหินงาม",
    "filename": "อาวหนงาม.md",
    "lat": 10.0676822,
    "lng": 99.8411029,
    "difficulty": "Beginner",
    "maxDepth": 18,
    "entryType": "boat",
    "siteType": "bay",
    "ref": "",
    "osmId": 3582426697
  },
  {
    "name": "Laem Thian Pinnacle",
    "filename": "laem-thian-pinnacle.md",
    "lat": 10.0901948,
    "lng": 99.85696,
    "difficulty": "Beginner",
    "maxDepth": 16,
    "entryType": "boat",
    "siteType": "pinnacle",
    "ref": "",
    "osmId": 3582426701
  },
  {
    "name": "อ่าวมวง",
    "filename": "อาวมวง.md",
    "lat": 10.1229226,
    "lng": 99.8350543,
    "difficulty": "Beginner",
    "maxDepth": 14,
    "entryType": "boat",
    "siteType": "bay",
    "ref": "",
    "osmId": 3582426705
  },
  {
    "name": "White Rock",
    "filename": "white-rock.md",
    "lat": 10.109502,
    "lng": 99.8135659,
    "difficulty": "Beginner",
    "maxDepth": 22,
    "entryType": "boat",
    "siteType": "reef",
    "ref": "",
    "osmId": 4791057086
  },
  {
    "name": "Hin Pee Wee",
    "filename": "hin-pee-wee.md",
    "lat": 10.1066348,
    "lng": 99.8133678,
    "difficulty": "Beginner",
    "maxDepth": 28,
    "entryType": "boat",
    "siteType": "pinnacle",
    "ref": "",
    "osmId": 4791065178
  },
  {
    "name": "HTMS Sattakut",
    "filename": "htms-sattakut.md",
    "lat": 10.1056432,
    "lng": 99.8135376,
    "difficulty": "Intermediate",
    "maxDepth": 30,
    "entryType": "boat",
    "siteType": "wreck",
    "ref": "",
    "osmId": 5992774764
  },
  {
    "name": "Buoyancy",
    "filename": "buoyancy.md",
    "lat": 10.1170082,
    "lng": 99.8118682,
    "difficulty": "Beginner",
    "maxDepth": 15,
    "entryType": "boat",
    "siteType": "artificial_reef",
    "ref": "",
    "osmId": 5993275432
  },
  {
    "name": "Pottery",
    "filename": "pottery.md",
    "lat": 10.0807768,
    "lng": 99.8163373,
    "difficulty": "Beginner",
    "maxDepth": 12,
    "entryType": "boat",
    "siteType": "reef",
    "ref": "",
    "osmId": 5993352457
  }
]