[
  {
    "name": "Cap La Houssaye",
    "filename": "cap-la-houssaye.md",
    "lat": -21.018,
    "lng": 55.233,
    "difficulty": "Beginner",
    "maxDepth": 18,
    "entryType": "shore",
    "siteType": "reef",
    "ref": "",
    "osmId": null
  },
  {
    "name": "Pain de Sucre",
    "filename": "pain-de-sucre.md",
    "lat": -21.036,
    "lng": 55.227,
    "difficulty": "Beginner",
    "maxDepth": 20,
    "entryType": "boat",
    "siteType": "reef",
    "ref": "",
    "osmId": null
  },
  {
    "name": "Tour de Boucan",
    "filename": "tour-de-boucan.md",
    "lat": -21.042,
    "lng": 55.223,
    "difficulty": "Beginner",
    "maxDepth": 22,
    "entryType": "boat",
    "siteType": "reef",
    "ref": "",
    "osmId": null
  },
  {
    "name": "Passe de l'Ermitage",
    "filename": "passe-de-lermitage.md",
    "lat": -21.08526,
    "lng": 55.22158,
    "difficulty": "Beginner",
    "maxDepth": 25,
    "entryType": "boat",
    "siteType": "reef",
    "ref": "",
    "osmId": null
  },
  {
    "name": "Hai Siang",
    "filename": "hai-siang.md",
    "lat": -21.057,
    "lng": 55.213,
    "difficulty": "Advanced",
    "maxDepth": 54,
    "entryType": "boat",
    "siteType": "wreck",
    "ref": "",
    "osmId": null
  },
  {
    "name": "Navarra",
    "filename": "navarra.md",
    "lat": -21.06,
    "lng": 55.21,
    "difficulty": "Advanced",
    "maxDepth": 53,
    "entryType": "boat",
    "siteType": "wreck",
    "ref": "",
    "osmId": null
  },
  {
    "name": "Antonio Lorenzo",
    "filename": "antonio-lorenzo.md",
    "lat": -21.14939,
    "lng": 55.26745,
    "difficulty": "Advanced",
    "maxDepth": 40,
    "entryType": "boat",
    "siteType": "wreck",
    "ref": "",
    "osmId": null
  },
  {
    "name": "Tombant de la Pointe au Sel",
    "filename": "tombant-de-la-pointe-au-sel.md",
    "lat": -21.272,
    "lng": 55.283,
    "difficulty": "Intermediate",
    "maxDepth": 40,
    "entryType": "boat",
    "siteType": "wall",
    "ref": "",
    "osmId": null
  },
  {
    "name": "Le Sec Jaune",
    "filename": "le-sec-jaune.md",
    "lat": -21.20585,
    "lng": 55.2799,
    "difficulty": "Beginner",
    "maxDepth": 30,
    "entryType": "boat",
    "siteType": "reef",
    "ref": "",
    "osmId": null
  },
  {
    "name": "Le Jardin des Kiosques",
    "filename": "le-jardin-des-kiosques.md",
    "lat": -21.18375,
    "lng": 55.28417,
    "difficulty": "Beginner",
    "maxDepth": 30,
    "entryType": "boat",
    "siteType": "reef",
    "ref": "",
    "osmId": null
  },
  {
    "name": "Sea Venture",
    "filename": "sea-venture.md",
    "lat": -21.012,
    "lng": 55.237,
    "difficulty": "Advanced",
    "maxDepth": 49,
    "entryType": "boat",
    "siteType": "wreck",
    "ref": "",
    "osmId": null
  },
  {
    "name": "La Barge de Saint-Paul",
    "filename": "la-barge-de-saint-paul.md",
    "lat": -21.014,
    "lng": 55.235,
    "difficulty": "Intermediate",
    "maxDepth": 22,
    "entryType": "boat",
    "siteType": "wreck",
    "ref": "",
    "osmId": null
  },
  {
    "name": "La Passe des Trois-Bassins",
    "filename": "la-passe-des-trois-bassins.md",
    "lat": -21.098,
    "lng": 55.238,
    "difficulty": "Beginner",
    "maxDepth": 22,
    "entryType": "boat",
    "siteType": "reef",
    "ref": "",
    "osmId": null
  }
]