[
  {
    "name": "princess alice bank",
    "filename": "princess-alice-bank.md",
    "lat": 38.4046516,
    "lng": -29.9476204,
    "difficulty": "Advanced",
    "maxDepth": 35,
    "entryType": "boat",
    "siteType": "pinnacle",
    "ref": "",
    "osmId": 5875583620
  },
  {
    "name": "Caneiro dos Meros",
    "filename": "caneiro-dos-meros.md",
    "lat": 39.67,
    "lng": -31.11,
    "difficulty": "Advanced",
    "maxDepth": 45,
    "entryType": "boat",
    "siteType": "wall",
    "ref": "",
    "osmId": null
  },
  {
    "name": "Dom João de Castro Bank",
    "filename": "dom-joão-de-castro-bank.md",
    "lat": 38.2167,
    "lng": -26.6333,
    "difficulty": "Advanced",
    "maxDepth": 60,
    "entryType": "boat",
    "siteType": "pinnacle",
    "ref": "",
    "osmId": null
  },
  {
    "name": "Ilhéu de Vila Franca do Campo",
    "filename": "ilhéu-de-vila-franca-do-campo.md",
    "lat": 37.71,
    "lng": -25.43,
    "difficulty": "Beginner",
    "maxDepth": 22,
    "entryType": "boat",
    "siteType": "reef",
    "ref": "",
    "osmId": null
  },
  {
    "name": "Dori Wreck",
    "filename": "dori-wreck.md",
    "lat": 37.74398,
    "lng": -25.62578,
    "difficulty": "Intermediate",
    "maxDepth": 21,
    "entryType": "boat",
    "siteType": "wreck",
    "ref": "",
    "osmId": null
  },
  {
    "name": "Arcos da Caloura",
    "filename": "arcos-da-caloura.md",
    "lat": 37.7167,
    "lng": -25.5,
    "difficulty": "Intermediate",
    "maxDepth": 18,
    "entryType": "boat",
    "siteType": "cave",
    "ref": "",
    "osmId": null
  },
  {
    "name": "Baixa da Barca",
    "filename": "baixa-da-barca.md",
    "lat": 38.5333,
    "lng": -28.6833,
    "difficulty": "Advanced",
    "maxDepth": 55,
    "entryType": "boat",
    "siteType": "reef",
    "ref": "",
    "osmId": null
  },
  {
    "name": "Fradinhos",
    "filename": "fradinhos.md",
    "lat": 38.58,
    "lng": -27.22,
    "difficulty": "Advanced",
    "maxDepth": 60,
    "entryType": "boat",
    "siteType": "pinnacle",
    "ref": "",
    "osmId": null
  },
  {
    "name": "Gruta dos Enxaréus",
    "filename": "gruta-dos-enxaréus.md",
    "lat": 39.45,
    "lng": -31.12,
    "difficulty": "Advanced",
    "maxDepth": 23,
    "entryType": "boat",
    "siteType": "cave",
    "ref": "",
    "osmId": null
  },
  {
    "name": "SS Slavonia Wreck",
    "filename": "ss-slavonia-wreck.md",
    "lat": 39.38,
    "lng": -31.17,
    "difficulty": "Intermediate",
    "maxDepth": 18,
    "entryType": "boat",
    "siteType": "wreck",
    "ref": "",
    "osmId": null
  },
  {
    "name": "Santa Iria",
    "filename": "santa-iria.md",
    "lat": 37.841934,
    "lng": -25.498948,
    "difficulty": "Intermediate",
    "maxDepth": 20,
    "entryType": "boat",
    "siteType": "reef",
    "ref": "",
    "osmId": null
  },
  {
    "name": "Bahia de Capelas",
    "filename": "bahia-de-capelas.md",
    "lat": 37.843244,
    "lng": -25.688296,
    "difficulty": "Intermediate",
    "maxDepth": 20,
    "entryType": "boat",
    "siteType": "reef",
    "ref": "",
    "osmId": null
  },
  {
    "name": "Lagoa",
    "filename": "lagoa.md",
    "lat": 37.741148,
    "lng": -25.57533,
    "difficulty": "Intermediate",
    "maxDepth": 20,
    "entryType": "boat",
    "siteType": "reef",
    "ref": "",
    "osmId": null
  },
  {
    "name": "Rostro de Cao",
    "filename": "rostro-de-cao.md",
    "lat": 37.743339,
    "lng": -25.639832,
    "difficulty": "Intermediate",
    "maxDepth": 20,
    "entryType": "boat",
    "siteType": "reef",
    "ref": "",
    "osmId": null
  }
]
