[
  {
    "name": "Bonegi 1 Wreck",
    "filename": "bonegi-1-wreck.md",
    "lat": -9.385861,
    "lng": 159.874056,
    "difficulty": "Intermediate",
    "maxDepth": 34,
    "entryType": "shore",
    "siteType": "wreck",
    "ref": "",
    "osmId": null
  },
  {
    "name": "Bonegi 2 Wreck",
    "filename": "bonegi-2-wreck.md",
    "lat": -9.378833,
    "lng": 159.870222,
    "difficulty": "Beginner",
    "maxDepth": 23,
    "entryType": "shore",
    "siteType": "wreck",
    "ref": "",
    "osmId": null
  },
  {
    "name": "Toa Maru Wreck",
    "filename": "toa-maru-wreck.md",
    "lat": -8.0167,
    "lng": 156.8333,
    "difficulty": "Intermediate",
    "maxDepth": 40,
    "entryType": "boat",
    "siteType": "wreck",
    "ref": "",
    "osmId": null
  },
  {
    "name": "Devil's Highway",
    "filename": "devils-highway.md",
    "lat": -9.05,
    "lng": 160.1333,
    "difficulty": "Advanced",
    "maxDepth": 25,
    "entryType": "boat",
    "siteType": "drift",
    "ref": "",
    "osmId": null
  },
  {
    "name": "Mary Island",
    "filename": "mary-island.md",
    "lat": -9.3833,
    "lng": 160.1833,
    "difficulty": "Intermediate",
    "maxDepth": 30,
    "entryType": "boat",
    "siteType": "wall",
    "ref": "",
    "osmId": null
  },
  {
    "name": "Leru Cut Florida Islands",
    "filename": "leru-cut-florida-islands.md",
    "lat": -9.0833,
    "lng": 160.25,
    "difficulty": "Intermediate",
    "maxDepth": 20,
    "entryType": "boat",
    "siteType": "cave",
    "ref": "",
    "osmId": null
  },
  {
    "name": "Maravagi Passage",
    "filename": "maravagi-passage.md",
    "lat": -9.1,
    "lng": 160.2,
    "difficulty": "Intermediate",
    "maxDepth": 22,
    "entryType": "boat",
    "siteType": "drift",
    "ref": "",
    "osmId": null
  },
  {
    "name": "Sandfly Passage",
    "filename": "sandfly-passage.md",
    "lat": -8.0833,
    "lng": 156.85,
    "difficulty": "Advanced",
    "maxDepth": 30,
    "entryType": "boat",
    "siteType": "reef",
    "ref": "",
    "osmId": null
  },
  {
    "name": "Custom's House Wreck",
    "filename": "customs-house-wreck.md",
    "lat": -9.3833,
    "lng": 160.0167,
    "difficulty": "Beginner",
    "maxDepth": 15,
    "entryType": "shore",
    "siteType": "wreck",
    "ref": "",
    "osmId": null
  },
  {
    "name": "Mirror Pond Uepi",
    "filename": "mirror-pond-uepi.md",
    "lat": -8.35,
    "lng": 158.0667,
    "difficulty": "Beginner",
    "maxDepth": 15,
    "entryType": "boat",
    "siteType": "cave",
    "ref": "",
    "osmId": null
  },
  {
    "name": "Kyusyu Maru",
    "filename": "kyusyu-maru.md",
    "lat": -9.353139,
    "lng": 159.843417,
    "difficulty": "Advanced",
    "maxDepth": 46,
    "entryType": "shore",
    "siteType": "wreck",
    "ref": "",
    "osmId": null
  },
  {
    "name": "Japanese Submarine I-1",
    "filename": "japanese-submarine-i-1.md",
    "lat": -9.382,
    "lng": 159.844,
    "difficulty": "Intermediate",
    "maxDepth": 30,
    "entryType": "boat",
    "siteType": "wreck",
    "ref": "",
    "osmId": null
  },
  {
    "name": "B-17 Flying Fortress",
    "filename": "b-17-flying-fortress.md",
    "lat": -9.395,
    "lng": 160.051,
    "difficulty": "Beginner",
    "maxDepth": 17,
    "entryType": "shore",
    "siteType": "wreck",
    "ref": "",
    "osmId": null
  },
  {
    "name": "USS John Penn",
    "filename": "uss-john-penn.md",
    "lat": -9.38,
    "lng": 160.03,
    "difficulty": "Advanced",
    "maxDepth": 56,
    "entryType": "boat",
    "siteType": "wreck",
    "ref": "",
    "osmId": null
  },
  {
    "name": "Tambea Caves",
    "filename": "tambea-caves.md",
    "lat": -9.38,
    "lng": 159.84,
    "difficulty": "Intermediate",
    "maxDepth": 15,
    "entryType": "boat",
    "siteType": "cave",
    "ref": "",
    "osmId": null
  },
  {
    "name": "Sea Lark Channel",
    "filename": "sea-lark-channel.md",
    "lat": -9.35,
    "lng": 160.1,
    "difficulty": "Intermediate",
    "maxDepth": 30,
    "entryType": "boat",
    "siteType": "drift",
    "ref": "",
    "osmId": null
  },
  {
    "name": "HMNZS Moa",
    "filename": "hmnzs-moa.md",
    "lat": -9.095028,
    "lng": 160.149222,
    "difficulty": "Advanced",
    "maxDepth": 40,
    "entryType": "boat",
    "siteType": "wreck",
    "ref": "",
    "osmId": null
  },
  {
    "name": "Kawanishi Mavis Flying Boat",
    "filename": "kawanishi-mavis-flying-boat.md",
    "lat": -9.108861,
    "lng": 160.186,
    "difficulty": "Advanced",
    "maxDepth": 30,
    "entryType": "boat",
    "siteType": "wreck",
    "ref": "",
    "osmId": null
  },
  {
    "name": "Twin Tunnels",
    "filename": "twin-tunnels.md",
    "lat": -9.147083,
    "lng": 160.142028,
    "difficulty": "Advanced",
    "maxDepth": 45,
    "entryType": "boat",
    "siteType": "cave",
    "ref": "",
    "osmId": null
  },
  {
    "name": "USS Aaron Ward",
    "filename": "uss-aaron-ward.md",
    "lat": -9.168417,
    "lng": 160.197028,
    "difficulty": "Advanced",
    "maxDepth": 70,
    "entryType": "boat",
    "siteType": "wreck",
    "ref": "",
    "osmId": null
  },
  {
    "name": "Hundred Thousand Dollar Point",
    "filename": "hundred-thousand-dollar-point.md",
    "lat": -9.08,
    "lng": 160.15,
    "difficulty": "Intermediate",
    "maxDepth": 35,
    "entryType": "shore",
    "siteType": "wreck",
    "ref": "",
    "osmId": null
  },
  {
    "name": "Grumman Hellcat",
    "filename": "grumman-hellcat.md",
    "lat": -8.07,
    "lng": 157.0,
    "difficulty": "Beginner",
    "maxDepth": 11,
    "entryType": "boat",
    "siteType": "wreck",
    "ref": "",
    "osmId": null
  },
  {
    "name": "Grand Central Station",
    "filename": "grand-central-station.md",
    "lat": -8.1,
    "lng": 156.82,
    "difficulty": "Intermediate",
    "maxDepth": 30,
    "entryType": "boat",
    "siteType": "reef",
    "ref": "",
    "osmId": null
  },
  {
    "name": "The Gap",
    "filename": "the-gap.md",
    "lat": -8.05,
    "lng": 156.8,
    "difficulty": "Intermediate",
    "maxDepth": 25,
    "entryType": "boat",
    "siteType": "reef",
    "ref": "",
    "osmId": null
  },
  {
    "name": "Top Secret Place",
    "filename": "top-secret-place.md",
    "lat": -8.09,
    "lng": 156.78,
    "difficulty": "Intermediate",
    "maxDepth": 30,
    "entryType": "boat",
    "siteType": "reef",
    "ref": "",
    "osmId": null
  },
  {
    "name": "MV Roylen Petaj",
    "filename": "mv-roylen-petaj.md",
    "lat": -8.1,
    "lng": 156.84,
    "difficulty": "Beginner",
    "maxDepth": 14,
    "entryType": "boat",
    "siteType": "wreck",
    "ref": "",
    "osmId": null
  },
  {
    "name": "Tokuyo Maru",
    "filename": "tokuyo-maru.md",
    "lat": -8.03,
    "lng": 156.95,
    "difficulty": "Advanced",
    "maxDepth": 38,
    "entryType": "boat",
    "siteType": "wreck",
    "ref": "",
    "osmId": null
  }
]