[
  {
    "name": "Palancar Reef",
    "filename": "palancar-reef.md",
    "lat": 20.296977,
    "lng": -87.031974,
    "difficulty": "Intermediate",
    "maxDepth": 30,
    "entryType": "boat",
    "siteType": "reef",
    "ref": "",
    "osmId": 663869323
  },
  {
    "name": "Punta Sur Reef",
    "filename": "punta-sur-reef.md",
    "lat": 20.2873171,
    "lng": -87.031631,
    "difficulty": "Advanced",
    "maxDepth": 35,
    "entryType": "boat",
    "siteType": "wall",
    "ref": "",
    "osmId": 663869325
  },
  {
    "name": "Paso El Cedral Reef",
    "filename": "paso-el-cedral-reef.md",
    "lat": 20.314525,
    "lng": -87.033863,
    "difficulty": "Beginner",
    "maxDepth": 18,
    "entryType": "boat",
    "siteType": "wall",
    "ref": "",
    "osmId": 663869330
  },
  {
    "name": "La Francesa",
    "filename": "la-francesa.md",
    "lat": 20.317584,
    "lng": -87.031631,
    "difficulty": "Intermediate",
    "maxDepth": 18,
    "entryType": "boat",
    "siteType": "reef",
    "ref": "",
    "osmId": 663869331
  },
  {
    "name": "Punta Dalila",
    "filename": "punta-dalila.md",
    "lat": 20.3079253,
    "lng": -87.032318,
    "difficulty": "Beginner",
    "maxDepth": 15,
    "entryType": "boat",
    "siteType": "reef",
    "ref": "",
    "osmId": 663869332
  },
  {
    "name": "Yucab Reef",
    "filename": "yucab-reef.md",
    "lat": 20.371342,
    "lng": -87.0457077,
    "difficulty": "Beginner",
    "maxDepth": 15,
    "entryType": "boat",
    "siteType": "reef",
    "ref": "",
    "osmId": 663869333
  },
  {
    "name": "Punta Tunich Wall",
    "filename": "punta-tunich-wall.md",
    "lat": 20.3555713,
    "lng": -87.046051,
    "difficulty": "Advanced",
    "maxDepth": 30,
    "entryType": "boat",
    "siteType": "wall",
    "ref": "",
    "osmId": 663869334
  },
  {
    "name": "Cardona",
    "filename": "cardona.md",
    "lat": 20.342695,
    "lng": -87.043991,
    "difficulty": "Beginner",
    "maxDepth": 18,
    "entryType": "boat",
    "siteType": "reef",
    "ref": "",
    "osmId": 663869335
  },
  {
    "name": "San Frandsco Reef",
    "filename": "san-frandsco-reef.md",
    "lat": 20.327564,
    "lng": -87.0426177,
    "difficulty": "Intermediate",
    "maxDepth": 25,
    "entryType": "boat",
    "siteType": "wall",
    "ref": "",
    "osmId": 663869337
  },
  {
    "name": "Las Palamas",
    "filename": "las-palamas.md",
    "lat": 20.384538,
    "lng": -87.0405578,
    "difficulty": "Intermediate",
    "maxDepth": 25,
    "entryType": "boat",
    "siteType": "reef",
    "ref": "",
    "osmId": 663869338
  },
  {
    "name": "Tormentos Reef",
    "filename": "tormentos-reef.md",
    "lat": 20.373273,
    "lng": -87.04193,
    "difficulty": "Intermediate",
    "maxDepth": 20,
    "entryType": "boat",
    "siteType": "reef",
    "ref": "",
    "osmId": 663869341
  },
  {
    "name": "Chankanaab Reef",
    "filename": "chankanaab-reef.md",
    "lat": 20.37745,
    "lng": -87.037124,
    "difficulty": "Beginner",
    "maxDepth": 12,
    "entryType": "shore",
    "siteType": "reef",
    "ref": "",
    "osmId": 663869344
  },
  {
    "name": "Maracaibo Reef",
    "filename": "maracaibo-reef.md",
    "lat": 20.262841,
    "lng": -87.011375,
    "difficulty": "Advanced",
    "maxDepth": 35,
    "entryType": "boat",
    "siteType": "wall",
    "ref": "",
    "osmId": 663869356
  },
  {
    "name": "El Islote",
    "filename": "el-islote.md",
    "lat": 20.2592984,
    "lng": -86.974983,
    "difficulty": "Intermediate",
    "maxDepth": 25,
    "entryType": "boat",
    "siteType": "reef",
    "ref": "",
    "osmId": 663869357
  },
  {
    "name": "Chun Chacaaab Reef",
    "filename": "chun-chacaaab-reef.md",
    "lat": 20.277334,
    "lng": -87.011375,
    "difficulty": "Intermediate",
    "maxDepth": 25,
    "entryType": "boat",
    "siteType": "reef",
    "ref": "",
    "osmId": 663869358
  },
  {
    "name": "Chen Rio",
    "filename": "chen-rio.md",
    "lat": 20.3467894,
    "lng": -86.8947828,
    "difficulty": "Intermediate",
    "maxDepth": 25,
    "entryType": "boat",
    "siteType": "reef",
    "ref": "",
    "osmId": 663869359
  },
  {
    "name": "El Mirador",
    "filename": "el-mirador.md",
    "lat": 20.3175844,
    "lng": -86.911125,
    "difficulty": "Intermediate",
    "maxDepth": 25,
    "entryType": "boat",
    "siteType": "reef",
    "ref": "",
    "osmId": 663869361
  },
  {
    "name": "San Juan Reef",
    "filename": "san-juan-reef.md",
    "lat": 20.5501874,
    "lng": -86.94992,
    "difficulty": "Intermediate",
    "maxDepth": 25,
    "entryType": "boat",
    "siteType": "reef",
    "ref": "",
    "osmId": 663869362
  },
  {
    "name": "Barracuda Reef",
    "filename": "barracuda-reef.md",
    "lat": 20.568028,
    "lng": -86.912326,
    "difficulty": "Advanced",
    "maxDepth": 30,
    "entryType": "boat",
    "siteType": "reef",
    "ref": "",
    "osmId": 663869363
  },
  {
    "name": "Paraiso Reef",
    "filename": "paraiso-reef.md",
    "lat": 20.4167169,
    "lng": -87.0309448,
    "difficulty": "Beginner",
    "maxDepth": 15,
    "entryType": "boat",
    "siteType": "reef",
    "ref": "",
    "osmId": 663869365
  },
  {
    "name": "Villa Blanca Wall",
    "filename": "villa-blanca-wall.md",
    "lat": 20.4955268,
    "lng": -86.979446,
    "difficulty": "Intermediate",
    "maxDepth": 30,
    "entryType": "boat",
    "siteType": "wall",
    "ref": "",
    "osmId": 663869366
  },
  {
    "name": "Cantarell Sand Reef",
    "filename": "cantarell-sand-reef.md",
    "lat": 20.534112,
    "lng": -86.949577,
    "difficulty": "Intermediate",
    "maxDepth": 25,
    "entryType": "boat",
    "siteType": "reef",
    "ref": "",
    "osmId": 663869367
  },
  {
    "name": "Wreck C-53",
    "filename": "wreck-c-53.md",
    "lat": 20.4467119,
    "lng": -86.9988993,
    "difficulty": "Intermediate",
    "maxDepth": 24,
    "entryType": "boat",
    "siteType": "wreck",
    "ref": "",
    "osmId": 663869368
  }
]