[
  {
    "name": "Shark Sculpture",
    "filename": "shark-sculpture.md",
    "lat": 36.1908981,
    "lng": 29.6091391,
    "difficulty": "Intermediate",
    "maxDepth": 25,
    "entryType": "shore",
    "siteType": "reef",
    "ref": "",
    "osmId": 27147064
  },
  {
    "name": "Καλλιθέα",
    "filename": "καλλιθέα.md",
    "lat": 36.3776033,
    "lng": 28.2372284,
    "difficulty": "Intermediate",
    "maxDepth": 25,
    "entryType": "shore",
    "siteType": "reef",
    "ref": "",
    "osmId": 793101120
  },
  {
    "name": "Waterhoppers",
    "filename": "waterhoppers.md",
    "lat": 36.4477122,
    "lng": 28.2263974,
    "difficulty": "Intermediate",
    "maxDepth": 25,
    "entryType": "shore",
    "siteType": "reef",
    "ref": "",
    "osmId": 793101328
  },
  {
    "name": "Kerveli scouba diving",
    "filename": "kerveli-scouba-diving.md",
    "lat": 37.7325497,
    "lng": 27.0360789,
    "difficulty": "Intermediate",
    "maxDepth": 25,
    "entryType": "shore",
    "siteType": "reef",
    "ref": "",
    "osmId": 2547460303
  },
  {
    "name": "Uçak Batığı",
    "filename": "uçak-batığı.md",
    "lat": 36.9870592,
    "lng": 27.4325639,
    "difficulty": "Intermediate",
    "maxDepth": 25,
    "entryType": "shore",
    "siteType": "reef",
    "ref": "",
    "osmId": 10973665012
  },
  {
    "name": "Büyük Resif",
    "filename": "büyük-resif.md",
    "lat": 37.0056664,
    "lng": 27.4129862,
    "difficulty": "Intermediate",
    "maxDepth": 25,
    "entryType": "shore",
    "siteType": "reef",
    "ref": "",
    "osmId": 10973665013
  },
  {
    "name": "Aksona",
    "filename": "aksona.md",
    "lat": 36.9599139,
    "lng": 27.4864435,
    "difficulty": "Intermediate",
    "maxDepth": 25,
    "entryType": "shore",
    "siteType": "reef",
    "ref": "",
    "osmId": 10973665014
  },
  {
    "name": "Σπήλαιο Αρχαγγέλου",
    "filename": "σπήλαιο-αρχαγγέλου.md",
    "lat": 36.2025045,
    "lng": 28.1425738,
    "difficulty": "Intermediate",
    "maxDepth": 25,
    "entryType": "shore",
    "siteType": "cave",
    "ref": "",
    "osmId": 11212100525
  },
  {
    "name": "Psarapoula",
    "filename": "psarapoula.md",
    "lat": 36.453164,
    "lng": 28.2169361,
    "difficulty": "Intermediate",
    "maxDepth": 25,
    "entryType": "shore",
    "siteType": "reef",
    "ref": "",
    "osmId": 11842033099
  }
]