[
  {
    "name": "Bajo Alcyone",
    "filename": "bajo-alcyone.md",
    "lat": 5.509,
    "lng": -87.023,
    "difficulty": "Advanced",
    "maxDepth": 40,
    "entryType": "liveaboard",
    "siteType": "pinnacle",
    "ref": "",
    "osmId": null
  },
  {
    "name": "Dirty Rock",
    "filename": "dirty-rock.md",
    "lat": 5.545,
    "lng": -87.0852,
    "difficulty": "Advanced",
    "maxDepth": 35,
    "entryType": "liveaboard",
    "siteType": "pinnacle",
    "ref": "",
    "osmId": null
  },
  {
    "name": "Manuelita Outside",
    "filename": "manuelita-outside.md",
    "lat": 5.5628,
    "lng": -87.0483,
    "difficulty": "Advanced",
    "maxDepth": 35,
    "entryType": "liveaboard",
    "siteType": "wall",
    "ref": "",
    "osmId": null
  },
  {
    "name": "Manuelita Inside",
    "filename": "manuelita-inside.md",
    "lat": 5.5611,
    "lng": -87.0469,
    "difficulty": "Advanced",
    "maxDepth": 22,
    "entryType": "liveaboard",
    "siteType": "reef",
    "ref": "",
    "osmId": null
  },
  {
    "name": "Punta Maria",
    "filename": "punta-maria.md",
    "lat": 5.5311,
    "lng": -87.0912,
    "difficulty": "Advanced",
    "maxDepth": 37,
    "entryType": "liveaboard",
    "siteType": "pinnacle",
    "ref": "",
    "osmId": null
  },
  {
    "name": "Silverado",
    "filename": "silverado.md",
    "lat": 5.5452,
    "lng": -87.0308,
    "difficulty": "Advanced",
    "maxDepth": 13,
    "entryType": "liveaboard",
    "siteType": "pinnacle",
    "ref": "",
    "osmId": null
  },
  {
    "name": "Viking Rock",
    "filename": "viking-rock.md",
    "lat": 5.5501,
    "lng": -87.0647,
    "difficulty": "Advanced",
    "maxDepth": 40,
    "entryType": "liveaboard",
    "siteType": "wall",
    "ref": "",
    "osmId": null
  },
  {
    "name": "Lobster Rock",
    "filename": "lobster-rock.md",
    "lat": 5.5501,
    "lng": -87.032,
    "difficulty": "Advanced",
    "maxDepth": 37,
    "entryType": "liveaboard",
    "siteType": "wall",
    "ref": "",
    "osmId": null
  }
]
