[
  {
    "name": "Tiger Rock",
    "filename": "tiger-rock.md",
    "lat": 9.28,
    "lng": -82.18,
    "difficulty": "Intermediate",
    "maxDepth": 25,
    "entryType": "boat",
    "siteType": "reef",
    "ref": "",
    "osmId": null
  },
  {
    "name": "Hospital Point",
    "filename": "hospital-point.md",
    "lat": 9.34,
    "lng": -82.24,
    "difficulty": "Beginner",
    "maxDepth": 15,
    "entryType": "boat",
    "siteType": "reef",
    "ref": "",
    "osmId": null
  },
  {
    "name": "The Playground",
    "filename": "the-playground.md",
    "lat": 9.31,
    "lng": -82.2,
    "difficulty": "Beginner",
    "maxDepth": 18,
    "entryType": "boat",
    "siteType": "reef",
    "ref": "",
    "osmId": null
  },
  {
    "name": "Crawl Cay",
    "filename": "crawl-cay.md",
    "lat": 9.27,
    "lng": -82.15,
    "difficulty": "Beginner",
    "maxDepth": 12,
    "entryType": "boat",
    "siteType": "reef",
    "ref": "",
    "osmId": null
  },
  {
    "name": "Polo Beach Wall",
    "filename": "polo-beach-wall.md",
    "lat": 9.35,
    "lng": -82.26,
    "difficulty": "Advanced",
    "maxDepth": 30,
    "entryType": "boat",
    "siteType": "wall",
    "ref": "",
    "osmId": null
  },
  {
    "name": "Dark Wood Reef",
    "filename": "dark-wood-reef.md",
    "lat": 9.3,
    "lng": -82.19,
    "difficulty": "Intermediate",
    "maxDepth": 20,
    "entryType": "boat",
    "siteType": "reef",
    "ref": "",
    "osmId": null
  },
  {
    "name": "Cayo Coral",
    "filename": "cayo-coral.md",
    "lat": 9.25,
    "lng": -82.13,
    "difficulty": "Beginner",
    "maxDepth": 8,
    "entryType": "shore",
    "siteType": "reef",
    "ref": "",
    "osmId": null
  },
  {
    "name": "Wreck Rock",
    "filename": "wreck-rock.md",
    "lat": 9.32,
    "lng": -82.22,
    "difficulty": "Intermediate",
    "maxDepth": 22,
    "entryType": "boat",
    "siteType": "wreck",
    "ref": "",
    "osmId": null
  },
  {
    "name": "Punta Juan",
    "filename": "punta-juan.md",
    "lat": 9.29,
    "lng": -82.17,
    "difficulty": "Beginner",
    "maxDepth": 16,
    "entryType": "boat",
    "siteType": "reef",
    "ref": "",
    "osmId": null
  },
  {
    "name": "Zapatillas Reef",
    "filename": "zapatillas-reef.md",
    "lat": 9.26,
    "lng": -82.08,
    "difficulty": "Beginner",
    "maxDepth": 14,
    "entryType": "boat",
    "siteType": "reef",
    "ref": "",
    "osmId": null
  },
  {
    "name": "Dolphins Bay",
    "filename": "dolphins-bay.md",
    "lat": 9.33,
    "lng": -82.23,
    "difficulty": "Beginner",
    "maxDepth": 10,
    "entryType": "boat",
    "siteType": "reef",
    "ref": "",
    "osmId": null
  },
  {
    "name": "Long Cay Wall",
    "filename": "long-cay-wall.md",
    "lat": 9.245,
    "lng": -82.12,
    "difficulty": "Advanced",
    "maxDepth": 28,
    "entryType": "boat",
    "siteType": "wall",
    "ref": "",
    "osmId": null
  }
]