[
  {
    "name": "Tiger Rock",
    "filename": "tiger-rock.md",
    "lat": 9.2167,
    "lng": -81.9333,
    "difficulty": "Advanced",
    "maxDepth": 42,
    "entryType": "boat",
    "siteType": "pinnacle",
    "ref": "",
    "osmId": null
  },
  {
    "name": "Hospital Point",
    "filename": "hospital-point.md",
    "lat": 9.3348,
    "lng": -82.2198,
    "difficulty": "Beginner",
    "maxDepth": 16,
    "entryType": "boat",
    "siteType": "wall",
    "ref": "",
    "osmId": null
  },
  {
    "name": "The Playground",
    "filename": "the-playground.md",
    "lat": 9.342,
    "lng": -82.23,
    "difficulty": "Beginner",
    "maxDepth": 22,
    "entryType": "boat",
    "siteType": "reef",
    "ref": "",
    "osmId": null
  },
  {
    "name": "Crawl Cay",
    "filename": "crawl-cay.md",
    "lat": 9.244,
    "lng": -82.144,
    "difficulty": "Intermediate",
    "maxDepth": 18,
    "entryType": "boat",
    "siteType": "reef",
    "ref": "",
    "osmId": null
  },
  {
    "name": "Polo Beach Wall",
    "filename": "polo-beach-wall.md",
    "lat": 9.292,
    "lng": -82.158,
    "difficulty": "Intermediate",
    "maxDepth": 12,
    "entryType": "boat",
    "siteType": "cave",
    "ref": "",
    "osmId": null
  },
  {
    "name": "Dark Wood Reef",
    "filename": "dark-wood-reef.md",
    "lat": 9.315,
    "lng": -82.2,
    "difficulty": "Intermediate",
    "maxDepth": 20,
    "entryType": "boat",
    "siteType": "reef",
    "ref": "",
    "osmId": null
  },
  {
    "name": "Cayo Coral",
    "filename": "cayo-coral.md",
    "lat": 9.2444,
    "lng": -82.1439,
    "difficulty": "Beginner",
    "maxDepth": 8,
    "entryType": "shore",
    "siteType": "reef",
    "ref": "",
    "osmId": null
  },
  {
    "name": "Wreck Rock",
    "filename": "wreck-rock.md",
    "lat": 9.322,
    "lng": -82.25,
    "difficulty": "Intermediate",
    "maxDepth": 22,
    "entryType": "boat",
    "siteType": "wreck",
    "ref": "",
    "osmId": null
  },
  {
    "name": "Punta Juan",
    "filename": "punta-juan.md",
    "lat": 9.3333,
    "lng": -82.2,
    "difficulty": "Beginner",
    "maxDepth": 16,
    "entryType": "boat",
    "siteType": "reef",
    "ref": "",
    "osmId": null
  },
  {
    "name": "Zapatillas Reef",
    "filename": "zapatillas-reef.md",
    "lat": 9.265,
    "lng": -82.055,
    "difficulty": "Beginner",
    "maxDepth": 14,
    "entryType": "boat",
    "siteType": "reef",
    "ref": "",
    "osmId": null
  },
  {
    "name": "Dolphins Bay",
    "filename": "dolphins-bay.md",
    "lat": 9.24,
    "lng": -82.255,
    "difficulty": "Beginner",
    "maxDepth": 10,
    "entryType": "boat",
    "siteType": "reef",
    "ref": "",
    "osmId": null
  },
  {
    "name": "Long Cay Wall",
    "filename": "long-cay-wall.md",
    "lat": 9.268,
    "lng": -82.165,
    "difficulty": "Advanced",
    "maxDepth": 28,
    "entryType": "boat",
    "siteType": "wall",
    "ref": "",
    "osmId": null
  },
  {
    "name": "Barco Hundido",
    "filename": "barco-hundido.md",
    "lat": 9.3308072,
    "lng": -82.2224984,
    "difficulty": "Beginner",
    "maxDepth": 12,
    "entryType": "boat",
    "siteType": "wreck",
    "ref": "",
    "osmId": 12639496075
  }
]
