[
  {
    "name": "Twin Peaks",
    "filename": "twin-peaks.md",
    "lat": 9.0562852,
    "lng": 97.8150386,
    "difficulty": "Advanced",
    "maxDepth": 35,
    "entryType": "liveaboard",
    "siteType": "pinnacle",
    "ref": "",
    "osmId": 270980741
  },
  {
    "name": "Boonsung Wreck",
    "filename": "boonsung-wreck.md",
    "lat": 8.7707571,
    "lng": 98.1863863,
    "difficulty": "Beginner",
    "maxDepth": 20,
    "entryType": "day trip",
    "siteType": "wreck",
    "ref": "",
    "osmId": 6146706985
  },
  {
    "name": "The Dome",
    "filename": "the-dome.md",
    "lat": 9.0563523,
    "lng": 97.8122901,
    "difficulty": "Advanced",
    "maxDepth": 30,
    "entryType": "liveaboard",
    "siteType": "pinnacle",
    "ref": "",
    "osmId": 6164080185
  },
  {
    "name": "Elephant Head Rock",
    "filename": "elephant-head-rock.md",
    "lat": 8.6217,
    "lng": 97.6413,
    "difficulty": "Advanced",
    "maxDepth": 40,
    "entryType": "liveaboard",
    "siteType": "pinnacle",
    "ref": "",
    "osmId": null
  },
  {
    "name": "Christmas Point",
    "filename": "christmas-point.md",
    "lat": 8.6808,
    "lng": 97.6372,
    "difficulty": "Advanced",
    "maxDepth": 40,
    "entryType": "liveaboard",
    "siteType": "boulder",
    "ref": "",
    "osmId": null
  },
  {
    "name": "East of Eden",
    "filename": "east-of-eden.md",
    "lat": 8.5931,
    "lng": 97.6406,
    "difficulty": "Intermediate",
    "maxDepth": 40,
    "entryType": "liveaboard",
    "siteType": "reef",
    "ref": "",
    "osmId": null
  },
  {
    "name": "Anita's Reef",
    "filename": "anitas-reef.md",
    "lat": 8.5717,
    "lng": 97.6472,
    "difficulty": "Intermediate",
    "maxDepth": 28,
    "entryType": "liveaboard",
    "siteType": "reef",
    "ref": "",
    "osmId": null
  },
  {
    "name": "Deep Six",
    "filename": "deep-six.md",
    "lat": 8.6,
    "lng": 97.6347,
    "difficulty": "Advanced",
    "maxDepth": 40,
    "entryType": "liveaboard",
    "siteType": "boulder",
    "ref": "",
    "osmId": null
  },
  {
    "name": "West of Six",
    "filename": "west-of-six.md",
    "lat": 8.5911,
    "lng": 97.635,
    "difficulty": "Intermediate",
    "maxDepth": 30,
    "entryType": "liveaboard",
    "siteType": "reef",
    "ref": "",
    "osmId": null
  },
  {
    "name": "Koh Bon Pinnacle",
    "filename": "koh-bon-pinnacle.md",
    "lat": 8.8336,
    "lng": 97.7975,
    "difficulty": "Advanced",
    "maxDepth": 50,
    "entryType": "liveaboard",
    "siteType": "pinnacle",
    "ref": "",
    "osmId": null
  },
  {
    "name": "Koh Tachai Pinnacle",
    "filename": "koh-tachai-pinnacle.md",
    "lat": 9.0576,
    "lng": 97.8134,
    "difficulty": "Advanced",
    "maxDepth": 45,
    "entryType": "liveaboard",
    "siteType": "pinnacle",
    "ref": "",
    "osmId": null
  },
  {
    "name": "Beacon Reef",
    "filename": "beacon-reef.md",
    "lat": 8.6305,
    "lng": 97.6532,
    "difficulty": "Beginner",
    "maxDepth": 30,
    "entryType": "liveaboard",
    "siteType": "reef",
    "ref": "",
    "osmId": null
  },
  {
    "name": "Turtle Rock",
    "filename": "turtle-rock.md",
    "lat": 8.6636,
    "lng": 97.6377,
    "difficulty": "Beginner",
    "maxDepth": 25,
    "entryType": "liveaboard",
    "siteType": "boulder",
    "ref": "",
    "osmId": null
  },
  {
    "name": "Fantasea Reef",
    "filename": "fantasea-reef.md",
    "lat": 8.656,
    "lng": 97.6365,
    "difficulty": "Intermediate",
    "maxDepth": 40,
    "entryType": "liveaboard",
    "siteType": "boulder",
    "ref": "",
    "osmId": null
  }
]
