[
  {
    "name": "Twin Peaks",
    "filename": "twin-peaks.md",
    "lat": 9.0562852,
    "lng": 97.8150386,
    "difficulty": "Intermediate",
    "maxDepth": 20,
    "entryType": "boat",
    "siteType": "reef",
    "ref": "",
    "osmId": 270980741
  },
  {
    "name": "Boonsung Wreck",
    "filename": "boonsung-wreck.md",
    "lat": 8.7707571,
    "lng": 98.1863863,
    "difficulty": "Intermediate",
    "maxDepth": 20,
    "entryType": "boat",
    "siteType": "wreck",
    "ref": "",
    "osmId": 6146706985
  },
  {
    "name": "The Dome",
    "filename": "the-dome.md",
    "lat": 9.0563523,
    "lng": 97.8122901,
    "difficulty": "Intermediate",
    "maxDepth": 20,
    "entryType": "boat",
    "siteType": "reef",
    "ref": "",
    "osmId": 6164080185
  },
  {
    "name": "Elephant Head Rock",
    "filename": "elephant-head-rock.md",
    "lat": 8.57,
    "lng": 97.64,
    "difficulty": "Advanced",
    "maxDepth": 30,
    "entryType": "boat",
    "siteType": "reef",
    "ref": "",
    "osmId": null
  },
  {
    "name": "Christmas Point",
    "filename": "christmas-point.md",
    "lat": 8.68,
    "lng": 97.62,
    "difficulty": "Intermediate",
    "maxDepth": 25,
    "entryType": "boat",
    "siteType": "reef",
    "ref": "",
    "osmId": null
  },
  {
    "name": "East of Eden",
    "filename": "east-of-eden.md",
    "lat": 8.59,
    "lng": 97.66,
    "difficulty": "Intermediate",
    "maxDepth": 20,
    "entryType": "boat",
    "siteType": "reef",
    "ref": "",
    "osmId": null
  },
  {
    "name": "Anita's Reef",
    "filename": "anitas-reef.md",
    "lat": 8.56,
    "lng": 97.635,
    "difficulty": "Intermediate",
    "maxDepth": 22,
    "entryType": "boat",
    "siteType": "reef",
    "ref": "",
    "osmId": null
  },
  {
    "name": "Deep Six",
    "filename": "deep-six.md",
    "lat": 8.65,
    "lng": 97.615,
    "difficulty": "Advanced",
    "maxDepth": 28,
    "entryType": "boat",
    "siteType": "wall",
    "ref": "",
    "osmId": null
  },
  {
    "name": "West of Six",
    "filename": "west-of-six.md",
    "lat": 8.64,
    "lng": 97.61,
    "difficulty": "Intermediate",
    "maxDepth": 18,
    "entryType": "boat",
    "siteType": "reef",
    "ref": "",
    "osmId": null
  },
  {
    "name": "Koh Bon Pinnacle",
    "filename": "koh-bon-pinnacle.md",
    "lat": 8.96,
    "lng": 97.78,
    "difficulty": "Advanced",
    "maxDepth": 30,
    "entryType": "boat",
    "siteType": "wall",
    "ref": "",
    "osmId": null
  },
  {
    "name": "Koh Tachai Pinnacle",
    "filename": "koh-tachai-pinnacle.md",
    "lat": 9.13,
    "lng": 97.83,
    "difficulty": "Advanced",
    "maxDepth": 28,
    "entryType": "boat",
    "siteType": "wall",
    "ref": "",
    "osmId": null
  },
  {
    "name": "Beacon Reef",
    "filename": "beacon-reef.md",
    "lat": 8.62,
    "lng": 97.655,
    "difficulty": "Beginner",
    "maxDepth": 15,
    "entryType": "boat",
    "siteType": "reef",
    "ref": "",
    "osmId": null
  },
  {
    "name": "Turtle Rock",
    "filename": "turtle-rock.md",
    "lat": 8.63,
    "lng": 97.65,
    "difficulty": "Beginner",
    "maxDepth": 16,
    "entryType": "boat",
    "siteType": "reef",
    "ref": "",
    "osmId": null
  },
  {
    "name": "Fantasea Reef",
    "filename": "fantasea-reef.md",
    "lat": 8.6,
    "lng": 97.645,
    "difficulty": "Intermediate",
    "maxDepth": 20,
    "entryType": "boat",
    "siteType": "reef",
    "ref": "",
    "osmId": null
  }
]
