[
  {
    "name": "Kleine Knip",
    "lat": 12.341558,
    "lng": -69.1538671,
    "difficulty": "Beginner",
    "maxDepth": 18,
    "entryType": "Shore",
    "siteType": "Reef",
    "ref": null,
    "osmId": null,
    "addedBy": "jbunderwater_ai_cursor",
    "filename": "kleine-knip.md"
  },
  {
    "name": "Grote Knip",
    "lat": 12.3514337,
    "lng": -69.153211,
    "difficulty": "Beginner",
    "maxDepth": 20,
    "entryType": "Shore",
    "siteType": "Reef",
    "ref": null,
    "osmId": null,
    "addedBy": "jbunderwater_ai_cursor",
    "filename": "grote-knip.md"
  },
  {
    "name": "The Valley",
    "lat": 12.2185168,
    "lng": -69.0862994,
    "difficulty": "Intermediate",
    "maxDepth": 30,
    "entryType": "Boat",
    "siteType": "Reef",
    "ref": null,
    "osmId": null,
    "addedBy": "jbunderwater_ai_cursor",
    "filename": "the-valley.md"
  },
  {
    "name": "Marie Pampoen",
    "lat": 12.0897355,
    "lng": -68.9068508,
    "difficulty": "Intermediate",
    "maxDepth": 25,
    "entryType": "Boat",
    "siteType": "Reef",
    "ref": null,
    "osmId": null,
    "addedBy": "jbunderwater_ai_cursor",
    "filename": "marie-pampoen.md"
  },
  {
    "name": "Mushroom Forest",
    "lat": 12.3018115,
    "lng": -69.1543365,
    "difficulty": "Intermediate",
    "maxDepth": 25,
    "entryType": "Boat",
    "siteType": "Reef",
    "ref": null,
    "osmId": null,
    "addedBy": "jbunderwater_ai_cursor",
    "filename": "mushroom-forest.md"
  },
  {
    "name": "Playa Jeremi",
    "lat": 12.3284212,
    "lng": -69.1505496,
    "difficulty": "Beginner",
    "maxDepth": 18,
    "entryType": "Shore",
    "siteType": "Reef",
    "ref": null,
    "osmId": null,
    "addedBy": "jbunderwater_ai_cursor",
    "filename": "playa-jeremi.md"
  },
  {
    "name": "Playa Kalki",
    "lat": 12.3739947,
    "lng": -69.1585735,
    "difficulty": "Beginner",
    "maxDepth": 20,
    "entryType": "Shore",
    "siteType": "Reef",
    "ref": null,
    "osmId": null,
    "addedBy": "jbunderwater_ai_cursor",
    "filename": "playa-kalki.md"
  },
  {
    "name": "Snake Bay",
    "lat": 12.1384966,
    "lng": -68.99653,
    "difficulty": "Intermediate",
    "maxDepth": 25,
    "entryType": "Boat",
    "siteType": "Reef",
    "ref": null,
    "osmId": null,
    "addedBy": "jbunderwater_ai_cursor",
    "filename": "snake-bay.md"
  },
  {
    "name": "Boka Sami",
    "lat": 12.1394983,
    "lng": -68.9972716,
    "difficulty": "Intermediate",
    "maxDepth": 28,
    "entryType": "Boat",
    "siteType": "Reef",
    "ref": null,
    "osmId": null,
    "addedBy": "jbunderwater_ai_cursor",
    "filename": "boka-sami.md"
  },
  {
    "name": "Airplane Wreck (Sunset Waters)",
    "lat": 12.266944,
    "lng": -69.1276576,
    "difficulty": "Intermediate",
    "maxDepth": 22,
    "entryType": "Boat",
    "siteType": "Wreck",
    "ref": null,
    "osmId": null,
    "addedBy": "jbunderwater_ai_cursor",
    "filename": "airplane-wreck-sunset-waters.md"
  },
  {
    "name": "Playa Manzalina",
    "lat": 12.2454216,
    "lng": -69.1055983,
    "difficulty": "Beginner",
    "maxDepth": 18,
    "entryType": "Shore",
    "siteType": "Reef",
    "ref": null,
    "osmId": null,
    "addedBy": "jbunderwater_ai_cursor",
    "filename": "playa-manzalina.md"
  },
  {
    "name": "Rif Sint Marie",
    "lat": 12.1985784,
    "lng": -69.079446,
    "difficulty": "Intermediate",
    "maxDepth": 30,
    "entryType": "Boat",
    "siteType": "Reef",
    "ref": null,
    "osmId": null,
    "addedBy": "jbunderwater_ai_cursor",
    "filename": "rif-sint-marie.md"
  },
  {
    "name": "Daaibooi Baai",
    "lat": 12.2119209,
    "lng": -69.0855754,
    "difficulty": "Intermediate",
    "maxDepth": 25,
    "entryType": "Boat",
    "siteType": "Reef",
    "ref": null,
    "osmId": null,
    "addedBy": "jbunderwater_ai_cursor",
    "filename": "daaibooi-baai.md"
  },
  {
    "name": "Playa Lagun",
    "lat": 12.3181345,
    "lng": -69.1508771,
    "difficulty": "Beginner",
    "maxDepth": 20,
    "entryType": "Shore",
    "siteType": "Reef",
    "ref": null,
    "osmId": null,
    "addedBy": "jbunderwater_ai_cursor",
    "filename": "playa-lagun.md"
  },
  {
    "name": "Playa Largu",
    "lat": 12.2353033,
    "lng": -69.098515,
    "difficulty": "Beginner",
    "maxDepth": 18,
    "entryType": "Shore",
    "siteType": "Reef",
    "ref": null,
    "osmId": null,
    "addedBy": "jbunderwater_ai_cursor",
    "filename": "playa-largu.md"
  },
  {
    "name": "Oswaldo's Drop Off",
    "lat": 12.0881176,
    "lng": -68.9016845,
    "difficulty": "Advanced",
    "maxDepth": 40,
    "entryType": "Boat",
    "siteType": "Wall",
    "ref": null,
    "osmId": null,
    "addedBy": "jbunderwater_ai_cursor",
    "filename": "oswaldos-drop-off.md"
  },
  {
    "name": "Ship Wreck Tugboat",
    "lat": 12.0679476,
    "lng": -68.8619504,
    "difficulty": "Intermediate",
    "maxDepth": 30,
    "entryType": "Boat",
    "siteType": "Wreck",
    "ref": null,
    "osmId": null,
    "addedBy": "jbunderwater_ai_cursor",
    "filename": "ship-wreck-tugboat.md"
  }
]
