[
  {
    "name": "MV River Taw Wreck",
    "filename": "mv-river-taw-wreck.md",
    "lat": 17.281,
    "lng": -62.6974,
    "difficulty": "Beginner",
    "maxDepth": 12,
    "entryType": "boat",
    "siteType": "wreck",
    "ref": "",
    "osmId": null
  },
  {
    "name": "Monkey Shoals",
    "filename": "monkey-shoals.md",
    "lat": 17.24,
    "lng": -62.69,
    "difficulty": "Intermediate",
    "maxDepth": 34,
    "entryType": "boat",
    "siteType": "reef",
    "ref": "",
    "osmId": null
  },
  {
    "name": "Brassball Wreck",
    "filename": "brassball-wreck.md",
    "lat": 17.265,
    "lng": -62.685,
    "difficulty": "Beginner",
    "maxDepth": 8,
    "entryType": "boat",
    "siteType": "wreck",
    "ref": "",
    "osmId": null
  },
  {
    "name": "Coral Garden",
    "filename": "coral-garden.md",
    "lat": 17.14,
    "lng": -62.65,
    "difficulty": "Beginner",
    "maxDepth": 21,
    "entryType": "boat",
    "siteType": "reef",
    "ref": "",
    "osmId": null
  },
  {
    "name": "Grid Iron",
    "filename": "grid-iron.md",
    "lat": 17.27,
    "lng": -62.635,
    "difficulty": "Intermediate",
    "maxDepth": 24,
    "entryType": "boat",
    "siteType": "reef",
    "ref": "",
    "osmId": null
  },
  {
    "name": "Sandy Point Reef",
    "filename": "sandy-point-reef.md",
    "lat": 17.35,
    "lng": -62.855,
    "difficulty": "Intermediate",
    "maxDepth": 40,
    "entryType": "boat",
    "siteType": "reef",
    "ref": "",
    "osmId": null
  },
  {
    "name": "Nag's Head",
    "filename": "nags-head.md",
    "lat": 17.22,
    "lng": -62.66,
    "difficulty": "Intermediate",
    "maxDepth": 24,
    "entryType": "boat",
    "siteType": "wall",
    "ref": "",
    "osmId": null
  },
  {
    "name": "Coconut Tree Reef",
    "filename": "coconut-tree-reef.md",
    "lat": 17.29,
    "lng": -62.715,
    "difficulty": "Beginner",
    "maxDepth": 34,
    "entryType": "boat",
    "siteType": "reef",
    "ref": "",
    "osmId": null
  },
  {
    "name": "Devil's Caves",
    "filename": "devils-caves.md",
    "lat": 17.105,
    "lng": -62.595,
    "difficulty": "Intermediate",
    "maxDepth": 12,
    "entryType": "boat",
    "siteType": "cave",
    "ref": "",
    "osmId": null
  },
  {
    "name": "Booby Shoals",
    "filename": "booby-shoals.md",
    "lat": 17.23,
    "lng": -62.615,
    "difficulty": "Beginner",
    "maxDepth": 12,
    "entryType": "boat",
    "siteType": "reef",
    "ref": "",
    "osmId": null
  }
]
