[
  {
    "name": "Stavronikita Wreck",
    "filename": "stavronikita-wreck.md",
    "lat": 13.095,
    "lng": -59.62,
    "difficulty": "Advanced",
    "maxDepth": 40,
    "entryType": "boat",
    "siteType": "wreck",
    "ref": "",
    "osmId": null
  },
  {
    "name": "Carlisle Bay - Berwyn",
    "filename": "carlisle-bay-berwyn.md",
    "lat": 13.085,
    "lng": -59.625,
    "difficulty": "Beginner",
    "maxDepth": 8,
    "entryType": "shore",
    "siteType": "wreck",
    "ref": "",
    "osmId": null
  },
  {
    "name": "Carlisle Bay - Ce-Trek",
    "filename": "carlisle-bay-ce-trek.md",
    "lat": 13.088,
    "lng": -59.622,
    "difficulty": "Beginner",
    "maxDepth": 12,
    "entryType": "shore",
    "siteType": "wreck",
    "ref": "",
    "osmId": null
  },
  {
    "name": "Carlisle Bay - Eilon",
    "filename": "carlisle-bay-eilon.md",
    "lat": 13.09,
    "lng": -59.618,
    "difficulty": "Beginner",
    "maxDepth": 10,
    "entryType": "shore",
    "siteType": "wreck",
    "ref": "",
    "osmId": null
  },
  {
    "name": "Pamir Wreck",
    "filename": "pamir-wreck.md",
    "lat": 13.1,
    "lng": -59.615,
    "difficulty": "Intermediate",
    "maxDepth": 14,
    "entryType": "boat",
    "siteType": "wreck",
    "ref": "",
    "osmId": null
  },
  {
    "name": "Friars Craig Wreck",
    "filename": "friars-craig-wreck.md",
    "lat": 13.082,
    "lng": -59.628,
    "difficulty": "Intermediate",
    "maxDepth": 18,
    "entryType": "boat",
    "siteType": "wreck",
    "ref": "",
    "osmId": null
  },
  {
    "name": "Bright Ledge",
    "filename": "bright-ledge.md",
    "lat": 13.16,
    "lng": -59.6,
    "difficulty": "Intermediate",
    "maxDepth": 20,
    "entryType": "boat",
    "siteType": "reef",
    "ref": "",
    "osmId": null
  },
  {
    "name": "Dottin's Reef",
    "filename": "dottins-reef.md",
    "lat": 13.17,
    "lng": -59.59,
    "difficulty": "Beginner",
    "maxDepth": 15,
    "entryType": "boat",
    "siteType": "reef",
    "ref": "",
    "osmId": null
  },
  {
    "name": "Folkestone Marine Park",
    "filename": "folkestone-marine-park.md",
    "lat": 13.19,
    "lng": -59.64,
    "difficulty": "Beginner",
    "maxDepth": 10,
    "entryType": "shore",
    "siteType": "reef",
    "ref": "",
    "osmId": null
  },
  {
    "name": "Bell Buoy Reef",
    "filename": "bell-buoy-reef.md",
    "lat": 13.11,
    "lng": -59.61,
    "difficulty": "Intermediate",
    "maxDepth": 22,
    "entryType": "boat",
    "siteType": "reef",
    "ref": "",
    "osmId": null
  },
  {
    "name": "Shark Bank Barbados",
    "filename": "shark-bank-barbados.md",
    "lat": 13.15,
    "lng": -59.605,
    "difficulty": "Advanced",
    "maxDepth": 30,
    "entryType": "boat",
    "siteType": "reef",
    "ref": "",
    "osmId": null
  },
  {
    "name": "Coconut Court Reef",
    "filename": "coconut-court-reef.md",
    "lat": 13.07,
    "lng": -59.58,
    "difficulty": "Beginner",
    "maxDepth": 12,
    "entryType": "shore",
    "siteType": "reef",
    "ref": "",
    "osmId": null
  }
]