[
  {
    "name": "Stavronikita Wreck",
    "filename": "stavronikita-wreck.md",
    "lat": 13.095,
    "lng": -59.62,
    "difficulty": "Advanced",
    "maxDepth": 40,
    "entryType": "boat",
    "siteType": "wreck",
    "ref": "",
    "osmId": null
  },
  {
    "name": "Carlisle Bay - Berwyn",
    "filename": "carlisle-bay-berwyn.md",
    "lat": 13.085,
    "lng": -59.625,
    "difficulty": "Beginner",
    "maxDepth": 8,
    "entryType": "shore",
    "siteType": "wreck",
    "ref": "",
    "osmId": null
  },
  {
    "name": "Carlisle Bay - Ce-Trek",
    "filename": "carlisle-bay-ce-trek.md",
    "lat": 13.088,
    "lng": -59.622,
    "difficulty": "Beginner",
    "maxDepth": 12,
    "entryType": "shore",
    "siteType": "wreck",
    "ref": "",
    "osmId": null
  },
  {
    "name": "Carlisle Bay - Eilon",
    "filename": "carlisle-bay-eilon.md",
    "lat": 13.09,
    "lng": -59.618,
    "difficulty": "Beginner",
    "maxDepth": 10,
    "entryType": "shore",
    "siteType": "wreck",
    "ref": "",
    "osmId": null
  },
  {
    "name": "Pamir Wreck",
    "filename": "pamir-wreck.md",
    "lat": 13.1,
    "lng": -59.615,
    "difficulty": "Intermediate",
    "maxDepth": 14,
    "entryType": "boat",
    "siteType": "wreck",
    "ref": "",
    "osmId": null
  },
  {
    "name": "Friars Craig Wreck",
    "filename": "friars-craig-wreck.md",
    "lat": 13.082,
    "lng": -59.628,
    "difficulty": "Intermediate",
    "maxDepth": 17,
    "entryType": "boat",
    "siteType": "wreck",
    "ref": "",
    "osmId": null
  },
  {
    "name": "Bright Ledge",
    "filename": "bright-ledge.md",
    "lat": 13.16,
    "lng": -59.6,
    "difficulty": "Intermediate",
    "maxDepth": 20,
    "entryType": "boat",
    "siteType": "reef",
    "ref": "",
    "osmId": null
  },
  {
    "name": "Dottin's Reef",
    "filename": "dottins-reef.md",
    "lat": 13.17,
    "lng": -59.59,
    "difficulty": "Beginner",
    "maxDepth": 15,
    "entryType": "boat",
    "siteType": "reef",
    "ref": "",
    "osmId": null
  },
  {
    "name": "Folkestone Marine Park",
    "filename": "folkestone-marine-park.md",
    "lat": 13.19,
    "lng": -59.64,
    "difficulty": "Beginner",
    "maxDepth": 10,
    "entryType": "shore",
    "siteType": "reef",
    "ref": "",
    "osmId": null
  },
  {
    "name": "Bell Buoy Reef",
    "filename": "bell-buoy-reef.md",
    "lat": 13.11,
    "lng": -59.61,
    "difficulty": "Intermediate",
    "maxDepth": 22,
    "entryType": "boat",
    "siteType": "reef",
    "ref": "",
    "osmId": null
  },
  {
    "name": "Shark Bank Barbados",
    "filename": "shark-bank-barbados.md",
    "lat": 13.15,
    "lng": -59.605,
    "difficulty": "Advanced",
    "maxDepth": 43,
    "entryType": "boat",
    "siteType": "reef",
    "ref": "",
    "osmId": null
  },
  {
    "name": "Coconut Court Reef",
    "filename": "coconut-court-reef.md",
    "lat": 13.07,
    "lng": -59.58,
    "difficulty": "Beginner",
    "maxDepth": 12,
    "entryType": "shore",
    "siteType": "reef",
    "ref": "",
    "osmId": null
  },
  {
    "name": "Eillon",
    "filename": "eillon.md",
    "lat": 13.0866205,
    "lng": -59.6119693,
    "difficulty": "Beginner",
    "maxDepth": 17,
    "entryType": "boat",
    "siteType": "wreck",
    "ref": "",
    "osmId": 7075601814
  },
  {
    "name": "Bajan Queen",
    "filename": "bajan-queen.md",
    "lat": 13.0863083,
    "lng": -59.6120651,
    "difficulty": "Beginner",
    "maxDepth": 11,
    "entryType": "boat",
    "siteType": "wreck",
    "ref": "",
    "osmId": 7075601815
  },
  {
    "name": "The Barge",
    "filename": "the-barge.md",
    "lat": 13.1865,
    "lng": -59.6437,
    "difficulty": "Beginner",
    "maxDepth": 4,
    "entryType": "boat",
    "siteType": "wreck",
    "ref": "",
    "osmId": 13461587401
  },
  {
    "name": "Maycocks Bay",
    "filename": "maycocks-bay.md",
    "lat": 13.2925,
    "lng": -59.6632,
    "difficulty": "Advanced",
    "maxDepth": 38,
    "entryType": "boat",
    "siteType": "reef",
    "ref": "",
    "osmId": null
  },
  {
    "name": "Spawnee",
    "filename": "spawnee.md",
    "lat": 13.2273,
    "lng": -59.6523,
    "difficulty": "Beginner",
    "maxDepth": 21,
    "entryType": "boat",
    "siteType": "reef",
    "ref": "",
    "osmId": null
  },
  {
    "name": "Tropicana",
    "filename": "tropicana.md",
    "lat": 13.219,
    "lng": -59.648,
    "difficulty": "Intermediate",
    "maxDepth": 24,
    "entryType": "boat",
    "siteType": "reef",
    "ref": "",
    "osmId": null
  },
  {
    "name": "Whitegates",
    "filename": "whitegates.md",
    "lat": 13.21,
    "lng": -59.649,
    "difficulty": "Intermediate",
    "maxDepth": 24,
    "entryType": "boat",
    "siteType": "reef",
    "ref": "",
    "osmId": null
  },
  {
    "name": "Fisherman's",
    "filename": "fishermans.md",
    "lat": 13.1836,
    "lng": -59.6463,
    "difficulty": "Beginner",
    "maxDepth": 18,
    "entryType": "boat",
    "siteType": "reef",
    "ref": "",
    "osmId": null
  },
  {
    "name": "Little Sandy Lane",
    "filename": "little-sandy-lane.md",
    "lat": 13.172,
    "lng": -59.647,
    "difficulty": "Intermediate",
    "maxDepth": 24,
    "entryType": "boat",
    "siteType": "reef",
    "ref": "",
    "osmId": null
  },
  {
    "name": "Barracuda Junction",
    "filename": "barracuda-junction.md",
    "lat": 13.163,
    "lng": -59.646,
    "difficulty": "Intermediate",
    "maxDepth": 24,
    "entryType": "boat",
    "siteType": "drift",
    "ref": "",
    "osmId": null
  },
  {
    "name": "Lord Combermere",
    "filename": "lord-combermere.md",
    "lat": 13.1351,
    "lng": -59.6405,
    "difficulty": "Beginner",
    "maxDepth": 12,
    "entryType": "boat",
    "siteType": "wreck",
    "ref": "",
    "osmId": null
  }
]
