[
  {
    "name": "Gili Mimpang",
    "filename": "gili-mimpang.md",
    "lat": -8.526092,
    "lng": 115.576321,
    "difficulty": "Intermediate",
    "maxDepth": 20,
    "entryType": "boat",
    "siteType": "reef",
    "ref": "",
    "osmId": 1314452590
  },
  {
    "name": "Seraya Beach Dive Site",
    "filename": "seraya-beach-dive-site.md",
    "lat": -8.2956657,
    "lng": 115.611935,
    "difficulty": "Intermediate",
    "maxDepth": 25,
    "entryType": "shore",
    "siteType": "reef",
    "ref": "",
    "osmId": 2327924608
  },
  {
    "name": "USAT Liberty Wreck",
    "filename": "usat-liberty-wreck.md",
    "lat": -8.2739054,
    "lng": 115.5926122,
    "difficulty": "Intermediate",
    "maxDepth": 25,
    "entryType": "shore",
    "siteType": "reef",
    "ref": "",
    "osmId": 2480654035
  },
  {
    "name": "Coral Garden",
    "filename": "coral-garden.md",
    "lat": -8.0918367,
    "lng": 114.522414,
    "difficulty": "Intermediate",
    "maxDepth": 25,
    "entryType": "shore",
    "siteType": "reef",
    "ref": "",
    "osmId": 2888289769
  },
  {
    "name": "Bat Cave",
    "filename": "bat-cave.md",
    "lat": -8.093384,
    "lng": 114.5289757,
    "difficulty": "Intermediate",
    "maxDepth": 25,
    "entryType": "shore",
    "siteType": "cave",
    "ref": "",
    "osmId": 2888289770
  },
  {
    "name": "Manta Point",
    "filename": "manta-point.md",
    "lat": -8.7947861,
    "lng": 115.5259217,
    "difficulty": "Intermediate",
    "maxDepth": 25,
    "entryType": "shore",
    "siteType": "reef",
    "ref": "",
    "osmId": 2907339692
  },
  {
    "name": "Underwater Shrine",
    "filename": "underwater-shrine.md",
    "lat": -8.3376207,
    "lng": 115.6610709,
    "difficulty": "Intermediate",
    "maxDepth": 29,
    "entryType": "shore",
    "siteType": "reef",
    "ref": "",
    "osmId": 2969866045
  },
  {
    "name": "Mama Dive",
    "filename": "mama-dive.md",
    "lat": -8.337772,
    "lng": 115.6587537,
    "difficulty": "Intermediate",
    "maxDepth": 25,
    "entryType": "shore",
    "siteType": "reef",
    "ref": "",
    "osmId": 3477854124
  },
  {
    "name": "Bali Aqua Diving",
    "filename": "bali-aqua-diving.md",
    "lat": -8.7057514,
    "lng": 115.2531295,
    "difficulty": "Intermediate",
    "maxDepth": 25,
    "entryType": "shore",
    "siteType": "reef",
    "ref": "",
    "osmId": 3546785648
  },
  {
    "name": "Bali Scuba",
    "filename": "bali-scuba.md",
    "lat": -8.7057211,
    "lng": 115.2528946,
    "difficulty": "Intermediate",
    "maxDepth": 25,
    "entryType": "shore",
    "siteType": "reef",
    "ref": "",
    "osmId": 3546785649
  },
  {
    "name": "Marta Dive",
    "filename": "marta-dive.md",
    "lat": -8.2753636,
    "lng": 115.5904646,
    "difficulty": "Intermediate",
    "maxDepth": 25,
    "entryType": "shore",
    "siteType": "reef",
    "ref": "",
    "osmId": 3744065624
  },
  {
    "name": "Paradise Diving",
    "filename": "paradise-diving.md",
    "lat": -8.2738721,
    "lng": 115.5904903,
    "difficulty": "Intermediate",
    "maxDepth": 25,
    "entryType": "shore",
    "siteType": "reef",
    "ref": "",
    "osmId": 3744068661
  },
  {
    "name": "Blue Hill Dive Site",
    "filename": "blue-hill-dive-site.md",
    "lat": -8.2875992,
    "lng": 115.6050638,
    "difficulty": "Intermediate",
    "maxDepth": 25,
    "entryType": "shore",
    "siteType": "reef",
    "ref": "",
    "osmId": 3747662782
  },
  {
    "name": "Water Walk",
    "filename": "water-walk.md",
    "lat": -8.7065673,
    "lng": 115.2631469,
    "difficulty": "Intermediate",
    "maxDepth": 25,
    "entryType": "shore",
    "siteType": "reef",
    "ref": "",
    "osmId": 3909173262
  },
  {
    "name": "Underwater Cave",
    "filename": "underwater-cave.md",
    "lat": -8.0974198,
    "lng": 114.5263131,
    "difficulty": "Intermediate",
    "maxDepth": 25,
    "entryType": "shore",
    "siteType": "cave",
    "ref": "",
    "osmId": 4454995855
  },
  {
    "name": "Blue Corner",
    "filename": "blue-corner.md",
    "lat": -8.1004242,
    "lng": 114.5205089,
    "difficulty": "Intermediate",
    "maxDepth": 25,
    "entryType": "shore",
    "siteType": "reef",
    "ref": "",
    "osmId": 4454995856
  },
  {
    "name": "Post I Jetty",
    "filename": "post-i-jetty.md",
    "lat": -8.0963806,
    "lng": 114.5031276,
    "difficulty": "Intermediate",
    "maxDepth": 25,
    "entryType": "shore",
    "siteType": "reef",
    "ref": "",
    "osmId": 4454995857
  },
  {
    "name": "Mangrove Point",
    "filename": "mangrove-point.md",
    "lat": -8.0978736,
    "lng": 114.5089187,
    "difficulty": "Intermediate",
    "maxDepth": 25,
    "entryType": "shore",
    "siteType": "reef",
    "ref": "",
    "osmId": 4454995858
  },
  {
    "name": "Manta Bay",
    "filename": "manta-bay.md",
    "lat": -8.7353445,
    "lng": 115.4506577,
    "difficulty": "Intermediate",
    "maxDepth": 20,
    "entryType": "boat",
    "siteType": "reef",
    "ref": "",
    "osmId": 4471094391
  },
  {
    "name": "Amed wall",
    "filename": "amed-wall.md",
    "lat": -8.337564,
    "lng": 115.6617295,
    "difficulty": "Intermediate",
    "maxDepth": 25,
    "entryType": "shore",
    "siteType": "wall",
    "ref": "",
    "osmId": 4527419399
  },
  {
    "name": "Bali Dive Trek",
    "filename": "bali-dive-trek.md",
    "lat": -8.3312359,
    "lng": 115.6309014,
    "difficulty": "Intermediate",
    "maxDepth": 25,
    "entryType": "shore",
    "siteType": "reef",
    "ref": "",
    "osmId": 4694084262
  },
  {
    "name": "Blue Lagoon",
    "filename": "blue-lagoon.md",
    "lat": -8.5179074,
    "lng": 115.5097974,
    "difficulty": "Intermediate",
    "maxDepth": 20,
    "entryType": "shore",
    "siteType": "reef",
    "ref": "",
    "osmId": 4723444230
  },
  {
    "name": "Gili Tepekong North",
    "filename": "gili-tepekong-north.md",
    "lat": -8.5311955,
    "lng": 115.5858269,
    "difficulty": "Intermediate",
    "maxDepth": 20,
    "entryType": "boat",
    "siteType": "reef",
    "ref": "",
    "osmId": 4723444231
  },
  {
    "name": "Gili Tepekong South",
    "filename": "gili-tepekong-south.md",
    "lat": -8.5316464,
    "lng": 115.586138,
    "difficulty": "Intermediate",
    "maxDepth": 30,
    "entryType": "boat",
    "siteType": "wall",
    "ref": "",
    "osmId": 4723444232
  },
  {
    "name": "Crystal Bay",
    "filename": "crystal-bay.md",
    "lat": -8.7155168,
    "lng": 115.4574864,
    "difficulty": "Intermediate",
    "maxDepth": 15,
    "entryType": "shore",
    "siteType": "reef",
    "ref": "",
    "osmId": 4742534377
  },
  {
    "name": "Ped",
    "filename": "ped.md",
    "lat": -8.6756914,
    "lng": 115.5160285,
    "difficulty": "Intermediate",
    "maxDepth": 25,
    "entryType": "shore",
    "siteType": "wall",
    "ref": "",
    "osmId": 4742534378
  },
  {
    "name": "Batu Belah",
    "filename": "batu-belah.md",
    "lat": -8.3078554,
    "lng": 115.6208435,
    "difficulty": "Intermediate",
    "maxDepth": 25,
    "entryType": "shore",
    "siteType": "reef",
    "ref": "",
    "osmId": 4747124684
  },
  {
    "name": "Bulakan",
    "filename": "bulakan.md",
    "lat": -8.308309,
    "lng": 115.6214953,
    "difficulty": "Intermediate",
    "maxDepth": 25,
    "entryType": "shore",
    "siteType": "reef",
    "ref": "",
    "osmId": 4747124685
  },
  {
    "name": "Pyramids",
    "filename": "pyramids.md",
    "lat": -8.3341953,
    "lng": 115.6536502,
    "difficulty": "Intermediate",
    "maxDepth": 25,
    "entryType": "shore",
    "siteType": "reef",
    "ref": "",
    "osmId": 5149607925
  },
  {
    "name": "Big Fins TecDiving",
    "filename": "big-fins-tecdiving.md",
    "lat": -8.2784946,
    "lng": 115.5933629,
    "difficulty": "Intermediate",
    "maxDepth": 25,
    "entryType": "shore",
    "siteType": "reef",
    "ref": "",
    "osmId": 9028333855
  },
  {
    "name": "Menjangan - Pos 2",
    "filename": "menjangan-pos-2.md",
    "lat": -8.0964808,
    "lng": 114.5279094,
    "difficulty": "Intermediate",
    "maxDepth": 25,
    "entryType": "shore",
    "siteType": "reef",
    "ref": "",
    "osmId": 10874989402
  },
  {
    "name": "Emerald",
    "filename": "emerald.md",
    "lat": -8.2837348,
    "lng": 115.6028731,
    "difficulty": "Intermediate",
    "maxDepth": 25,
    "entryType": "shore",
    "siteType": "reef",
    "ref": "",
    "osmId": 12052475969
  }
]