[
  {
    "name": "Palancar Reef",
    "lat": 20.296977,
    "lon": -87.031974,
    "osm_id": 663869323,
    "osm_type": "node",
    "depth": null,
    "site_type": "reef",
    "entry_type": null,
    "difficulty": null,
    "tags": {
      "name": "Palancar Reef",
      "source": "www.dive-links.com",
      "sport": "scuba_diving",
      "verified": "no, please check and del this tag",
      "website": "http://www.dive-links.com/tauchplatz.php?id=2776"
    }
  },
  {
    "name": "Punta Sur Reef",
    "lat": 20.2873171,
    "lon": -87.031631,
    "osm_id": 663869325,
    "osm_type": "node",
    "depth": null,
    "site_type": "reef",
    "entry_type": null,
    "difficulty": null,
    "tags": {
      "name": "Punta Sur Reef",
      "source": "www.dive-links.com",
      "sport": "scuba_diving",
      "verified": "no, please check and del this tag",
      "website": "http://www.dive-links.com/tauchplatz.php?id=2777"
    }
  },
  {
    "name": "Paso El Cedral Reef",
    "lat": 20.314525,
    "lon": -87.033863,
    "osm_id": 663869330,
    "osm_type": "node",
    "depth": null,
    "site_type": "reef",
    "entry_type": null,
    "difficulty": null,
    "tags": {
      "name": "Paso El Cedral Reef",
      "source": "www.dive-links.com",
      "sport": "scuba_diving",
      "verified": "no, please check and del this tag",
      "website": "http://www.dive-links.com/tauchplatz.php?id=2773"
    }
  },
  {
    "name": "La Francesa",
    "lat": 20.317584,
    "lon": -87.031631,
    "osm_id": 663869331,
    "osm_type": "node",
    "depth": null,
    "site_type": "reef",
    "entry_type": null,
    "difficulty": null,
    "tags": {
      "name": "La Francesa",
      "source": "www.dive-links.com",
      "sport": "scuba_diving",
      "verified": "no, please check and del this tag",
      "website": "http://www.dive-links.com/tauchplatz.php?id=2774"
    }
  },
  {
    "name": "Punta Dalila",
    "lat": 20.3079253,
    "lon": -87.032318,
    "osm_id": 663869332,
    "osm_type": "node",
    "depth": null,
    "site_type": "reef",
    "entry_type": null,
    "difficulty": null,
    "tags": {
      "name": "Punta Dalila",
      "source": "www.dive-links.com",
      "sport": "scuba_diving",
      "verified": "no, please check and del this tag",
      "website": "http://www.dive-links.com/tauchplatz.php?id=2775"
    }
  },
  {
    "name": "Yucab Reef",
    "lat": 20.371342,
    "lon": -87.0457077,
    "osm_id": 663869333,
    "osm_type": "node",
    "depth": null,
    "site_type": "reef",
    "entry_type": null,
    "difficulty": null,
    "tags": {
      "name": "Yucab Reef",
      "source": "www.dive-links.com",
      "sport": "scuba_diving",
      "verified": "no, please check and del this tag",
      "website": "http://www.dive-links.com/tauchplatz.php?id=2768"
    }
  },
  {
    "name": "Punta Tunich Wall",
    "lat": 20.3555713,
    "lon": -87.046051,
    "osm_id": 663869334,
    "osm_type": "node",
    "depth": null,
    "site_type": "wall",
    "entry_type": null,
    "difficulty": null,
    "tags": {
      "name": "Punta Tunich Wall",
      "source": "www.dive-links.com",
      "sport": "scuba_diving",
      "verified": "no, please check and del this tag",
      "website": "http://www.dive-links.com/tauchplatz.php?id=2769"
    }
  },
  {
    "name": "Cardona",
    "lat": 20.342695,
    "lon": -87.043991,
    "osm_id": 663869335,
    "osm_type": "node",
    "depth": null,
    "site_type": "reef",
    "entry_type": null,
    "difficulty": null,
    "tags": {
      "name": "Cardona",
      "source": "www.dive-links.com",
      "sport": "scuba_diving",
      "verified": "no, please check and del this tag",
      "website": "http://www.dive-links.com/tauchplatz.php?id=2770"
    }
  },
  {
    "name": "San Frandsco Reef",
    "lat": 20.327564,
    "lon": -87.0426177,
    "osm_id": 663869337,
    "osm_type": "node",
    "depth": null,
    "site_type": "reef",
    "entry_type": null,
    "difficulty": null,
    "tags": {
      "name": "San Frandsco Reef",
      "source": "www.dive-links.com",
      "sport": "scuba_diving",
      "verified": "no, please check and del this tag",
      "website": "http://www.dive-links.com/tauchplatz.php?id=2771"
    }
  },
  {
    "name": "Las Palamas",
    "lat": 20.384538,
    "lon": -87.0405578,
    "osm_id": 663869338,
    "osm_type": "node",
    "depth": null,
    "site_type": "reef",
    "entry_type": null,
    "difficulty": null,
    "tags": {
      "name": "Las Palamas",
      "source": "www.dive-links.com",
      "sport": "scuba_diving",
      "verified": "no, please check and del this tag",
      "website": "http://www.dive-links.com/tauchplatz.php?id=2764"
    }
  },
  {
    "name": "Tormentos Reef",
    "lat": 20.373273,
    "lon": -87.04193,
    "osm_id": 663869341,
    "osm_type": "node",
    "depth": null,
    "site_type": "reef",
    "entry_type": null,
    "difficulty": null,
    "tags": {
      "name": "Tormentos Reef",
      "source": "www.dive-links.com",
      "sport": "scuba_diving",
      "verified": "no, please check and del this tag",
      "website": "http://www.dive-links.com/tauchplatz.php?id=2767"
    }
  },
  {
    "name": "Chankanaab Reef",
    "lat": 20.37745,
    "lon": -87.037124,
    "osm_id": 663869344,
    "osm_type": "node",
    "depth": null,
    "site_type": "reef",
    "entry_type": null,
    "difficulty": null,
    "tags": {
      "name": "Chankanaab Reef",
      "source": "www.dive-links.com",
      "sport": "scuba_diving",
      "verified": "no, please check and del this tag",
      "website": "http://www.dive-links.com/tauchplatz.php?id=2766"
    }
  },
  {
    "name": "Maracaibo Reef",
    "lat": 20.262841,
    "lon": -87.011375,
    "osm_id": 663869356,
    "osm_type": "node",
    "depth": null,
    "site_type": "reef",
    "entry_type": null,
    "difficulty": null,
    "tags": {
      "name": "Maracaibo Reef",
      "source": "www.dive-links.com",
      "sport": "scuba_diving",
      "verified": "no, please check and del this tag",
      "website": "http://www.dive-links.com/tauchplatz.php?id=2779"
    }
  },
  {
    "name": "El Islote",
    "lat": 20.2592984,
    "lon": -86.974983,
    "osm_id": 663869357,
    "osm_type": "node",
    "depth": null,
    "site_type": "reef",
    "entry_type": null,
    "difficulty": null,
    "tags": {
      "name": "El Islote",
      "source": "www.dive-links.com",
      "sport": "scuba_diving",
      "verified": "no, please check and del this tag",
      "website": "http://www.dive-links.com/tauchplatz.php?id=2780"
    }
  },
  {
    "name": "Chun Chacaaab Reef",
    "lat": 20.277334,
    "lon": -87.011375,
    "osm_id": 663869358,
    "osm_type": "node",
    "depth": null,
    "site_type": "reef",
    "entry_type": null,
    "difficulty": null,
    "tags": {
      "name": "Chun Chacaaab Reef",
      "source": "www.dive-links.com",
      "sport": "scuba_diving",
      "verified": "no, please check and del this tag",
      "website": "http://www.dive-links.com/tauchplatz.php?id=2778"
    }
  },
  {
    "name": "Chen Rio",
    "lat": 20.3467894,
    "lon": -86.8947828,
    "osm_id": 663869359,
    "osm_type": "node",
    "depth": null,
    "site_type": "reef",
    "entry_type": null,
    "difficulty": null,
    "tags": {
      "name": "Chen Rio",
      "source": "www.dive-links.com",
      "sport": "scuba_diving",
      "verified": "no, please check and del this tag",
      "website": "http://www.dive-links.com/tauchplatz.php?id=2783"
    }
  },
  {
    "name": "El Mirador",
    "lat": 20.3175844,
    "lon": -86.911125,
    "osm_id": 663869361,
    "osm_type": "node",
    "depth": null,
    "site_type": "reef",
    "entry_type": null,
    "difficulty": null,
    "tags": {
      "name": "El Mirador",
      "source": "www.dive-links.com",
      "sport": "scuba_diving",
      "verified": "no, please check and del this tag",
      "website": "http://www.dive-links.com/tauchplatz.php?id=2782"
    }
  },
  {
    "name": "San Juan Reef",
    "lat": 20.5501874,
    "lon": -86.94992,
    "osm_id": 663869362,
    "osm_type": "node",
    "depth": null,
    "site_type": "reef",
    "entry_type": null,
    "difficulty": null,
    "tags": {
      "name": "San Juan Reef",
      "source": "www.dive-links.com",
      "sport": "scuba_diving",
      "verified": "no, please check and del this tag",
      "website": "http://www.dive-links.com/tauchplatz.php?id=2760"
    }
  },
  {
    "name": "Barracuda Reef",
    "lat": 20.568028,
    "lon": -86.912326,
    "osm_id": 663869363,
    "osm_type": "node",
    "depth": null,
    "site_type": "reef",
    "entry_type": null,
    "difficulty": null,
    "tags": {
      "name": "Barracuda Reef",
      "source": "www.dive-links.com",
      "sport": "scuba_diving",
      "verified": "no, please check and del this tag",
      "website": "http://www.dive-links.com/tauchplatz.php?id=2759"
    }
  },
  {
    "name": "Paraiso Reef",
    "lat": 20.4167169,
    "lon": -87.0309448,
    "osm_id": 663869365,
    "osm_type": "node",
    "depth": null,
    "site_type": "reef",
    "entry_type": null,
    "difficulty": null,
    "tags": {
      "name": "Paraiso Reef",
      "source": "www.dive-links.com",
      "sport": "scuba_diving",
      "verified": "no, please check and del this tag",
      "website": "http://www.dive-links.com/tauchplatz.php?id=2763"
    }
  },
  {
    "name": "Villa Blanca Wall",
    "lat": 20.4955268,
    "lon": -86.979446,
    "osm_id": 663869366,
    "osm_type": "node",
    "depth": null,
    "site_type": "wall",
    "entry_type": null,
    "difficulty": null,
    "tags": {
      "name": "Villa Blanca Wall",
      "source": "www.dive-links.com",
      "sport": "scuba_diving",
      "verified": "no, please check and del this tag",
      "website": "http://www.dive-links.com/tauchplatz.php?id=2762"
    }
  },
  {
    "name": "Cantarell Sand Reef",
    "lat": 20.534112,
    "lon": -86.949577,
    "osm_id": 663869367,
    "osm_type": "node",
    "depth": null,
    "site_type": "reef",
    "entry_type": null,
    "difficulty": null,
    "tags": {
      "name": "Cantarell Sand Reef",
      "source": "www.dive-links.com",
      "sport": "scuba_diving",
      "verified": "no, please check and del this tag",
      "website": "http://www.dive-links.com/tauchplatz.php?id=2761"
    }
  },
  {
    "name": "Wreck C-53",
    "lat": 20.4467119,
    "lon": -86.9988993,
    "osm_id": 663869368,
    "osm_type": "node",
    "depth": null,
    "site_type": "reef",
    "entry_type": null,
    "difficulty": null,
    "tags": {
      "name": "Wreck C-53",
      "source": "www.dive-links.com",
      "sport": "scuba_diving",
      "website": "http://www.dive-links.com/tauchplatz.php?id=2765"
    }
  },
  {
    "name": "Dive with Martin",
    "lat": 20.4791626,
    "lon": -86.9742992,
    "osm_id": 3545985216,
    "osm_type": "node",
    "depth": null,
    "site_type": "reef",
    "entry_type": null,
    "difficulty": null,
    "tags": {
      "is_in": "Cozumel, Q Roo, Mexico",
      "leisure": "sports_centre",
      "name": "Dive with Martin",
      "sport": "scuba_diving"
    }
  }
]