[
  {
    "name": "Nautilus Diving Center",
    "lat": 41.1815986,
    "lon": 9.3844866,
    "osm_id": 1778279375,
    "osm_type": "node",
    "depth": null,
    "site_type": "reef",
    "entry_type": null,
    "difficulty": null,
    "tags": {
      "amenity": "dive_centre",
      "email": "info@divesardegna.com",
      "name": "Nautilus Diving Center",
      "payment:cards": "no",
      "payment:cash": "yes",
      "payment:credit_cards": "no",
      "payment:debit_cards": "no",
      "payment:paypal": "yes",
      "phone": "+393337575677",
      "sport": "scuba_diving",
      "website": "https://www.divesardegna.com/"
    }
  },
  {
    "name": "MuMart (museo sommerso)",
    "lat": 40.9991561,
    "lon": 9.6124256,
    "osm_id": 4840240367,
    "osm_type": "node",
    "depth": null,
    "site_type": "reef",
    "entry_type": null,
    "difficulty": null,
    "tags": {
      "historic": "monument",
      "name": "MuMart (museo sommerso)",
      "sport": "scuba_diving",
      "website": "https://www.golfoaranciturismo.it/arte-e-cultura/il-mumart/"
    }
  },
  {
    "name": "Cala d'Oliva",
    "lat": 41.0803752,
    "lon": 8.3352736,
    "osm_id": 6797487247,
    "osm_type": "node",
    "depth": null,
    "site_type": "reef",
    "entry_type": null,
    "difficulty": null,
    "tags": {
      "name": "Cala d'Oliva",
      "shop": "sports",
      "source": "survey",
      "sport": "scuba_diving"
    }
  },
  {
    "name": "Archeo Diving",
    "lat": 39.1175124,
    "lon": 9.5090995,
    "osm_id": 6893978923,
    "osm_type": "node",
    "depth": null,
    "site_type": "reef",
    "entry_type": null,
    "difficulty": null,
    "tags": {
      "addr:housenumber": "10",
      "addr:street": "Via Degli Oleandri",
      "contact:email": "info@archeodiving.com",
      "contact:phone": "+39 338 382 9931",
      "name": "Archeo Diving",
      "shop": "sports",
      "source": "survey",
      "sport": "scuba_diving",
      "website": "https://archeodiving.it/"
    }
  },
  {
    "name": "DST Sardegna - Diving & Snorkeling Team",
    "lat": 40.9696432,
    "lon": 9.5873657,
    "osm_id": 7890157277,
    "osm_type": "node",
    "depth": null,
    "site_type": "reef",
    "entry_type": null,
    "difficulty": null,
    "tags": {
      "leisure": "sports_centre",
      "name": "DST Sardegna - Diving & Snorkeling Team",
      "short_name": "DST Sardegna",
      "sport": "scuba_diving",
      "website": "https://www.dstsardegna.it/"
    }
  },
  {
    "name": "Diving Archimete",
    "lat": 40.5917382,
    "lon": 8.1682842,
    "osm_id": 10537548720,
    "osm_type": "node",
    "depth": null,
    "site_type": "reef",
    "entry_type": null,
    "difficulty": null,
    "tags": {
      "club": "sport",
      "name": "Diving Archimete",
      "sport": "scuba_diving"
    }
  },
  {
    "name": "Cala Mariolu",
    "lat": 40.1232825,
    "lon": 9.6767178,
    "osm_id": 184754084,
    "osm_type": "way",
    "depth": null,
    "site_type": "beach",
    "entry_type": null,
    "difficulty": null,
    "tags": {
      "fee": "no",
      "loc_name": "Ispuligedenie",
      "name": "Cala Mariolu",
      "name:sc": "Ispuligedenie",
      "natural": "beach",
      "source": "https://www.calamariolu.it",
      "sport": "scuba_diving",
      "surface": "pebblestone"
    }
  }
]