[
  {
    "name": "Little Komodo",
    "filename": "little-komodo.md",
    "lat": -3.9164,
    "lng": 134.1031,
    "difficulty": "Intermediate",
    "maxDepth": 25,
    "entryType": "boat",
    "siteType": "reef",
    "ref": "",
    "osmId": null
  },
  {
    "name": "Batu Rufas",
    "filename": "batu-rufas.md",
    "lat": -3.9131,
    "lng": 134.1222,
    "difficulty": "Intermediate",
    "maxDepth": 22,
    "entryType": "boat",
    "siteType": "reef",
    "ref": "",
    "osmId": null
  },
  {
    "name": "Flasher Beach",
    "filename": "flasher-beach.md",
    "lat": -3.9215,
    "lng": 134.004,
    "difficulty": "Intermediate",
    "maxDepth": 15,
    "entryType": "boat",
    "siteType": "reef",
    "ref": "",
    "osmId": null
  },
  {
    "name": "Whale Shark Bagan",
    "filename": "whale-shark-bagan.md",
    "lat": -3.82,
    "lng": 133.93,
    "difficulty": "Intermediate",
    "maxDepth": 20,
    "entryType": "boat",
    "siteType": "drift",
    "ref": "",
    "osmId": null
  },
  {
    "name": "Namatota Channel",
    "filename": "namatota-channel.md",
    "lat": -3.8721,
    "lng": 133.9258,
    "difficulty": "Advanced",
    "maxDepth": 28,
    "entryType": "boat",
    "siteType": "wall",
    "ref": "",
    "osmId": null
  },
  {
    "name": "Saruenus Island",
    "filename": "saruenus-island.md",
    "lat": -3.9139,
    "lng": 134.1012,
    "difficulty": "Intermediate",
    "maxDepth": 18,
    "entryType": "boat",
    "siteType": "reef",
    "ref": "",
    "osmId": null
  },
  {
    "name": "Iris Wall",
    "filename": "iris-wall.md",
    "lat": -3.933,
    "lng": 134.15,
    "difficulty": "Advanced",
    "maxDepth": 35,
    "entryType": "boat",
    "siteType": "wall",
    "ref": "",
    "osmId": null
  },
  {
    "name": "The Corals Garden",
    "filename": "the-corals-garden.md",
    "lat": -4.0136,
    "lng": 134.2031,
    "difficulty": "Intermediate",
    "maxDepth": 12,
    "entryType": "boat",
    "siteType": "reef",
    "ref": "",
    "osmId": null
  },
  {
    "name": "Sawandek Jetty",
    "filename": "sawandek-jetty.md",
    "lat": -3.962,
    "lng": 134.0713,
    "difficulty": "Beginner",
    "maxDepth": 8,
    "entryType": "boat",
    "siteType": "reef",
    "ref": "",
    "osmId": null
  },
  {
    "name": "Aiduma Island Wall",
    "filename": "aiduma-island-wall.md",
    "lat": -3.9836,
    "lng": 134.0829,
    "difficulty": "Advanced",
    "maxDepth": 30,
    "entryType": "boat",
    "siteType": "wall",
    "ref": "",
    "osmId": null
  }
]
