[
  {
    "name": "Buck Island Reef",
    "filename": "buck-island-reef.md",
    "lat": 17.79,
    "lng": -64.62,
    "difficulty": "Beginner",
    "maxDepth": 12,
    "entryType": "boat",
    "siteType": "reef",
    "ref": "",
    "osmId": null
  },
  {
    "name": "Cane Bay Wall",
    "filename": "cane-bay-wall.md",
    "lat": 17.77,
    "lng": -64.81,
    "difficulty": "Advanced",
    "maxDepth": 40,
    "entryType": "shore",
    "siteType": "wall",
    "ref": "",
    "osmId": null
  },
  {
    "name": "Frederiksted Pier",
    "filename": "frederiksted-pier.md",
    "lat": 17.715,
    "lng": -64.882,
    "difficulty": "Beginner",
    "maxDepth": 8,
    "entryType": "shore",
    "siteType": "reef",
    "ref": "",
    "osmId": null
  },
  {
    "name": "WIT Shoal II Wreck",
    "filename": "wit-shoal-ii-wreck.md",
    "lat": 18.32,
    "lng": -64.94,
    "difficulty": "Intermediate",
    "maxDepth": 21,
    "entryType": "boat",
    "siteType": "wreck",
    "ref": "",
    "osmId": null
  },
  {
    "name": "Cow and Calf",
    "filename": "cow-and-calf.md",
    "lat": 18.31,
    "lng": -64.88,
    "difficulty": "Beginner",
    "maxDepth": 12,
    "entryType": "boat",
    "siteType": "reef",
    "ref": "",
    "osmId": null
  },
  {
    "name": "Cartanser Sr Wreck",
    "filename": "cartanser-sr-wreck.md",
    "lat": 18.315,
    "lng": -64.935,
    "difficulty": "Beginner",
    "maxDepth": 14,
    "entryType": "boat",
    "siteType": "wreck",
    "ref": "",
    "osmId": null
  },
  {
    "name": "Salt River Canyon",
    "filename": "salt-river-canyon.md",
    "lat": 17.78,
    "lng": -64.76,
    "difficulty": "Advanced",
    "maxDepth": 35,
    "entryType": "boat",
    "siteType": "wall",
    "ref": "",
    "osmId": null
  },
  {
    "name": "Grain Wreck (Suffolk Maid)",
    "filename": "grain-wreck-suffolk-maid.md",
    "lat": 18.34,
    "lng": -64.96,
    "difficulty": "Intermediate",
    "maxDepth": 23,
    "entryType": "boat",
    "siteType": "wreck",
    "ref": "",
    "osmId": null
  },
  {
    "name": "Coral World",
    "filename": "coral-world.md",
    "lat": 18.35,
    "lng": -64.86,
    "difficulty": "Beginner",
    "maxDepth": 6,
    "entryType": "shore",
    "siteType": "reef",
    "ref": "",
    "osmId": null
  },
  {
    "name": "The Pinnacle (St. Croix)",
    "filename": "the-pinnacle-st-croix.md",
    "lat": 17.76,
    "lng": -64.83,
    "difficulty": "Advanced",
    "maxDepth": 29,
    "entryType": "boat",
    "siteType": "pinnacle",
    "ref": "",
    "osmId": null
  },
  {
    "name": "French Cap Cay",
    "filename": "french-cap-cay.md",
    "lat": 18.265,
    "lng": -64.69,
    "difficulty": "Advanced",
    "maxDepth": 23,
    "entryType": "boat",
    "siteType": "reef",
    "ref": "",
    "osmId": null
  },
  {
    "name": "Sapphire Beach Reef",
    "filename": "sapphire-beach-reef.md",
    "lat": 18.335,
    "lng": -64.85,
    "difficulty": "Beginner",
    "maxDepth": 5,
    "entryType": "shore",
    "siteType": "reef",
    "ref": "",
    "osmId": null
  },
  {
    "name": "Rhone",
    "filename": "rhone.md",
    "lat": 18.3689063,
    "lng": -64.5345635,
    "difficulty": "Advanced",
    "maxDepth": 26,
    "entryType": "boat",
    "siteType": "wreck",
    "ref": "",
    "osmId": 302028648
  },
  {
    "name": "Eagle Shoal",
    "filename": "eagle-shoal.md",
    "lat": 18.3057086,
    "lng": -64.6896876,
    "difficulty": "Intermediate",
    "maxDepth": 15,
    "entryType": "boat",
    "siteType": "reef",
    "ref": "",
    "osmId": 893436066
  }
]
