[
  {
    "name": "1000 Steps",
    "lat": 12.2106695,
    "lng": -68.3217112,
    "difficulty": "Beginner",
    "maxDepth": 18,
    "entryType": "Shore",
    "siteType": "Reef",
    "ref": null,
    "osmId": 313863131,
    "addedBy": "jbunderwater_ai_perplexity",
    "filename": "1000-steps.md"
  },
  {
    "name": "18th Palm",
    "lat": 12.138643,
    "lng": -68.2765096,
    "difficulty": "Intermediate",
    "maxDepth": 18,
    "entryType": "Shore",
    "siteType": "Reef",
    "ref": null,
    "osmId": 854130076,
    "addedBy": "jbunderwater_ai_perplexity",
    "filename": "18th-palm.md"
  },
  {
    "name": "Alice in Wonderland",
    "lat": 12.0998035,
    "lng": -68.2852927,
    "difficulty": "Intermediate",
    "maxDepth": 25,
    "entryType": "Shore",
    "siteType": "Reef",
    "ref": null,
    "osmId": 635881804,
    "addedBy": "jbunderwater_ai_perplexity",
    "filename": "alice-in-wonderland.md"
  },
  {
    "name": "Andrea I",
    "lat": 12.188411,
    "lng": -68.296732,
    "difficulty": "Beginner",
    "maxDepth": 20,
    "entryType": "Shore",
    "siteType": "Reef",
    "ref": null,
    "osmId": 663869426,
    "addedBy": "jbunderwater_ai_perplexity",
    "filename": "andrea-i.md"
  },
  {
    "name": "Andrea II",
    "lat": 12.1913607,
    "lng": -68.2978203,
    "difficulty": "Intermediate",
    "maxDepth": 30,
    "entryType": "Boat",
    "siteType": "Wreck",
    "ref": null,
    "osmId": 636400643,
    "addedBy": "jbunderwater_ai_perplexity",
    "filename": "andrea-ii.md"
  },
  {
    "name": "Angel City",
    "lat": 12.1033916,
    "lng": -68.2872133,
    "difficulty": "Intermediate",
    "maxDepth": 30,
    "entryType": "Shore",
    "siteType": "Reef",
    "ref": null,
    "osmId": 663869415,
    "addedBy": "jbunderwater_ai_perplexity",
    "filename": "angel-city.md"
  },
  {
    "name": "Aquarius",
    "lat": 12.0983883,
    "lng": -68.284795,
    "difficulty": "Beginner",
    "maxDepth": 25,
    "entryType": "Shore",
    "siteType": "Reef",
    "ref": null,
    "osmId": 663869409,
    "addedBy": "jbunderwater_ai_perplexity",
    "filename": "aquarius.md"
  },
  {
    "name": "Atlantis",
    "lat": 12.0448994,
    "lng": -68.267482,
    "difficulty": "Beginner",
    "maxDepth": 20,
    "entryType": "Shore",
    "siteType": "Reef",
    "ref": null,
    "osmId": 663869406,
    "addedBy": "jbunderwater_ai_perplexity",
    "filename": "atlantis.md"
  },
  {
    "name": "Bachelor's Beach",
    "lat": 12.1255594,
    "lng": -68.2873207,
    "difficulty": "Beginner",
    "maxDepth": 18,
    "entryType": "Shore",
    "siteType": "Reef",
    "ref": null,
    "osmId": 663869413,
    "addedBy": "jbunderwater_ai_perplexity",
    "filename": "bachelor's-beach.md"
  },
  {
    "name": "Bari Reef",
    "lat": 12.1674719,
    "lng": -68.2872007,
    "difficulty": "Beginner",
    "maxDepth": 25,
    "entryType": "Shore",
    "siteType": "Reef",
    "ref": null,
    "osmId": 313862678,
    "addedBy": "jbunderwater_ai_perplexity",
    "filename": "bari-reef.md"
  },
  {
    "name": "Bisé Morto",
    "lat": 12.2935303,
    "lng": -68.4132212,
    "difficulty": "Intermediate",
    "maxDepth": 30,
    "entryType": "Shore",
    "siteType": "Reef",
    "ref": null,
    "osmId": 4200486589,
    "addedBy": "jbunderwater_ai_perplexity",
    "filename": "bisé-morto.md"
  },
  {
    "name": "Boka Bartol",
    "lat": 12.3048091,
    "lng": -68.3975477,
    "difficulty": "Intermediate",
    "maxDepth": 25,
    "entryType": "Shore",
    "siteType": "Reef",
    "ref": null,
    "osmId": 663869442,
    "addedBy": "jbunderwater_ai_perplexity",
    "filename": "boka-bartol.md"
  },
  {
    "name": "Boka di Tolo",
    "lat": 12.2152361,
    "lng": -68.3374389,
    "difficulty": "Beginner",
    "maxDepth": 18,
    "entryType": "Shore",
    "siteType": "Reef",
    "ref": null,
    "osmId": 663869427,
    "addedBy": "jbunderwater_ai_perplexity",
    "filename": "boka-di-tolo.md"
  },
  {
    "name": "Boka Katuna",
    "lat": 12.2997359,
    "lng": -68.4025266,
    "difficulty": "Intermediate",
    "maxDepth": 25,
    "entryType": "Shore",
    "siteType": "Reef",
    "ref": null,
    "osmId": 9523960359,
    "addedBy": "jbunderwater_ai_perplexity",
    "filename": "boka-katuna.md"
  },
  {
    "name": "Boka Slagbaai",
    "lat": 12.2646664,
    "lng": -68.4135635,
    "difficulty": "Intermediate",
    "maxDepth": 25,
    "entryType": "Shore",
    "siteType": "Reef",
    "ref": null,
    "osmId": 663869419,
    "addedBy": "jbunderwater_ai_perplexity",
    "filename": "boka-slagbaai.md"
  },
  {
    "name": "Boy Scout",
    "lat": 12.1589381,
    "lng": -68.2810107,
    "difficulty": "Beginner",
    "maxDepth": 18,
    "entryType": "Shore",
    "siteType": "Reef",
    "ref": null,
    "osmId": 635094192,
    "addedBy": "jbunderwater_ai_perplexity",
    "filename": "boy-scout.md"
  },
  {
    "name": "Buddy's Reef",
    "lat": 12.1710254,
    "lng": -68.288822,
    "difficulty": "Beginner",
    "maxDepth": 18,
    "entryType": "Shore",
    "siteType": "Reef",
    "ref": null,
    "osmId": 635094204,
    "addedBy": "jbunderwater_ai_perplexity",
    "filename": "buddy's-reef.md"
  },
  {
    "name": "Cai",
    "lat": 12.1032167,
    "lng": -68.2224528,
    "difficulty": "Beginner",
    "maxDepth": 18,
    "entryType": "Shore",
    "siteType": "Reef",
    "ref": null,
    "osmId": 663869416,
    "addedBy": "jbunderwater_ai_perplexity",
    "filename": "cai.md"
  },
  {
    "name": "Calabas Reef",
    "lat": 12.1444535,
    "lng": -68.276667,
    "difficulty": "Intermediate",
    "maxDepth": 18,
    "entryType": "Shore",
    "siteType": "Reef",
    "ref": null,
    "osmId": 663869423,
    "addedBy": "jbunderwater_ai_perplexity",
    "filename": "calabas-reef.md"
  },
  {
    "name": "Carel's Vision",
    "lat": 12.230709,
    "lng": -68.4127451,
    "difficulty": "Intermediate",
    "maxDepth": 25,
    "entryType": "Shore",
    "siteType": "Reef",
    "ref": null,
    "osmId": 854130125,
    "addedBy": "jbunderwater_ai_perplexity",
    "filename": "carel's-vision.md"
  },
  {
    "name": "Chachacha Beach",
    "lat": 12.1460122,
    "lng": -68.276318,
    "difficulty": "Beginner",
    "maxDepth": 18,
    "entryType": "Shore",
    "siteType": "Reef",
    "ref": null,
    "osmId": 4017913908,
    "addedBy": "jbunderwater_ai_perplexity",
    "filename": "chachacha-beach.md"
  },
  {
    "name": "Cliff",
    "lat": 12.1733517,
    "lng": -68.2894267,
    "difficulty": "Beginner",
    "maxDepth": 18,
    "entryType": "Shore",
    "siteType": "Reef",
    "ref": null,
    "osmId": 663869433,
    "addedBy": "jbunderwater_ai_perplexity",
    "filename": "cliff.md"
  },
  {
    "name": "Corporal Meiss",
    "lat": 12.1308642,
    "lng": -68.2846951,
    "difficulty": "Intermediate",
    "maxDepth": 25,
    "entryType": "Shore",
    "siteType": "Reef",
    "ref": null,
    "osmId": 635881836,
    "addedBy": "jbunderwater_ai_perplexity",
    "filename": "corporal-meiss.md"
  },
  {
    "name": "English Garden",
    "lat": 12.0597582,
    "lng": -68.2822176,
    "difficulty": "Beginner",
    "maxDepth": 18,
    "entryType": "Shore",
    "siteType": "Reef",
    "ref": null,
    "osmId": 635881767,
    "addedBy": "jbunderwater_ai_perplexity",
    "filename": "english-garden.md"
  },
  {
    "name": "Front Porch",
    "lat": 12.1666879,
    "lng": -68.2871264,
    "difficulty": "Beginner",
    "maxDepth": 18,
    "entryType": "Shore",
    "siteType": "Reef",
    "ref": null,
    "osmId": 639106013,
    "addedBy": "jbunderwater_ai_perplexity",
    "filename": "front-porch.md"
  },
  {
    "name": "Hidden Beach (unmarked site)",
    "lat": 12.0323197,
    "lng": -68.2581378,
    "difficulty": "Beginner",
    "maxDepth": 18,
    "entryType": "Shore",
    "siteType": "Reef",
    "ref": null,
    "osmId": 11333668404,
    "addedBy": "jbunderwater_ai_perplexity",
    "filename": "hidden-beach-(unmarked-site).md"
  },
  {
    "name": "Hilma Hooker",
    "lat": 12.1037524,
    "lng": -68.2901176,
    "difficulty": "Intermediate",
    "maxDepth": 30,
    "entryType": "boat",
    "siteType": "wreck",
    "ref": null,
    "osmId": 635881808,
    "addedBy": "jbunderwater_ai_perplexity",
    "filename": "hilma-hooker.md"
  },
  {
    "name": "Invisibles",
    "lat": 12.077631,
    "lng": -68.2801815,
    "difficulty": "Intermediate",
    "maxDepth": 25,
    "entryType": "Boat",
    "siteType": "Reef",
    "ref": null,
    "osmId": 663869402,
    "addedBy": "jbunderwater_ai_perplexity",
    "filename": "invisibles.md"
  },
  {
    "name": "Jeannie's Glory",
    "lat": 12.0867114,
    "lng": -68.282629,
    "difficulty": "Intermediate",
    "maxDepth": 25,
    "entryType": "Shore",
    "siteType": "Reef",
    "ref": null,
    "osmId": 663869412,
    "addedBy": "jbunderwater_ai_perplexity",
    "filename": "jeannie's-glory.md"
  },
  {
    "name": "Jeff Davis Memorial",
    "lat": 12.2049583,
    "lng": -68.3140546,
    "difficulty": "Intermediate",
    "maxDepth": 30,
    "entryType": "Shore",
    "siteType": "Reef",
    "ref": null,
    "osmId": 636400684,
    "addedBy": "jbunderwater_ai_perplexity",
    "filename": "jeff-davis-memorial.md"
  },
  {
    "name": "Karpata",
    "lat": 12.2192934,
    "lng": -68.3521324,
    "difficulty": "Intermediate",
    "maxDepth": 25,
    "entryType": "Shore",
    "siteType": "Reef",
    "ref": null,
    "osmId": 663869440,
    "addedBy": "jbunderwater_ai_perplexity",
    "filename": "karpata.md"
  },
  {
    "name": "La Denia's Leap",
    "lat": 12.2181417,
    "lng": -68.3481483,
    "difficulty": "Intermediate",
    "maxDepth": 25,
    "entryType": "Shore",
    "siteType": "Reef",
    "ref": null,
    "osmId": 663869441,
    "addedBy": "jbunderwater_ai_perplexity",
    "filename": "la-denia's-leap.md"
  },
  {
    "name": "La Machaca",
    "lat": 12.171676,
    "lng": -68.2893863,
    "difficulty": "Intermediate",
    "maxDepth": 25,
    "entryType": "Shore",
    "siteType": "Reef",
    "ref": null,
    "osmId": 635094207,
    "addedBy": "jbunderwater_ai_perplexity",
    "filename": "la-machaca.md"
  },
  {
    "name": "Larry's Lair",
    "lat": 12.0952821,
    "lng": -68.2840519,
    "difficulty": "Intermediate",
    "maxDepth": 25,
    "entryType": "Shore",
    "siteType": "Reef",
    "ref": null,
    "osmId": 663869410,
    "addedBy": "jbunderwater_ai_perplexity",
    "filename": "larry's-lair.md"
  },
  {
    "name": "Lighthouse Point",
    "lat": 12.1139501,
    "lng": -68.2952067,
    "difficulty": "Intermediate",
    "maxDepth": 30,
    "entryType": "Shore",
    "siteType": "Reef",
    "ref": null,
    "osmId": 663869398,
    "addedBy": "jbunderwater_ai_perplexity",
    "filename": "lighthouse-point.md"
  },
  {
    "name": "Margate Bay",
    "lat": 12.0513405,
    "lng": -68.2722056,
    "difficulty": "Beginner",
    "maxDepth": 18,
    "entryType": "Shore",
    "siteType": "Reef",
    "ref": null,
    "osmId": 663869400,
    "addedBy": "jbunderwater_ai_perplexity",
    "filename": "margate-bay.md"
  },
  {
    "name": "Mi Cas",
    "lat": 12.1549049,
    "lng": -68.2789411,
    "difficulty": "Beginner",
    "maxDepth": 18,
    "entryType": "Shore",
    "siteType": "Reef",
    "ref": null,
    "osmId": 635094202,
    "addedBy": "jbunderwater_ai_perplexity",
    "filename": "mi-cas.md"
  },
  {
    "name": "Nukove",
    "lat": 12.2407008,
    "lng": -68.4128282,
    "difficulty": "Intermediate",
    "maxDepth": 30,
    "entryType": "Shore",
    "siteType": "Reef",
    "ref": null,
    "osmId": 663869422,
    "addedBy": "jbunderwater_ai_perplexity",
    "filename": "nukove.md"
  },
  {
    "name": "Oil Slick Leap",
    "lat": 12.2001711,
    "lng": -68.308717,
    "difficulty": "Intermediate",
    "maxDepth": 18,
    "entryType": "Shore",
    "siteType": "Reef, wall",
    "ref": null,
    "osmId": 663869425,
    "addedBy": "jbunderwater_ai_perplexity",
    "filename": "oil-slick-leap.md"
  },
  {
    "name": "Pink Beach",
    "lat": 12.0628465,
    "lng": -68.2822351,
    "difficulty": "Beginner",
    "maxDepth": 18,
    "entryType": "Shore",
    "siteType": "Reef",
    "ref": null,
    "osmId": 663869404,
    "addedBy": "jbunderwater_ai_perplexity",
    "filename": "pink-beach.md"
  },
  {
    "name": "Playa Benge",
    "lat": 12.2902417,
    "lng": -68.4119809,
    "difficulty": "Beginner",
    "maxDepth": 18,
    "entryType": "Shore",
    "siteType": "Reef",
    "ref": null,
    "osmId": 663869420,
    "addedBy": "jbunderwater_ai_perplexity",
    "filename": "playa-benge.md"
  },
  {
    "name": "Playa Frans",
    "lat": 12.245742,
    "lng": -68.4141402,
    "difficulty": "Beginner",
    "maxDepth": 18,
    "entryType": "Shore",
    "siteType": "Reef",
    "ref": null,
    "osmId": 1420984806,
    "addedBy": "jbunderwater_ai_perplexity",
    "filename": "playa-frans.md"
  },
  {
    "name": "Playa Funchi",
    "lat": 12.28223,
    "lng": -68.4140883,
    "difficulty": "Beginner",
    "maxDepth": 18,
    "entryType": "Shore",
    "siteType": "Reef",
    "ref": null,
    "osmId": 663869421,
    "addedBy": "jbunderwater_ai_perplexity",
    "filename": "playa-funchi.md"
  },
  {
    "name": "Punt Vierkant",
    "lat": 12.108785,
    "lng": -68.291505,
    "difficulty": "Beginner",
    "maxDepth": 18,
    "entryType": "Shore",
    "siteType": "Reef",
    "ref": null,
    "osmId": 663869399,
    "addedBy": "jbunderwater_ai_perplexity",
    "filename": "punt-vierkant.md"
  },
  {
    "name": "Red Beryl",
    "lat": 12.0466404,
    "lng": -68.2685291,
    "difficulty": "Intermediate",
    "maxDepth": 25,
    "entryType": "both",
    "siteType": "Reef",
    "ref": null,
    "osmId": 663869407,
    "addedBy": "jbunderwater_ai_perplexity",
    "filename": "red-beryl.md"
  },
  {
    "name": "Red Slave",
    "lat": 12.0260699,
    "lng": -68.2515176,
    "difficulty": "Intermediate",
    "maxDepth": 25,
    "entryType": "Shore",
    "siteType": "Reef",
    "ref": null,
    "osmId": 663869397,
    "addedBy": "jbunderwater_ai_perplexity",
    "filename": "red-slave.md"
  },
  {
    "name": "Reef Scientifico",
    "lat": 12.1713556,
    "lng": -68.2892583,
    "difficulty": "Intermediate",
    "maxDepth": 25,
    "entryType": "Shore",
    "siteType": "Reef",
    "ref": null,
    "osmId": 663869438,
    "addedBy": "jbunderwater_ai_perplexity",
    "filename": "reef-scientifico.md"
  },
  {
    "name": "Salt City",
    "lat": 12.079695,
    "lng": -68.2806859,
    "difficulty": "Beginner",
    "maxDepth": 18,
    "entryType": "Shore",
    "siteType": "Reef",
    "ref": null,
    "osmId": 663869403,
    "addedBy": "jbunderwater_ai_perplexity",
    "filename": "salt-city.md"
  },
  {
    "name": "Salt Pier",
    "lat": 12.0835942,
    "lng": -68.2819519,
    "difficulty": "Beginner",
    "maxDepth": 15,
    "entryType": "Shore",
    "siteType": "pier / wreck",
    "ref": null,
    "osmId": 663869401,
    "addedBy": "jbunderwater_ai_perplexity",
    "filename": "salt-pier.md"
  },
  {
    "name": "Soft Coral Garden (unmarked site)",
    "lat": 12.0334365,
    "lng": -68.2604963,
    "difficulty": "Intermediate",
    "maxDepth": 25,
    "entryType": "Shore",
    "siteType": "Reef",
    "ref": null,
    "osmId": 11333668406,
    "addedBy": "jbunderwater_ai_perplexity",
    "filename": "soft-coral-garden-(unmarked-site).md"
  },
  {
    "name": "Something Special",
    "lat": 12.1613822,
    "lng": -68.2838525,
    "difficulty": "Intermediate",
    "maxDepth": 25,
    "entryType": "Shore",
    "siteType": "Reef",
    "ref": null,
    "osmId": 635942336,
    "addedBy": "jbunderwater_ai_perplexity",
    "filename": "something-special.md"
  },
  {
    "name": "Sweet Dreams",
    "lat": 12.0349171,
    "lng": -68.2627409,
    "difficulty": "Intermediate",
    "maxDepth": 25,
    "entryType": "Shore",
    "siteType": "Reef",
    "ref": null,
    "osmId": 663869395,
    "addedBy": "jbunderwater_ai_perplexity",
    "filename": "sweet-dreams.md"
  },
  {
    "name": "Taylor Made",
    "lat": 12.2230317,
    "lng": -68.4036763,
    "difficulty": "Beginner",
    "maxDepth": 20,
    "entryType": "Shore",
    "siteType": "Reef",
    "ref": null,
    "osmId": 854130146,
    "addedBy": "jbunderwater_ai_perplexity",
    "filename": "taylor-made.md"
  },
  {
    "name": "Te Amo Beach",
    "lat": 12.1345835,
    "lng": -68.2797913,
    "difficulty": "Beginner",
    "maxDepth": 18,
    "entryType": "Shore",
    "siteType": "Reef",
    "ref": null,
    "osmId": 1188151213,
    "addedBy": "jbunderwater_ai_perplexity",
    "filename": "te-amo-beach.md"
  },
  {
    "name": "The Lake",
    "lat": 12.1071283,
    "lng": -68.29,
    "difficulty": "Beginner",
    "maxDepth": 12,
    "entryType": "Shore",
    "siteType": "Reef",
    "ref": null,
    "osmId": 663869417,
    "addedBy": "jbunderwater_ai_perplexity",
    "filename": "the-lake.md"
  },
  {
    "name": "The Rock",
    "lat": 12.0760025,
    "lng": -68.2799587,
    "difficulty": "Intermediate",
    "maxDepth": 25,
    "entryType": "Shore",
    "siteType": "Reef",
    "ref": null,
    "osmId": 1420984809,
    "addedBy": "jbunderwater_ai_perplexity",
    "filename": "the-rock.md"
  },
  {
    "name": "Tori's Reef",
    "lat": 12.0701968,
    "lng": -68.2805412,
    "difficulty": "Beginner",
    "maxDepth": 18,
    "entryType": "Shore",
    "siteType": "Reef",
    "ref": null,
    "osmId": 663869405,
    "addedBy": "jbunderwater_ai_perplexity",
    "filename": "tori's-reef.md"
  },
  {
    "name": "Vista Blue",
    "lat": 12.0386524,
    "lng": -68.2648116,
    "difficulty": "Intermediate",
    "maxDepth": 25,
    "entryType": "Shore",
    "siteType": "Reef",
    "ref": null,
    "osmId": 663869396,
    "addedBy": "jbunderwater_ai_perplexity",
    "filename": "vista-blue.md"
  },
  {
    "name": "Wayaka 2",
    "lat": 12.2696116,
    "lng": -68.4139081,
    "difficulty": "Intermediate",
    "maxDepth": 25,
    "entryType": "Shore",
    "siteType": "Reef",
    "ref": null,
    "osmId": 4437663289,
    "addedBy": "jbunderwater_ai_perplexity",
    "filename": "wayaka-2.md"
  },
  {
    "name": "Weber's Joy",
    "lat": 12.2065395,
    "lng": -68.3165738,
    "difficulty": "Beginner",
    "maxDepth": 18,
    "entryType": "Shore",
    "siteType": "Reef",
    "ref": null,
    "osmId": 636400689,
    "addedBy": "jbunderwater_ai_perplexity",
    "filename": "weber's-joy.md"
  },
  {
    "name": "White Hole",
    "lat": 12.0940583,
    "lng": -68.2280778,
    "difficulty": "Intermediate",
    "maxDepth": 30,
    "entryType": "Shore",
    "siteType": "Reef / wall",
    "ref": null,
    "osmId": 663869411,
    "addedBy": "jbunderwater_ai_perplexity",
    "filename": "white-hole.md"
  },
  {
    "name": "White Slave",
    "lat": 12.0575572,
    "lng": -68.2812043,
    "difficulty": "Intermediate",
    "maxDepth": 25,
    "entryType": "Shore",
    "siteType": "Reef",
    "ref": null,
    "osmId": 663869408,
    "addedBy": "jbunderwater_ai_perplexity",
    "filename": "white-slave.md"
  },
  {
    "name": "Willemstoren Lighthouse",
    "lat": 12.0276628,
    "lng": -68.2367651,
    "difficulty": "Beginner",
    "maxDepth": 18,
    "entryType": "Shore",
    "siteType": "Reef",
    "ref": null,
    "osmId": 663869394,
    "addedBy": "jbunderwater_ai_perplexity",
    "filename": "willemstoren-lighthouse.md"
  },
  {
    "name": "Windsock",
    "lat": 12.1333083,
    "lng": -68.2816616,
    "difficulty": "Beginner",
    "maxDepth": 18,
    "entryType": "Shore",
    "siteType": "Reef",
    "ref": null,
    "osmId": 663869430,
    "addedBy": "jbunderwater_ai_perplexity",
    "filename": "windsock.md"
  },
  {
    "name": "Yellow Hut (unmarked site)",
    "lat": 12.0311599,
    "lng": -68.2562156,
    "difficulty": "Beginner",
    "maxDepth": 18,
    "entryType": "Shore",
    "siteType": "Reef",
    "ref": null,
    "osmId": 11333668405,
    "addedBy": "jbunderwater_ai_perplexity",
    "filename": "yellow-hut-(unmarked-site).md"
  }
]