[
  {
    "name": "1000 Steps",
    "filename": "1000-steps.md",
    "lat": 12.2106695,
    "lng": -68.3217112,
    "difficulty": "Intermediate",
    "maxDepth": 30,
    "entryType": "shore",
    "siteType": "beach",
    "ref": "16",
    "osmId": 0
  },
  {
    "name": "Oil Slick Leap",
    "filename": "oil-slick-leap.md",
    "lat": 12.20028,
    "lng": -68.30861,
    "difficulty": "Advanced",
    "maxDepth": 30,
    "entryType": "shore",
    "siteType": "reef",
    "ref": "",
    "osmId": 0
  },
  {
    "name": "Hilma Hooker",
    "filename": "hilma-hooker.md",
    "lat": 12.10502,
    "lng": -68.28852,
    "difficulty": "Advanced",
    "maxDepth": 30,
    "entryType": "shore",
    "siteType": "wreck",
    "ref": "",
    "osmId": 0
  },
  {
    "name": "Karpata",
    "lat": 12.21939,
    "lng": -68.35199,
    "filename": "karpata.md",
    "infoLink": "https://www.bonairepros.com/dive-sites/karpata",
    "addedBy": "sample-data",
    "difficulty": "beginner",
    "maxDepth": 30,
    "visibility": "Excellent"
  },
  {
    "name": "Bari Reef",
    "filename": "bari-reef.md",
    "lat": 12.1674719,
    "lng": -68.2872007,
    "difficulty": "Intermediate",
    "maxDepth": 30,
    "entryType": "shore",
    "siteType": "reef",
    "ref": "30",
    "osmId": 313862678
  },
  {
    "name": "Boy Scout",
    "filename": "boy-scout.md",
    "lat": 12.1589381,
    "lng": -68.2810107,
    "difficulty": "Intermediate",
    "maxDepth": 30,
    "entryType": "shore",
    "siteType": "reef",
    "ref": "",
    "osmId": 635094192
  },
  {
    "name": "Mi Cas",
    "filename": "mi-cas.md",
    "lat": 12.1549049,
    "lng": -68.2789411,
    "difficulty": "Intermediate",
    "maxDepth": 30,
    "entryType": "shore",
    "siteType": "reef",
    "ref": "",
    "osmId": 635094202
  },
  {
    "name": "Buddy's Reef",
    "filename": "buddys-reef.md",
    "lat": 12.1710254,
    "lng": -68.288822,
    "difficulty": "Intermediate",
    "maxDepth": 30,
    "entryType": "shore",
    "siteType": "reef",
    "ref": "",
    "osmId": 635094204
  },
  {
    "name": "La Machaca",
    "filename": "la-machaca.md",
    "lat": 12.171676,
    "lng": -68.2893863,
    "difficulty": "Beginner",
    "maxDepth": 10,
    "entryType": "shore",
    "siteType": "wreck",
    "ref": "",
    "osmId": 635094207
  },
  {
    "name": "English Garden",
    "filename": "english-garden.md",
    "lat": 12.0597582,
    "lng": -68.2822176,
    "difficulty": "Intermediate",
    "maxDepth": 30,
    "entryType": "shore",
    "siteType": "reef",
    "ref": "",
    "osmId": 635881767
  },
  {
    "name": "Alice in Wonderland",
    "filename": "alice-in-wonderland.md",
    "lat": 12.0998035,
    "lng": -68.2852927,
    "difficulty": "Intermediate",
    "maxDepth": 30,
    "entryType": "shore",
    "siteType": "reef",
    "ref": "",
    "osmId": 635881804
  },
  {
    "name": "Corporal Meiss",
    "filename": "corporal-meiss.md",
    "lat": 12.1308642,
    "lng": -68.2846951,
    "difficulty": "Intermediate",
    "maxDepth": 30,
    "entryType": "shore",
    "siteType": "reef",
    "ref": "",
    "osmId": 635881836
  },
  {
    "name": "Something Special",
    "filename": "something-special.md",
    "lat": 12.1613822,
    "lng": -68.2838525,
    "difficulty": "Intermediate",
    "maxDepth": 30,
    "entryType": "shore",
    "siteType": "reef",
    "ref": "",
    "osmId": 635942336
  },
  {
    "name": "Andrea II",
    "filename": "andrea-ii.md",
    "lat": 12.1913607,
    "lng": -68.2978203,
    "difficulty": "Intermediate",
    "maxDepth": 30,
    "entryType": "shore",
    "siteType": "reef",
    "ref": "",
    "osmId": 636400643
  },
  {
    "name": "Jeff Davis Memorial",
    "filename": "jeff-davis-memorial.md",
    "lat": 12.2049583,
    "lng": -68.3140546,
    "difficulty": "Intermediate",
    "maxDepth": 30,
    "entryType": "shore",
    "siteType": "reef",
    "ref": "",
    "osmId": 636400684
  },
  {
    "name": "Weber's Joy",
    "filename": "webers-joy.md",
    "lat": 12.2065395,
    "lng": -68.3165738,
    "difficulty": "Intermediate",
    "maxDepth": 30,
    "entryType": "shore",
    "siteType": "reef",
    "ref": "",
    "osmId": 636400689
  },
  {
    "name": "Front Porch",
    "filename": "front-porch.md",
    "lat": 12.1666879,
    "lng": -68.2871264,
    "difficulty": "Intermediate",
    "maxDepth": 30,
    "entryType": "shore",
    "siteType": "reef",
    "ref": "",
    "osmId": 639106013
  },
  {
    "name": "Willemstoren Lighthouse",
    "filename": "willemstoren-lighthouse.md",
    "lat": 12.0276628,
    "lng": -68.2367651,
    "difficulty": "Intermediate",
    "maxDepth": 30,
    "entryType": "shore",
    "siteType": "reef",
    "ref": "",
    "osmId": 663869394
  },
  {
    "name": "Sweet Dreams",
    "filename": "sweet-dreams.md",
    "lat": 12.0349171,
    "lng": -68.2627409,
    "difficulty": "Intermediate",
    "maxDepth": 30,
    "entryType": "shore",
    "siteType": "reef",
    "ref": "",
    "osmId": 663869395
  },
  {
    "name": "Vista Blue",
    "filename": "vista-blue.md",
    "lat": 12.0386524,
    "lng": -68.2648116,
    "difficulty": "Intermediate",
    "maxDepth": 30,
    "entryType": "shore",
    "siteType": "reef",
    "ref": "",
    "osmId": 663869396
  },
  {
    "name": "Red Slave",
    "filename": "red-slave.md",
    "lat": 12.0260699,
    "lng": -68.2515176,
    "difficulty": "Intermediate",
    "maxDepth": 30,
    "entryType": "shore",
    "siteType": "wreck",
    "ref": "",
    "osmId": 663869397
  },
  {
    "name": "Lighthouse Point",
    "filename": "lighthouse-point.md",
    "lat": 12.1139501,
    "lng": -68.2952067,
    "difficulty": "Intermediate",
    "maxDepth": 30,
    "entryType": "shore",
    "siteType": "reef",
    "ref": "",
    "osmId": 663869398
  },
  {
    "name": "Punt Vierkant",
    "filename": "punt-vierkant.md",
    "lat": 12.108785,
    "lng": -68.291505,
    "difficulty": "Intermediate",
    "maxDepth": 30,
    "entryType": "shore",
    "siteType": "reef",
    "ref": "",
    "osmId": 663869399
  },
  {
    "name": "Margate Bay",
    "filename": "margate-bay.md",
    "lat": 12.0513405,
    "lng": -68.2722056,
    "difficulty": "Intermediate",
    "maxDepth": 30,
    "entryType": "shore",
    "siteType": "reef",
    "ref": "",
    "osmId": 663869400
  },
  {
    "name": "Salt Pier",
    "filename": "salt-pier.md",
    "lat": 12.0835942,
    "lng": -68.2819519,
    "difficulty": "Intermediate",
    "maxDepth": 30,
    "entryType": "shore",
    "siteType": "reef",
    "ref": "",
    "osmId": 663869401
  },
  {
    "name": "Invisibles",
    "filename": "invisibles.md",
    "lat": 12.077631,
    "lng": -68.2801815,
    "difficulty": "Intermediate",
    "maxDepth": 30,
    "entryType": "shore",
    "siteType": "reef",
    "ref": "",
    "osmId": 663869402
  },
  {
    "name": "Salt City",
    "filename": "salt-city.md",
    "lat": 12.079695,
    "lng": -68.2806859,
    "difficulty": "Intermediate",
    "maxDepth": 30,
    "entryType": "shore",
    "siteType": "reef",
    "ref": "",
    "osmId": 663869403
  },
  {
    "name": "Pink Beach",
    "filename": "pink-beach.md",
    "lat": 12.0628465,
    "lng": -68.2822351,
    "difficulty": "Intermediate",
    "maxDepth": 30,
    "entryType": "shore",
    "siteType": "reef",
    "ref": "",
    "osmId": 663869404
  },
  {
    "name": "Tori's Reef",
    "filename": "toris-reef.md",
    "lat": 12.0701968,
    "lng": -68.2805412,
    "difficulty": "Intermediate",
    "maxDepth": 30,
    "entryType": "shore",
    "siteType": "reef",
    "ref": "",
    "osmId": 663869405
  },
  {
    "name": "Atlantis",
    "filename": "atlantis.md",
    "lat": 12.0448994,
    "lng": -68.267482,
    "difficulty": "Intermediate",
    "maxDepth": 30,
    "entryType": "shore",
    "siteType": "reef",
    "ref": "",
    "osmId": 663869406
  },
  {
    "name": "Red Beryl",
    "filename": "red-beryl.md",
    "lat": 12.0466404,
    "lng": -68.2685291,
    "difficulty": "Intermediate",
    "maxDepth": 30,
    "entryType": "shore",
    "siteType": "reef",
    "ref": "",
    "osmId": 663869407
  },
  {
    "name": "White Slave",
    "filename": "white-slave.md",
    "lat": 12.0575572,
    "lng": -68.2812043,
    "difficulty": "Intermediate",
    "maxDepth": 30,
    "entryType": "shore",
    "siteType": "reef",
    "ref": "",
    "osmId": 663869408
  },
  {
    "name": "Aquarius",
    "filename": "aquarius.md",
    "lat": 12.0983883,
    "lng": -68.284795,
    "difficulty": "Intermediate",
    "maxDepth": 30,
    "entryType": "shore",
    "siteType": "reef",
    "ref": "",
    "osmId": 663869409
  },
  {
    "name": "Larry's Lair",
    "filename": "larrys-lair.md",
    "lat": 12.0952821,
    "lng": -68.2840519,
    "difficulty": "Intermediate",
    "maxDepth": 30,
    "entryType": "shore",
    "siteType": "reef",
    "ref": "",
    "osmId": 663869410
  },
  {
    "name": "White Hole",
    "filename": "white-hole.md",
    "lat": 12.0940583,
    "lng": -68.2280778,
    "difficulty": "Intermediate",
    "maxDepth": 30,
    "entryType": "shore",
    "siteType": "reef",
    "ref": "",
    "osmId": 663869411
  },
  {
    "name": "Jeannie's Glory",
    "filename": "jeannies-glory.md",
    "lat": 12.0867114,
    "lng": -68.282629,
    "difficulty": "Intermediate",
    "maxDepth": 30,
    "entryType": "shore",
    "siteType": "reef",
    "ref": "",
    "osmId": 663869412
  },
  {
    "name": "Bachelor's Beach",
    "filename": "bachelors-beach.md",
    "lat": 12.1255594,
    "lng": -68.2873207,
    "difficulty": "Intermediate",
    "maxDepth": 30,
    "entryType": "shore",
    "siteType": "reef",
    "ref": "",
    "osmId": 663869413
  },
  {
    "name": "Angel City",
    "filename": "angel-city.md",
    "lat": 12.1033916,
    "lng": -68.2872133,
    "difficulty": "Intermediate",
    "maxDepth": 30,
    "entryType": "shore",
    "siteType": "reef",
    "ref": "",
    "osmId": 663869415
  },
  {
    "name": "Cai",
    "filename": "cai.md",
    "lat": 12.1032167,
    "lng": -68.2224528,
    "difficulty": "Intermediate",
    "maxDepth": 30,
    "entryType": "shore",
    "siteType": "reef",
    "ref": "",
    "osmId": 663869416
  },
  {
    "name": "The Lake",
    "filename": "the-lake.md",
    "lat": 12.1071283,
    "lng": -68.29,
    "difficulty": "Intermediate",
    "maxDepth": 30,
    "entryType": "shore",
    "siteType": "reef",
    "ref": "",
    "osmId": 663869417
  },
  {
    "name": "Boka Slagbaai",
    "filename": "boka-slagbaai.md",
    "lat": 12.2646664,
    "lng": -68.4135635,
    "difficulty": "Intermediate",
    "maxDepth": 30,
    "entryType": "shore",
    "siteType": "reef",
    "ref": "",
    "osmId": 663869419
  },
  {
    "name": "Playa Benge",
    "filename": "playa-benge.md",
    "lat": 12.2902417,
    "lng": -68.4119809,
    "difficulty": "Intermediate",
    "maxDepth": 30,
    "entryType": "shore",
    "siteType": "reef",
    "ref": "",
    "osmId": 663869420
  },
  {
    "name": "Playa Funchi",
    "filename": "playa-funchi.md",
    "lat": 12.28223,
    "lng": -68.4140883,
    "difficulty": "Intermediate",
    "maxDepth": 30,
    "entryType": "shore",
    "siteType": "reef",
    "ref": "",
    "osmId": 663869421
  },
  {
    "name": "Nukove",
    "filename": "nukove.md",
    "lat": 12.2407008,
    "lng": -68.4128282,
    "difficulty": "Intermediate",
    "maxDepth": 30,
    "entryType": "shore",
    "siteType": "reef",
    "ref": "",
    "osmId": 663869422
  },
  {
    "name": "Calabas Reef",
    "filename": "calabas-reef.md",
    "lat": 12.1444535,
    "lng": -68.276667,
    "difficulty": "Intermediate",
    "maxDepth": 30,
    "entryType": "shore",
    "siteType": "reef",
    "ref": "",
    "osmId": 663869423
  },
  {
    "name": "Andrea I",
    "filename": "andrea-i.md",
    "lat": 12.188411,
    "lng": -68.296732,
    "difficulty": "Intermediate",
    "maxDepth": 30,
    "entryType": "shore",
    "siteType": "reef",
    "ref": "",
    "osmId": 663869426
  },
  {
    "name": "Boka di Tolo",
    "filename": "boka-di-tolo.md",
    "lat": 12.2152361,
    "lng": -68.3374389,
    "difficulty": "Intermediate",
    "maxDepth": 30,
    "entryType": "shore",
    "siteType": "reef",
    "ref": "",
    "osmId": 663869427
  },
  {
    "name": "Windsock",
    "filename": "windsock.md",
    "lat": 12.1333083,
    "lng": -68.2816616,
    "difficulty": "Intermediate",
    "maxDepth": 30,
    "entryType": "shore",
    "siteType": "reef",
    "ref": "",
    "osmId": 663869430
  },
  {
    "name": "Cliff",
    "filename": "cliff.md",
    "lat": 12.1733517,
    "lng": -68.2894267,
    "difficulty": "Intermediate",
    "maxDepth": 30,
    "entryType": "shore",
    "siteType": "reef",
    "ref": "",
    "osmId": 663869433
  },
  {
    "name": "Reef Scientifico",
    "filename": "reef-scientifico.md",
    "lat": 12.1713556,
    "lng": -68.2892583,
    "difficulty": "Intermediate",
    "maxDepth": 30,
    "entryType": "shore",
    "siteType": "reef",
    "ref": "",
    "osmId": 663869438
  },
  {
    "name": "La Denia's Leap",
    "filename": "la-denias-leap.md",
    "lat": 12.2181417,
    "lng": -68.3481483,
    "difficulty": "Intermediate",
    "maxDepth": 30,
    "entryType": "shore",
    "siteType": "reef",
    "ref": "",
    "osmId": 663869441
  },
  {
    "name": "Boka Bartol",
    "filename": "boka-bartol.md",
    "lat": 12.3048091,
    "lng": -68.3975477,
    "difficulty": "Intermediate",
    "maxDepth": 30,
    "entryType": "shore",
    "siteType": "reef",
    "ref": "",
    "osmId": 663869442
  },
  {
    "name": "18th Palm",
    "filename": "18th-palm.md",
    "lat": 12.138643,
    "lng": -68.2765096,
    "difficulty": "Intermediate",
    "maxDepth": 30,
    "entryType": "shore",
    "siteType": "reef",
    "ref": "",
    "osmId": 854130076
  },
  {
    "name": "Carel's Vision",
    "filename": "carels-vision.md",
    "lat": 12.230709,
    "lng": -68.4127451,
    "difficulty": "Intermediate",
    "maxDepth": 30,
    "entryType": "shore",
    "siteType": "reef",
    "ref": "",
    "osmId": 854130125
  },
  {
    "name": "Taylor Made",
    "filename": "taylor-made.md",
    "lat": 12.2230317,
    "lng": -68.4036763,
    "difficulty": "Intermediate",
    "maxDepth": 30,
    "entryType": "shore",
    "siteType": "reef",
    "ref": "",
    "osmId": 854130146
  },
  {
    "name": "Playa Frans",
    "filename": "playa-frans.md",
    "lat": 12.245742,
    "lng": -68.4141402,
    "difficulty": "Intermediate",
    "maxDepth": 30,
    "entryType": "shore",
    "siteType": "reef",
    "ref": "",
    "osmId": 1420984806
  },
  {
    "name": "The Rock",
    "filename": "the-rock.md",
    "lat": 12.0760025,
    "lng": -68.2799587,
    "difficulty": "Intermediate",
    "maxDepth": 30,
    "entryType": "shore",
    "siteType": "reef",
    "ref": "",
    "osmId": 1420984809
  },
  {
    "name": "Windjammer",
    "filename": "windjammer.md",
    "lat": 12.2202758,
    "lng": -68.3753404,
    "difficulty": "Intermediate",
    "maxDepth": 30,
    "entryType": "shore",
    "siteType": "reef",
    "ref": "",
    "osmId": 2625769975
  },
  {
    "name": "Chachacha Beach",
    "filename": "chachacha-beach.md",
    "lat": 12.1460122,
    "lng": -68.276318,
    "difficulty": "Intermediate",
    "maxDepth": 30,
    "entryType": "shore",
    "siteType": "beach",
    "ref": "",
    "osmId": 4017913908
  },
  {
    "name": "Bisé Morto",
    "filename": "bisé-morto.md",
    "lat": 12.2935303,
    "lng": -68.4132212,
    "difficulty": "Intermediate",
    "maxDepth": 30,
    "entryType": "shore",
    "siteType": "reef",
    "ref": "",
    "osmId": 4200486589
  },
  {
    "name": "Wayaka 2",
    "filename": "wayaka-2.md",
    "lat": 12.2696116,
    "lng": -68.4139081,
    "difficulty": "Intermediate",
    "maxDepth": 30,
    "entryType": "shore",
    "siteType": "reef",
    "ref": "",
    "osmId": 4437663289
  },
  {
    "name": "Boka Katuna",
    "filename": "boka-katuna.md",
    "lat": 12.2997359,
    "lng": -68.4025266,
    "difficulty": "Intermediate",
    "maxDepth": 30,
    "entryType": "shore",
    "siteType": "reef",
    "ref": "",
    "osmId": 9523960359
  },
  {
    "name": "Hidden Beach (unmarked site)",
    "filename": "hidden-beach-unmarked-site.md",
    "lat": 12.0323197,
    "lng": -68.2581378,
    "difficulty": "Intermediate",
    "maxDepth": 30,
    "entryType": "shore",
    "siteType": "reef",
    "ref": "",
    "osmId": 11333668404
  },
  {
    "name": "Yellow Hut (unmarked site)",
    "filename": "yellow-hut-unmarked-site.md",
    "lat": 12.0311599,
    "lng": -68.2562156,
    "difficulty": "Intermediate",
    "maxDepth": 30,
    "entryType": "shore",
    "siteType": "reef",
    "ref": "",
    "osmId": 11333668405
  },
  {
    "name": "Soft Coral Garden (unmarked site)",
    "filename": "soft-coral-garden-unmarked-site.md",
    "lat": 12.0334365,
    "lng": -68.2604963,
    "difficulty": "Intermediate",
    "maxDepth": 30,
    "entryType": "shore",
    "siteType": "reef",
    "ref": "",
    "osmId": 11333668406
  },
  {
    "name": "Te Amo Beach",
    "filename": "te-amo-beach.md",
    "lat": 12.1345835,
    "lng": -68.2797913,
    "difficulty": "Intermediate",
    "maxDepth": 30,
    "entryType": "shore",
    "siteType": "beach",
    "ref": "",
    "osmId": 1188151213
  },
  {
    "name": "New Dive Site",
    "lat": "0.0",
    "lng": "0.0",
    "filename": "test.md",
    "addedBy": "your-username",
    "difficulty": "Beginner",
    "maxDepth": "30"
  }
]