[
  {
    "name": "El Vencedor",
    "filename": "el-vencedor.md",
    "lat": 23.442,
    "lng": -109.424,
    "difficulty": "Intermediate",
    "maxDepth": 14,
    "entryType": "boat",
    "siteType": "wreck",
    "ref": "",
    "osmId": null
  },
  {
    "name": "El Bajo",
    "filename": "el-bajo.md",
    "lat": 23.448,
    "lng": -109.42,
    "difficulty": "Intermediate",
    "maxDepth": 18,
    "entryType": "boat",
    "siteType": "reef",
    "ref": "",
    "osmId": null
  },
  {
    "name": "La Esperanza",
    "filename": "la-esperanza.md",
    "lat": 23.455,
    "lng": -109.415,
    "difficulty": "Advanced",
    "maxDepth": 30,
    "entryType": "boat",
    "siteType": "reef",
    "ref": "",
    "osmId": null
  },
  {
    "name": "Las Navajas",
    "filename": "las-navajas.md",
    "lat": 23.435,
    "lng": -109.428,
    "difficulty": "Intermediate",
    "maxDepth": 15,
    "entryType": "boat",
    "siteType": "reef",
    "ref": "",
    "osmId": null
  },
  {
    "name": "El Cantil",
    "filename": "el-cantil.md",
    "lat": 23.44,
    "lng": -109.419,
    "difficulty": "Intermediate",
    "maxDepth": 15,
    "entryType": "boat",
    "siteType": "wall",
    "ref": "",
    "osmId": null
  },
  {
    "name": "Los Morros",
    "filename": "los-morros.md",
    "lat": 23.446,
    "lng": -109.421,
    "difficulty": "Intermediate",
    "maxDepth": 18,
    "entryType": "boat",
    "siteType": "reef",
    "ref": "",
    "osmId": null
  },
  {
    "name": "El Islote",
    "filename": "el-islote.md",
    "lat": 23.432,
    "lng": -109.426,
    "difficulty": "Beginner",
    "maxDepth": 18,
    "entryType": "boat",
    "siteType": "pinnacle",
    "ref": "",
    "osmId": null
  },
  {
    "name": "Las Casitas",
    "filename": "las-casitas.md",
    "lat": 23.438,
    "lng": -109.423,
    "difficulty": "Beginner",
    "maxDepth": 15,
    "entryType": "boat",
    "siteType": "cave",
    "ref": "",
    "osmId": null
  },
  {
    "name": "La Lobera",
    "filename": "la-lobera.md",
    "lat": 23.38,
    "lng": -109.41,
    "difficulty": "Beginner",
    "maxDepth": 8,
    "entryType": "boat",
    "siteType": "reef",
    "ref": "",
    "osmId": null
  },
  {
    "name": "El Cien",
    "filename": "el-cien.md",
    "lat": 23.458,
    "lng": -109.412,
    "difficulty": "Advanced",
    "maxDepth": 30,
    "entryType": "boat",
    "siteType": "reef",
    "ref": "",
    "osmId": null
  },
  {
    "name": "Los Chopitos",
    "filename": "los-chopitos.md",
    "lat": 23.437,
    "lng": -109.425,
    "difficulty": "Beginner",
    "maxDepth": 10,
    "entryType": "boat",
    "siteType": "reef",
    "ref": "",
    "osmId": null
  },
  {
    "name": "Meros",
    "filename": "meros.md",
    "lat": 23.45,
    "lng": -109.418,
    "difficulty": "Intermediate",
    "maxDepth": 18,
    "entryType": "boat",
    "siteType": "pinnacle",
    "ref": "",
    "osmId": null
  }
]