[
  {
    "name": "Mpunguti Marine Reserve",
    "filename": "mpunguti-marine-reserve.md",
    "lat": -4.68,
    "lng": 39.39,
    "difficulty": "Beginner",
    "maxDepth": 15,
    "entryType": "boat",
    "siteType": "reef",
    "ref": "",
    "osmId": null
  },
  {
    "name": "Watamu Marine Park",
    "filename": "watamu-marine-park.md",
    "lat": -3.37,
    "lng": 40.02,
    "difficulty": "Beginner",
    "maxDepth": 12,
    "entryType": "boat",
    "siteType": "reef",
    "ref": "",
    "osmId": null
  },
  {
    "name": "Diani Reef",
    "filename": "diani-reef.md",
    "lat": -4.34,
    "lng": 39.6,
    "difficulty": "Beginner",
    "maxDepth": 14,
    "entryType": "boat",
    "siteType": "reef",
    "ref": "",
    "osmId": null
  },
  {
    "name": "MV Dania Wreck",
    "filename": "mv-dania-wreck.md",
    "lat": -4.05,
    "lng": 39.7,
    "difficulty": "Advanced",
    "maxDepth": 30,
    "entryType": "boat",
    "siteType": "wreck",
    "ref": "",
    "osmId": null
  },
  {
    "name": "Mtwapa Creek",
    "filename": "mtwapa-creek.md",
    "lat": -3.95,
    "lng": 39.75,
    "difficulty": "Beginner",
    "maxDepth": 8,
    "entryType": "shore",
    "siteType": "reef",
    "ref": "",
    "osmId": null
  },
  {
    "name": "Nyali Reef",
    "filename": "nyali-reef.md",
    "lat": -4.02,
    "lng": 39.71,
    "difficulty": "Intermediate",
    "maxDepth": 16,
    "entryType": "boat",
    "siteType": "reef",
    "ref": "",
    "osmId": null
  },
  {
    "name": "Shimoni Caves Reef",
    "filename": "shimoni-caves-reef.md",
    "lat": -4.65,
    "lng": 39.38,
    "difficulty": "Intermediate",
    "maxDepth": 20,
    "entryType": "boat",
    "siteType": "cave",
    "ref": "",
    "osmId": null
  },
  {
    "name": "Sita Reef",
    "filename": "sita-reef.md",
    "lat": -4.7,
    "lng": 39.36,
    "difficulty": "Intermediate",
    "maxDepth": 22,
    "entryType": "boat",
    "siteType": "reef",
    "ref": "",
    "osmId": null
  },
  {
    "name": "Funzi Island",
    "filename": "funzi-island.md",
    "lat": -4.56,
    "lng": 39.42,
    "difficulty": "Beginner",
    "maxDepth": 10,
    "entryType": "boat",
    "siteType": "reef",
    "ref": "",
    "osmId": null
  },
  {
    "name": "Tewa Caves",
    "filename": "tewa-caves.md",
    "lat": -3.38,
    "lng": 40.03,
    "difficulty": "Intermediate",
    "maxDepth": 18,
    "entryType": "boat",
    "siteType": "cave",
    "ref": "",
    "osmId": null
  }
]