[
  {
    "name": "Mpunguti Marine Reserve",
    "filename": "mpunguti-marine-reserve.md",
    "lat": -4.6595,
    "lng": 39.3806,
    "difficulty": "Beginner",
    "maxDepth": 20,
    "entryType": "boat",
    "siteType": "reef",
    "ref": "",
    "osmId": null
  },
  {
    "name": "Watamu Marine Park",
    "filename": "watamu-marine-park.md",
    "lat": -3.3673,
    "lng": 40.0098,
    "difficulty": "Beginner",
    "maxDepth": 24,
    "entryType": "boat",
    "siteType": "reef",
    "ref": "",
    "osmId": null
  },
  {
    "name": "Diani Reef",
    "filename": "diani-reef.md",
    "lat": -4.3555,
    "lng": 39.5764,
    "difficulty": "Beginner",
    "maxDepth": 16,
    "entryType": "boat",
    "siteType": "reef",
    "ref": "",
    "osmId": null
  },
  {
    "name": "MV Dania Wreck",
    "filename": "mv-dania-wreck.md",
    "lat": -4.0177,
    "lng": 39.7743,
    "difficulty": "Advanced",
    "maxDepth": 30,
    "entryType": "boat",
    "siteType": "wreck",
    "ref": "",
    "osmId": null
  },
  {
    "name": "Mtwapa Creek",
    "filename": "mtwapa-creek.md",
    "lat": -3.9167,
    "lng": 39.75,
    "difficulty": "Advanced",
    "maxDepth": 23,
    "entryType": "boat",
    "siteType": "drift",
    "ref": "",
    "osmId": null
  },
  {
    "name": "Nyali Reef",
    "filename": "nyali-reef.md",
    "lat": -4.0623,
    "lng": 39.7123,
    "difficulty": "Beginner",
    "maxDepth": 20,
    "entryType": "boat",
    "siteType": "reef",
    "ref": "",
    "osmId": null
  },
  {
    "name": "Shimoni Caves Reef",
    "filename": "shimoni-caves-reef.md",
    "lat": -4.648,
    "lng": 39.382,
    "difficulty": "Intermediate",
    "maxDepth": 20,
    "entryType": "boat",
    "siteType": "cave",
    "ref": "",
    "osmId": null
  },
  {
    "name": "Sita Reef",
    "filename": "sita-reef.md",
    "lat": -4.7167,
    "lng": 39.3667,
    "difficulty": "Intermediate",
    "maxDepth": 18,
    "entryType": "boat",
    "siteType": "reef",
    "ref": "",
    "osmId": null
  },
  {
    "name": "Funzi Island",
    "filename": "funzi-island.md",
    "lat": -4.5651,
    "lng": 39.4478,
    "difficulty": "Beginner",
    "maxDepth": 16,
    "entryType": "boat",
    "siteType": "reef",
    "ref": "",
    "osmId": null
  },
  {
    "name": "Tewa Caves",
    "filename": "tewa-caves.md",
    "lat": -3.36,
    "lng": 40.03,
    "difficulty": "Beginner",
    "maxDepth": 24,
    "entryType": "boat",
    "siteType": "cave",
    "ref": "",
    "osmId": null
  }
]
