[
  {
    "name": "Hastings Reef",
    "filename": "hastings-reef.md",
    "lat": 54.062115,
    "lng": -132.5486784,
    "difficulty": "Advanced",
    "maxDepth": 25,
    "entryType": "boat",
    "siteType": "reef",
    "ref": "",
    "osmId": 3006129460
  },
  {
    "name": "Haswell Reef",
    "filename": "haswell-reef.md",
    "lat": 54.0467772,
    "lng": -132.5622524,
    "difficulty": "Advanced",
    "maxDepth": 24,
    "entryType": "boat",
    "siteType": "reef",
    "ref": "",
    "osmId": 3006129461
  },
  {
    "name": "Observatory Rock",
    "filename": "observatory-rock.md",
    "lat": 54.0054873,
    "lng": -132.5810912,
    "difficulty": "Advanced",
    "maxDepth": 26,
    "entryType": "boat",
    "siteType": "reef",
    "ref": "",
    "osmId": 3006129467
  },
  {
    "name": "Wimble Rocks",
    "filename": "wimble-rocks.md",
    "lat": 54.0252178,
    "lng": -132.1867517,
    "difficulty": "Advanced",
    "maxDepth": 23,
    "entryType": "boat",
    "siteType": "reef",
    "ref": "",
    "osmId": 3018633510
  },
  {
    "name": "Alert Rock",
    "filename": "alert-rock.md",
    "lat": 54.1849827,
    "lng": -132.9762767,
    "difficulty": "Advanced",
    "maxDepth": 25,
    "entryType": "boat",
    "siteType": "reef",
    "ref": "",
    "osmId": 3024829333
  },
  {
    "name": "Chanal Reef",
    "filename": "chanal-reef.md",
    "lat": 54.1883173,
    "lng": -133.0304704,
    "difficulty": "Advanced",
    "maxDepth": 24,
    "entryType": "boat",
    "siteType": "reef",
    "ref": "",
    "osmId": 3024829339
  },
  {
    "name": "Marchand Reef",
    "filename": "marchand-reef.md",
    "lat": 54.1797401,
    "lng": -133.0197148,
    "difficulty": "Advanced",
    "maxDepth": 26,
    "entryType": "boat",
    "siteType": "reef",
    "ref": "",
    "osmId": 3024829363
  },
  {
    "name": "Testlatlints Rock",
    "filename": "testlatlints-rock.md",
    "lat": 54.1887083,
    "lng": -132.9960287,
    "difficulty": "Advanced",
    "maxDepth": 25,
    "entryType": "boat",
    "siteType": "reef",
    "ref": "",
    "osmId": 3024829829
  },
  {
    "name": "MV Vashon",
    "filename": "mv-vashon.md",
    "lat": 54.9766101,
    "lng": -132.1090888,
    "difficulty": "Advanced",
    "maxDepth": 20,
    "entryType": "boat",
    "siteType": "wreck",
    "ref": "",
    "osmId": 4689742558
  },
  {
    "name": "Table Rock",
    "filename": "table-rock.md",
    "lat": 55.0213177,
    "lng": -162.2381493,
    "difficulty": "Advanced",
    "maxDepth": 24,
    "entryType": "boat",
    "siteType": "reef",
    "ref": "",
    "osmId": 5315845245
  },
  {
    "name": "Client Reefs",
    "filename": "client-reefs.md",
    "lat": 54.1064017,
    "lng": -130.3189445,
    "difficulty": "Advanced",
    "maxDepth": 25,
    "entryType": "boat",
    "siteType": "reef",
    "ref": "",
    "osmId": 5704027532
  },
  {
    "name": "Escape Reefs",
    "filename": "escape-reefs.md",
    "lat": 54.4658333,
    "lng": -130.4747222,
    "difficulty": "Advanced",
    "maxDepth": 23,
    "entryType": "boat",
    "siteType": "reef",
    "ref": "",
    "osmId": 5707922325
  },
  {
    "name": "Kipcke Rock",
    "filename": "kipcke-rock.md",
    "lat": 54.2508055,
    "lng": -130.9175572,
    "difficulty": "Advanced",
    "maxDepth": 26,
    "entryType": "boat",
    "siteType": "reef",
    "ref": "",
    "osmId": 5707922374
  },
  {
    "name": "Gatenby Rock",
    "filename": "gatenby-rock.md",
    "lat": 54.1236667,
    "lng": -133.14205,
    "difficulty": "Advanced",
    "maxDepth": 24,
    "entryType": "boat",
    "siteType": "reef",
    "ref": "",
    "osmId": 5729239763
  },
  {
    "name": "Harvey Rock",
    "filename": "harvey-rock.md",
    "lat": 54.2076167,
    "lng": -133.0368333,
    "difficulty": "Advanced",
    "maxDepth": 25,
    "entryType": "boat",
    "siteType": "reef",
    "ref": "",
    "osmId": 5729282195
  },
  {
    "name": "Douglas Rock",
    "filename": "douglas-rock.md",
    "lat": 54.1716167,
    "lng": -132.9524,
    "difficulty": "Advanced",
    "maxDepth": 26,
    "entryType": "boat",
    "siteType": "reef",
    "ref": "",
    "osmId": 5729282196
  },
  {
    "name": "Boat Graveyard",
    "filename": "boat-graveyard.md",
    "lat": 56.2535381,
    "lng": -134.6504016,
    "difficulty": "Advanced",
    "maxDepth": 18,
    "entryType": "boat",
    "siteType": "wreck",
    "ref": "",
    "osmId": 10312458191
  },
  {
    "name": "Grebe",
    "filename": "grebe.md",
    "lat": 60.542068,
    "lng": -145.7611338,
    "difficulty": "Advanced",
    "maxDepth": 15,
    "entryType": "boat",
    "siteType": "wreck",
    "ref": "",
    "osmId": 13016036474
  },
  {
    "name": "Polar Bear",
    "filename": "polar-bear.md",
    "lat": 60.5625654,
    "lng": -145.8054132,
    "difficulty": "Advanced",
    "maxDepth": 16,
    "entryType": "boat",
    "siteType": "wreck",
    "ref": "",
    "osmId": 13016036475
  },
  {
    "name": "Bligh Reef",
    "filename": "bligh-reef.md",
    "lat": 60.844151,
    "lng": -146.8777986,
    "difficulty": "Advanced",
    "maxDepth": 30,
    "entryType": "boat",
    "siteType": "reef",
    "ref": "",
    "osmId": 452633840
  },
  {
    "name": "MV Leschi",
    "filename": "mv-leschi.md",
    "lat": 60.7951304,
    "lng": -148.5326992,
    "difficulty": "Advanced",
    "maxDepth": 17,
    "entryType": "boat",
    "siteType": "wreck",
    "ref": "",
    "osmId": 477220058
  },
  {
    "name": "La Perouse Reef",
    "filename": "la-perouse-reef.md",
    "lat": 54.0128818,
    "lng": -133.176924,
    "difficulty": "Advanced",
    "maxDepth": 27,
    "entryType": "boat",
    "siteType": "reef",
    "ref": "",
    "osmId": 603529133
  },
  {
    "name": "USS Coldbrook",
    "filename": "uss-coldbrook.md",
    "lat": 59.4271357,
    "lng": -146.3573015,
    "difficulty": "Advanced",
    "maxDepth": 19,
    "entryType": "boat",
    "siteType": "wreck",
    "ref": "",
    "osmId": 665637588
  },
  {
    "name": "Pleasant Island Reef",
    "filename": "pleasant-island-reef.md",
    "lat": 58.3103895,
    "lng": -135.6570769,
    "difficulty": "Advanced",
    "maxDepth": 25,
    "entryType": "boat",
    "siteType": "reef",
    "ref": "",
    "osmId": 679432092
  },
  {
    "name": "Cohen Reef",
    "filename": "cohen-reef.md",
    "lat": 58.431229,
    "lng": -134.8045421,
    "difficulty": "Advanced",
    "maxDepth": 26,
    "entryType": "boat",
    "siteType": "reef",
    "ref": "",
    "osmId": 835907748
  },
  {
    "name": "Eagle Reef",
    "filename": "eagle-reef.md",
    "lat": 58.4598235,
    "lng": -134.8237682,
    "difficulty": "Advanced",
    "maxDepth": 24,
    "entryType": "boat",
    "siteType": "reef",
    "ref": "",
    "osmId": 835907749
  },
  {
    "name": "Desconocida Reef",
    "filename": "desconocida-reef.md",
    "lat": 55.6928138,
    "lng": -133.5229612,
    "difficulty": "Advanced",
    "maxDepth": 25,
    "entryType": "boat",
    "siteType": "reef",
    "ref": "",
    "osmId": 874133656
  },
  {
    "name": "Vanderbilt Reef",
    "filename": "vanderbilt-reef.md",
    "lat": 58.5908999,
    "lng": -135.0190567,
    "difficulty": "Advanced",
    "maxDepth": 26,
    "entryType": "boat",
    "siteType": "reef",
    "ref": "",
    "osmId": 1035594535
  },
  {
    "name": "Swan Lake Wooden Barge",
    "filename": "swan-lake-wooden-barge.md",
    "lat": 55.2519582,
    "lng": -162.7094579,
    "difficulty": "Advanced",
    "maxDepth": 14,
    "entryType": "boat",
    "siteType": "wreck",
    "ref": "",
    "osmId": 1338542641
  },
  {
    "name": "F/V Lily",
    "filename": "fv-lily.md",
    "lat": 55.2187109,
    "lng": -161.3643482,
    "difficulty": "Advanced",
    "maxDepth": 15,
    "entryType": "boat",
    "siteType": "wreck",
    "ref": "",
    "osmId": 1351757632
  },
  {
    "name": "M/V Oduna",
    "filename": "mv-oduna.md",
    "lat": 54.665264,
    "lng": -163.1081187,
    "difficulty": "Advanced",
    "maxDepth": 12,
    "entryType": "boat",
    "siteType": "wreck",
    "ref": "",
    "osmId": 20298347
  }
]
