id,name,region,latitude,longitude,ocean,location,description
002cb36f-b722-44f2-80ac-a5f950845cf8,Leonora&#039;s Reef,"South America, Bonaire",12.16675738264524,-68.32152843475343,"Atlantic Ocean, Caribbean Sea","Bonaire, South America",
028ca8b9-6004-449a-9921-abe702de4678,Atlantis,"South America, Bonaire",12.03743183755183,-68.26548099517824,"Atlantic Ocean, Caribbean Sea","Bonaire, South America",
08cdc298-6aba-47c2-98b9-3982de7d4c75,Nukove (Doblet),"South America, Bonaire",12.23605203325821,-68.41306686401369,"Atlantic Ocean, Caribbean Sea","Bonaire, South America",
0a430d24-9f24-4955-8164-585632a154fd,Ol&#039; Blue,"South America, Bonaire",12.21344517774669,-68.34105491638185,"Atlantic Ocean, Caribbean Sea","Bonaire, South America",
10a5eb31-64e8-4a98-8e16-55219aedf275,Sampler,"South America, Bonaire",12.16923250338314,-68.31526279449464,"Atlantic Ocean, Caribbean Sea","Bonaire, South America",
1120f30e-b99d-4081-ab71-1f5a77895d9b,Bon Bini Na Cas,"South America, Bonaire",12.2102574137755,-68.32955360412599,"Atlantic Ocean, Caribbean Sea","Bonaire, South America",
11e60ea6-4413-4cc2-ac83-9f39d2784bf5,Valerie&#039;s Hill,"South America, Bonaire",12.15652104534485,-68.32820177078248,"Atlantic Ocean, Caribbean Sea","Bonaire, South America",
14df38d8-f7d5-4827-96a3-e62861726ed7,Captain Don&#039;s Reef,"South America, Bonaire",12.14716535971706,-68.3104991912842,"Atlantic Ocean, Caribbean Sea","Bonaire, South America",
1940b22e-5a65-4770-892e-df03ed982a7c,Front Porch,"South America, Bonaire",12.16646372272272,-68.28861236572267,"Atlantic Ocean, Caribbean Sea","Bonaire, South America","This shallow reef slopes gently to 18 meters, teeming with colorful sponges, soft corals, and schools of tropical fish. Ideal for beginners, the calm conditions and excellent visibility make it perfect for spotting seahorses, octopus, and juvenile marine life. The sandy patches between coral formations host garden eels and flamingo tongues. Easy shore access adds to its appeal."
24bb2d69-6213-4aa5-9a08-2e691815461a,Rock Pile,"South America, Bonaire",12.14477394334929,-68.30672264099123,"Atlantic Ocean, Caribbean Sea","Bonaire, South America",
24cbd3a5-8b1b-41c0-9181-a50c5e5ef944,South Bay,"South America, Bonaire",12.14863376263043,-68.3128595352173,"Atlantic Ocean, Caribbean Sea","Bonaire, South America","This shallow, sheltered bay offers easy shore diving with vibrant coral gardens and abundant marine life. The sandy bottom slopes gently to 15 meters, perfect for beginners. Expect parrotfish, angelfish, and seahorses among the soft corals. Strong sunlight enhances visibility, often exceeding 30 meters. Calm conditions make it ideal for night dives to spot octopus and lobster. The nearby mangroves attract juvenile fish, adding diversity. Minimal current allows relaxed exploration."
2831fcf8-64f9-4c99-8548-beac47b823e2,Buddy&#039;s Reef,"South America, Bonaire",12.17502167879384,-68.29264640808107,"Atlantic Ocean, Caribbean Sea","Bonaire, South America",
3975c0b3-8406-459f-bb9f-b64bbd2e8334,Margate Bay,"South America, Bonaire",12.04670742373051,-68.26968669891359,"Atlantic Ocean, Caribbean Sea","Bonaire, South America",
3d12e739-1962-4de5-a2c1-0e95e051f416,Something Special (Pali Grande),"South America, Bonaire",12.1568147162497,-68.2819175720215,"Atlantic Ocean, Caribbean Sea","Bonaire, South America",
3f6f75ff-cfa3-4194-a733-88b63564cece,Cliff,"South America, Bonaire",12.18295012728776,-68.29625129699708,"Atlantic Ocean, Caribbean Sea","Bonaire, South America",
4058291c-e8c2-4fb0-b2d6-38baa7ce4867,Hands Off,"South America, Bonaire",12.14926307568484,-68.31616401672365,"Atlantic Ocean, Caribbean Sea","Bonaire, South America","This dive site off Bonaire features a stunning coral-covered slope starting at 12 meters, dropping to 30 meters. Vibrant sponges and sea fans thrive here, attracting schools of tropical fish, parrotfish, and occasional turtles. The current is mild, making it ideal for drift diving. The name comes from a large anchor embedded in the reef—look but don’t touch. Excellent visibility and warm water year-round create perfect conditions for relaxed exploration."
40a647b8-2262-4c8a-9327-f5661bd8bcaf,Carl&#039;s Hill (Punt P&#039;abou),"South America, Bonaire",12.16503736991207,-68.32526206970216,"Atlantic Ocean, Caribbean Sea","Bonaire, South America","This site features a stunning coral-covered slope starting at 10 meters, dropping to 30 meters. Expect vibrant sponges, sea fans, and schools of tropical fish like parrotfish and angelfish. The current is mild, making it ideal for drift diving. Look for moray eels hiding in crevices and occasional turtles gliding by. The clear water and abundant marine life create excellent visibility year-round. Easy shore access adds to its appeal."
4388de47-5101-4e01-b3b2-f85ad74a493a,1000 Steps,"South America, Bonaire",12.20908296474251,-68.32448959350587,"Atlantic Ocean, Caribbean Sea","Bonaire, South America",
43b48a23-55b1-49d3-ad4a-3bdd4c6ae22d,Knife,"South America, Bonaire",12.16759640920717,-68.31882476806642,"Atlantic Ocean, Caribbean Sea","Bonaire, South America",
461ad1bc-6194-461e-9c3f-cbeeefdc6e93,Eighteen Palm,"South America, Bonaire",12.13923584403583,-68.27758312225343,"Atlantic Ocean, Caribbean Sea","Bonaire, South America",
48ca9799-4904-4faf-878a-75681e66fb56,Windsock,"South America, Bonaire",12.13382349936649,-68.28307628631593,"Atlantic Ocean, Caribbean Sea","Bonaire, South America",
49ab45d2-21fa-4428-8765-2917cf3f444a,Bachelor&#039;s Beach,"South America, Bonaire",12.12593554442183,-68.2885265350342,"Atlantic Ocean, Caribbean Sea","Bonaire, South America","This shallow, sandy entry site is perfect for beginners and shore diving. The reef starts close to shore, sloping gently to 18 meters. Expect vibrant coral formations, schools of tropical fish, and frequent turtle sightings. The calm conditions and easy access make it ideal for training dives or relaxed exploration. Night dives here reveal octopus and lobster activity."
4d47e1a0-588b-4a53-9e6d-a0c3075b10df,Weber&#039;s Joy (Witch&#039;s Hut),"South America, Bonaire",12.20782462071254,-68.32075595855714,"Atlantic Ocean, Caribbean Sea","Bonaire, South America",
509ce912-5ad0-4bd1-9a37-70c0953fd949,Southwest Corner,"South America, Bonaire",12.15182226677518,-68.32963943481447,"Atlantic Ocean, Caribbean Sea","Bonaire, South America",
541cb2b4-d616-4e4e-aa6c-8e6e99f42bc6,Adrea Ii,"South America, Bonaire",12.19121391937549,-68.29891204833986,"Atlantic Ocean, Caribbean Sea","Bonaire, South America",
5879baa7-8988-41f4-aa81-42b68a712e38,Jerry&#039;s Sponges,"South America, Bonaire",12.1668832367984,-68.29865455627443,"Atlantic Ocean, Caribbean Sea","Bonaire, South America",
587e281e-dac0-4ba4-8133-8ae7a06e4d03,Mi Dushi (Johanna&#039;s Revenge),"South America, Bonaire",12.15819916043347,-68.32762241363527,"Atlantic Ocean, Caribbean Sea","Bonaire, South America",
59c9f90c-2b19-48e4-857f-b7036bf8ee89,La Dania&#039;s Leap,"South America, Bonaire",12.21612958078938,-68.35109710693361,"Atlantic Ocean, Caribbean Sea","Bonaire, South America","This site is a dramatic wall dive starting at a rocky point. Descend along steep cliffs covered in vibrant corals. Expect frequent sightings of turtles, tarpon, and reef sharks. The current can be strong, making it ideal for drift diving. Excellent visibility reveals massive sponges and intricate overhangs teeming with tropical fish. Depth ranges from 5 to 40 meters, suitable for all skill levels. The entry is a thrilling leap from the shore. Night dives showcase bioluminescent creatures."
5be1c834-d200-477b-975c-f5544b3a780c,Salt City (Salina Abou),"South America, Bonaire",12.07398670141352,-68.28178882598878,"Atlantic Ocean, Caribbean Sea","Bonaire, South America",
5ee1d3d1-728e-4566-b9de-a6b212540013,Cai,"South America, Bonaire",12.10302558698962,-68.21428298950197,"Atlantic Ocean, Caribbean Sea","Bonaire, South America","This site off Bonaire features a vibrant coral reef teeming with parrotfish, angelfish, and occasional turtles. The gentle slope makes it ideal for beginners, with clear visibility and minimal current. Sponges and soft corals add bursts of color, while small caves attract curious critters. Depths range from 5 to 20 meters, perfect for relaxed exploration. The sandy bottom near the shore transitions to healthy reef formations further out. Warm Caribbean waters and easy shore access enhance the experience. Night dives reveal octopuses and lobsters."
60271977-7af5-4388-b868-1344aee5c3e1,White Slave,"South America, Bonaire",12.04805046847878,-68.27063083648683,"Atlantic Ocean, Caribbean Sea","Bonaire, South America",
605392a7-0301-4ffc-8926-2da52648dc02,Playa Funchi,"South America, Bonaire",12.28230826696705,-68.41495513916017,"Atlantic Ocean, Caribbean Sea","Bonaire, South America",
638c170c-36f4-47cf-bbc1-c6c261aaabfd,The Lake,"South America, Bonaire",12.10159889459148,-68.28732490539552,"Atlantic Ocean, Caribbean Sea","Bonaire, South America",
64e0e450-46c7-45b0-8d6e-c0910d3da8ff,Carl&#039;s Hill Annex (Yellow Man),"South America, Bonaire",12.16239440182541,-68.32573413848878,"Atlantic Ocean, Caribbean Sea","Bonaire, South America",
6614590b-9895-42a8-8f42-39af8888b12b,Invisibles,"South America, Bonaire",12.06949630347549,-68.28217506408693,"Atlantic Ocean, Caribbean Sea","Bonaire, South America",
66a9a63e-e8c9-4bfc-b881-180e7115baea,Bise Morto,"South America, Bonaire",12.27626983589684,-68.41650009155275,"Atlantic Ocean, Caribbean Sea","Bonaire, South America",
6d7ade03-d493-443c-921e-3ac683721fb6,Pink Beach (Kabaye),"South America, Bonaire",12.05761946777901,-68.28243255615236,"Atlantic Ocean, Caribbean Sea","Bonaire, South America",
73274979-7dda-42b6-bbb2-c153737b72c6,Reef Scientifico,"South America, Bonaire",12.17871326098957,-68.29462051391603,"Atlantic Ocean, Caribbean Sea","Bonaire, South America",
754b7e2d-9968-4b4d-bc61-b8155058184d,Jeff Davis Memorial,"South America, Bonaire",12.20493040675384,-68.3168935775757,"Atlantic Ocean, Caribbean Sea","Bonaire, South America",
76750ab1-24c2-49fe-8c62-89e5b035d7dc,Playa Frans,"South America, Bonaire",12.24532070450292,-68.41469764709474,"Atlantic Ocean, Caribbean Sea","Bonaire, South America",
7c0b91dd-8441-4c06-8d8e-1eeba1af4eb4,Oil Slick Leap,"South America, Bonaire",12.20186837785059,-68.31204414367677,"Atlantic Ocean, Caribbean Sea","Bonaire, South America",
7ec4f70a-d8dc-451e-9662-5bc02ed4f013,Hilma Hooker,"South America, Bonaire",12.10000434701494,-68.28672409057619,"Atlantic Ocean, Caribbean Sea","Bonaire, South America",
80b110e6-841e-4f60-a47e-4be4d1e80867,Boca Slagbaal,"South America, Bonaire",12.26486353275657,-68.41692924499513,"Atlantic Ocean, Caribbean Sea","Bonaire, South America",
81f6307b-26f6-47a8-98cc-900eff925fc1,Joanne&#039;s Sunchi,"South America, Bonaire",12.14540326552877,-68.30873966217042,"Atlantic Ocean, Caribbean Sea","Bonaire, South America",
8397177e-97dc-49dd-8968-73fb039ff468,Tori&#039;s Reef,"South America, Bonaire",12.0639986110173,-68.28307628631593,"Atlantic Ocean, Caribbean Sea","Bonaire, South America",
85138de7-d85b-4ae9-a776-93407593c9ec,Barkadera,"South America, Bonaire",12.19909993769746,-68.30899715423585,"Atlantic Ocean, Caribbean Sea","Bonaire, South America",
86240e06-f717-4034-877d-b0a7eb603e1c,Just A Nice Dive,"South America, Bonaire",12.15903821400703,-68.29238891601564,"Atlantic Ocean, Caribbean Sea","Bonaire, South America",
877f3e5e-5a21-4c0b-ad30-36d8a32f8c10,Vista Blue,"South America, Bonaire",12.03524930014112,-68.26419353485109,"Atlantic Ocean, Caribbean Sea","Bonaire, South America","This shallow reef slopes gently to 18 meters, teeming with vibrant coral formations. Schools of parrotfish and angelfish dart among the sponges, while seahorses cling to seagrass beds. The calm, clear waters make it ideal for beginners and photographers. Night dives reveal octopuses and lobsters emerging from crevices. Strong currents are rare, allowing relaxed exploration. The site sits just offshore, accessible from the beach."
8a1cc64d-11fb-4cfe-aa45-e799df0243c0,Kalli&#039;s Reef,"South America, Bonaire",12.20434317107692,-68.31483364105226,"Atlantic Ocean, Caribbean Sea","Bonaire, South America",
8b0789a4-0e5e-43c9-92ba-50851c435334,Angel City,"South America, Bonaire",12.09715092234494,-68.2859516143799,"Atlantic Ocean, Caribbean Sea","Bonaire, South America",
8c015b3d-6447-4506-801c-b9771483026a,Corporal Meiss (North Belnem),"South America, Bonaire",12.12887257619471,-68.28732490539552,"Atlantic Ocean, Caribbean Sea","Bonaire, South America",
92dc3203-58cc-4e41-8135-4b0fe4cfa7ed,Andrea I,"South America, Bonaire",12.18936822164279,-68.29818248748781,"Atlantic Ocean, Caribbean Sea","Bonaire, South America",
985a490d-26c8-4128-8824-374fd2f112d9,Lighthouse Point,"South America, Bonaire",12.11129186062148,-68.29556465148927,"Atlantic Ocean, Caribbean Sea","Bonaire, South America",
9bb28fbd-2e7b-47a7-8749-12a8d0a53230,Alice In Wonderland,"South America, Bonaire",12.09480102033505,-68.2859516143799,"Atlantic Ocean, Caribbean Sea","Bonaire, South America",
a6508fc6-0329-42d9-a60e-574b4fbfdd7f,Bonaventure,"South America, Bonaire",12.14565499398403,-68.30007076263429,"Atlantic Ocean, Caribbean Sea","Bonaire, South America",
a9dc6037-c9d0-4662-943a-37c8f728f2c6,Salt Pier,"South America, Bonaire",12.07986187474925,-68.2822608947754,"Atlantic Ocean, Caribbean Sea","Bonaire, South America",
b3bca2f1-977a-43ee-92ed-e18b005f8287,Chez Hines,"South America, Bonaire",12.11502628611548,-68.29625129699708,"Atlantic Ocean, Caribbean Sea","Bonaire, South America",
b7ffc4ce-6cf8-41ce-9225-9d6521ef106f,Willemstoren Lighthouse,"South America, Bonaire",12.02546963606115,-68.23762893676759,"Atlantic Ocean, Caribbean Sea","Bonaire, South America",
c27cd6a6-775f-41d7-abc9-6bfca9721b65,Punt Vierkant,"South America, Bonaire",12.1059628708801,-68.29118728637697,"Atlantic Ocean, Caribbean Sea","Bonaire, South America",
c403b7f3-79c4-497e-aa53-9651921c11ff,Forest,"South America, Bonaire",12.14909525901584,-68.32058429718019,"Atlantic Ocean, Caribbean Sea","Bonaire, South America",
c5176fda-6577-4c34-904a-5dcf8946a217,Wayaka,"South America, Bonaire",12.26939256517861,-68.41735839843751,"Atlantic Ocean, Caribbean Sea","Bonaire, South America",
c5f3fd52-ca97-465a-837a-5dd1b8784784,White Hole,"South America, Bonaire",12.0833029878337,-68.22964668273927,"Atlantic Ocean, Caribbean Sea","Bonaire, South America",
c8d7bb9f-0d7a-4dac-b4d6-283e113c5dab,Boka Kayon,"South America, Bonaire",12.24825641487761,-68.4163284301758,"Atlantic Ocean, Caribbean Sea","Bonaire, South America",
c9219f4e-4f75-4196-9976-57e4c9c894ac,Boka Bartol,"South America, Bonaire",12.30444799505734,-68.40122222900392,"Atlantic Ocean, Caribbean Sea","Bonaire, South America",
c9babdb8-be0f-4156-9773-b0607fbb792a,Aquarius,"South America, Bonaire",12.09169576100271,-68.28603744506837,"Atlantic Ocean, Caribbean Sea","Bonaire, South America",
ce842f5d-b949-4db0-988d-cc7f81753631,Red Slave (Peleke),"South America, Bonaire",12.03092614486923,-68.25805664062501,"Atlantic Ocean, Caribbean Sea","Bonaire, South America",
d0e0e96e-73a7-44ed-9217-028502aad690,Carel&#039;s Vision,"South America, Bonaire",12.22611196565492,-68.41220855712892,"Atlantic Ocean, Caribbean Sea","Bonaire, South America",
d65831f4-160e-44ec-9c74-fdf5c8de1cf7,Sweet Dreams,"South America, Bonaire",12.03231124102127,-68.26058864593507,"Atlantic Ocean, Caribbean Sea","Bonaire, South America",
d900e998-de26-411d-9ac2-dd2bc7deb7cb,Sharon&#039;s Serenity,"South America, Bonaire",12.15503170933573,-68.32897424697877,"Atlantic Ocean, Caribbean Sea","Bonaire, South America","A gentle slope of hard coral leads to a vibrant reef teeming with parrotfish, angelfish, and occasional turtles. Clear Caribbean waters offer excellent visibility year-round. The shallow entry makes it ideal for beginners, while deeper sections reveal small caves and overhangs. Night dives showcase octopus and lobster activity. Easy shore access with minimal current."
dc305724-b52c-485b-994c-58cef584cf2b,Red Beryl,"South America, Bonaire",12.04427313800043,-68.2680130004883,"Atlantic Ocean, Caribbean Sea","Bonaire, South America",
ded44858-ff86-449a-9017-3a98ea52f050,Playa Benge,"South America, Bonaire",12.29773918343601,-68.40929031372072,"Atlantic Ocean, Caribbean Sea","Bonaire, South America",
ded5de4c-7632-48b3-8534-519d0d98a1df,Munk&#039;s Heaven,"South America, Bonaire",12.15312282986407,-68.32953214645387,"Atlantic Ocean, Caribbean Sea","Bonaire, South America","This site off Bonaire's coast features a stunning wall dive starting at 12 meters, dropping to over 30 meters. Vibrant coral formations cover the slope, with frequent sightings of eagle rays, turtles, and reef sharks. The current is mild, making it ideal for drift diving. Sponges and sea fans add bursts of color, while schools of tropical fish swirl around the reef. Excellent visibility and warm water year-round create perfect conditions for all skill levels."
e04b8cd6-ca66-4395-9ec7-9e22a8a1a709,Nearest Point,"South America, Bonaire",12.15597565566134,-68.29191684722902,"Atlantic Ocean, Caribbean Sea","Bonaire, South America",
e04ebef1-f62c-4d37-9a31-fbce50497fca,Country Garden,"South America, Bonaire",12.21260629621267,-68.33847999572755,"Atlantic Ocean, Caribbean Sea","Bonaire, South America",
e3608ade-0a41-4b04-b8e8-9e06fa7f80a8,Petrie&#039;s Pillar,"South America, Bonaire",12.18605432302888,-68.2969379425049,"Atlantic Ocean, Caribbean Sea","Bonaire, South America",
e59e338f-6e3a-400f-9d6c-397bc2a556bc,Ebo&#039;s Reef,"South America, Bonaire",12.16906469931592,-68.30367565155031,"Atlantic Ocean, Caribbean Sea","Bonaire, South America",
e720584d-6b15-4f7c-8ef2-dbe51dcacb41,Larry&#039;s Lair,"South America, Bonaire",12.0891779566973,-68.28535079956056,"Atlantic Ocean, Caribbean Sea","Bonaire, South America",
ea8b6cd9-63c8-40b8-b728-327222d12e87,Town Pier,"South America, Bonaire",12.15077342094407,-68.27895641326906,"Atlantic Ocean, Caribbean Sea","Bonaire, South America",
eacce5da-a93f-47b1-9aa0-f6c1166fa44e,Jeannie&#039;s Glory,"South America, Bonaire",12.08502352778575,-68.2842779159546,"Atlantic Ocean, Caribbean Sea","Bonaire, South America","This vibrant reef dive in Bonaire features a stunning coral garden teeming with life. Schools of tropical fish dart between healthy elkhorn and brain corals. Gentle slopes lead to sandy patches where garden eels peek out. The site offers excellent visibility and calm conditions, perfect for beginners. Keep an eye out for turtles gliding past the occasional nurse shark resting below. Night dives reveal octopus and lobster activity. Easy shore access makes it a favorite for repeat visits."
eccdee0f-00f8-4af2-bfe1-fba4372b8eec,Small Wall,"South America, Bonaire",12.18404079479429,-68.29650878906251,"Atlantic Ocean, Caribbean Sea","Bonaire, South America",
f3583d90-17d7-4611-96e2-dec114b074e1,Karpata,"South America, Bonaire",12.21638124217871,-68.35487365722658,"Atlantic Ocean, Caribbean Sea","Bonaire, South America",
f56c78ee-84c1-427b-a01d-797fba2392d8,Monte&#039;s Divi Tree,"South America, Bonaire",12.14477394334929,-68.30427646636964,"Atlantic Ocean, Caribbean Sea","Bonaire, South America",
f8f92772-2d49-4b1e-b279-6957d407c8c2,No Name (Playita),"South America, Bonaire",12.1697778658697,-68.31152915954591,"Atlantic Ocean, Caribbean Sea","Bonaire, South America",
f9609dbe-bdd4-46b8-a02b-fd8df813896a,Bari Reef,"South America, Bonaire",12.17158174919586,-68.2899856567383,"Atlantic Ocean, Caribbean Sea","Bonaire, South America",
fa6e932c-95ee-4481-a782-7f1f8a4397ed,Keepsake,"South America, Bonaire",12.15236766497353,-68.29286098480226,"Atlantic Ocean, Caribbean Sea","Bonaire, South America",
fc50bb51-c449-4109-8d88-bc206a29fe71,Calabas Reef,"South America, Bonaire",12.14464807873489,-68.27796936035158,"Atlantic Ocean, Caribbean Sea","Bonaire, South America",
fc71e753-74ba-4834-b04c-3f1fcf37c1b8,Bloodlet,"South America, Bonaire",12.21461960742794,-68.34500312805177,"Atlantic Ocean, Caribbean Sea","Bonaire, South America","This site offers shallow coral reefs teeming with colorful marine life, perfect for relaxed diving. The underwater terrain features sandy patches, sponges, and small caves. Often calm conditions make it ideal for beginners or photographers. Look for seahorses, parrotfish, and eels among the healthy coral formations. The clear Caribbean waters provide excellent visibility year-round. No strong currents here, allowing leisurely exploration."
ff8f95f3-1291-408b-8e9d-427d235263bd,La Machaca,"South America, Bonaire",12.18173360824247,-68.29552173614503,"Atlantic Ocean, Caribbean Sea","Bonaire, South America",
