id,name,region,latitude,longitude,ocean,location,description
006e1267-7232-456d-94d5-86f234565988,Dhevvamaagalaa Faru,"Asia, Maldives, Kaafu Atoll, Gaafu Dhaalu",0.5575473528225806,73.10096740722658,Indian Ocean,"Gaafu Dhaalu, Kaafu Atoll",
013358e9-c429-435b-8932-b86cfc937a6a,Latheef,"Asia, Maldives, Lhaviyani Atoll",5.531671480417076,73.43579292297365,Indian Ocean,"Lhaviyani Atoll, Maldives",
0261f813-030d-474b-a208-d5749424e75f,The Big Cave,"Asia, Maldives, Meemu Atoll",2.962241460662533,73.50574493408205,Indian Ocean,"Meemu Atoll, Maldives",
02622154-4804-442c-915e-ea88e0dea600,Alimatha Jetty,"Asia, Maldives, Vaavu Atoll, Felidhu Atoll, Alimata",3.589320995996883,73.4920120239258,Indian Ocean,"Alimata, Felidhu Atoll",
03056139-8c9d-4fa6-bf51-eb71c7fcbb19,Fanka Thila,"Asia, Maldives, Kaafu Atoll, Gaafu Dhaalu",0.3216917302549222,73.40343475341798,Indian Ocean,"Gaafu Dhaalu, Kaafu Atoll","This dive site in the Maldives features a stunning thila rising from the depths, covered in vibrant soft and hard corals. Schools of snapper, fusiliers, and trevally swirl around the pinnacle, while reef sharks patrol the edges. Strong currents attract pelagics like eagle rays and occasional mantas. The top sits at 15 meters, with the base dropping to 30 meters, offering thrilling drift dives. Visibility often exceeds 30 meters, showcasing the site's rich marine life. Best suited for experienced divers due to the currents."
03635fc4-13c1-4826-8571-e87b7c6afc8b,Eryadhoo Reef,"Asia, Maldives, Laamu Atoll, Berasdhoo",1.977318112885122,73.54574203491212,Indian Ocean,"Berasdhoo, Laamu Atoll",
0390c458-2ae6-4170-b244-2048c703ed76,Ranikan,"Asia, Maldives, Kaafu Atoll, South Male Atoll",3.800881951553696,73.396053314209,Indian Ocean,"South Male Atoll, Kaafu Atoll","Just outside South Male Atoll, this site features a vibrant reef teeming with marine life. Expect strong currents that attract pelagics like sharks and rays. The reef slopes to a sandy bottom, with overhangs and swim-throughs hosting colorful soft corals and schools of tropical fish. Visibility is excellent, often exceeding 30 meters. Best suited for experienced divers due to the currents."
03e70f5e-b5a4-4048-a739-e3f9bc3fe7ad,Felivaru Kandu,"Asia, Maldives, Lhaviyani Atoll, Gaaerifalhu",5.48852726619663,73.39828491210939,Indian Ocean,"Gaaerifalhu, Lhaviyani Atoll",
043da2bc-cada-4648-b50c-4eb21e6d1830,Germanafushi Corner,"Asia, Maldives, Gaafu Alif Atoll, Gemanafushi",0.4356723762488142,73.5721778869629,Indian Ocean,"Gemanafushi, Gaafu Alif Atoll","This site offers thrilling drift dives along a vibrant reef wall in the Maldives. Strong currents attract large pelagics like gray reef sharks, eagle rays, and schools of tuna. The steep drop-off plunges to over 30 meters, covered in colorful soft corals and gorgonian fans. Visibility often exceeds 30 meters, with occasional sightings of hammerheads in the blue. Best suited for experienced divers due to the current."
04751a29-c99f-4757-964c-fbf8c5964b37,Hakura Thila,"Asia, Maldives, Meemu Atoll",2.944755258411932,73.55089187622072,Indian Ocean,"Meemu Atoll, Maldives",
04aa7f6d-2126-4988-bb45-acd2c6c5abd3,Dinolhu Kandu,"Asia, Maldives, Ari Atoll, Vihamaafaru",4.153823388872654,72.7339553833008,Indian Ocean,"Vihamaafaru, Ari Atoll",
057959a2-5456-4199-938e-bd6874cdcd53,Fulidhoo Kandu,"Asia, Maldives, Vaavu Atoll, Felidhu Atoll, Fulidhoo",3.666071190844196,73.41167449951173,Indian Ocean,"Fulidhoo, Felidhu Atoll",
060ed8d6-a9b3-449c-b5a7-b08164dc8578,Fulangi Thila,"Asia, Maldives, Gaafu Alif Atoll",0.6715239320739671,73.24722290039064,Indian Ocean,"Gaafu Alif Atoll, Maldives",
066c0c21-4423-431b-bf5b-37998d8640a5,Vadhoo Caves,"Asia, Maldives, Kaafu Atoll, North Male Atoll, Vaadhoo",4.129425522785676,73.45690727233888,Indian Ocean,"Vaadhoo, North Male Atoll",
066cdced-fc0b-43cc-8be1-6a46363cf071,Bodu Thila,"Asia, Maldives, Ari Atoll",4.038761651828553,72.95127868652345,Indian Ocean,"Ari Atoll, Maldives","Currents sweep around this underwater pinnacle in Ari Atoll, attracting massive schools of fusiliers and trevallies. Gray reef sharks patrol the edges while Napoleon wrasse and eagle rays glide past. The plateau sits 15-30 meters deep, draped in soft corals and sea fans. Strong currents mean advanced divers only, but the pelagic action rewards those ready for it."
06e98820-d526-4c98-bbb0-aa6ce8f0b0c8,Rihiveli Wreck,"Asia, Maldives, Kaafu Atoll, South Male Atoll",3.823148557391301,73.3931350708008,Indian Ocean,"South Male Atoll, Kaafu Atoll",
07ace132-8f25-4406-9c8c-cf8f502c33b5,Coral City,"Asia, Maldives, Gaafu Alif Atoll",0.6248350266391894,73.17031860351564,Indian Ocean,"Gaafu Alif Atoll, Maldives",
08a2d915-e116-4eea-b06d-61c241a914ae,Rasfari Thila,"Asia, Maldives, Kaafu Atoll, North Male Atoll, Rasfari",4.409569494650976,73.34833145141603,Indian Ocean,"Rasfari, North Male Atoll",
08d6531f-69ea-4837-a256-6b794f84809f,Giant Clam,"Asia, Maldives, Meemu Atoll",2.859634706903179,73.51844787597658,Indian Ocean,"Meemu Atoll, Maldives",
09226d97-dd63-43a8-8d7f-8d3affd5ab1f,Bondu Giri,"Asia, Maldives, Gaafu Alif Atoll",0.4324109036733039,73.51741790771486,Indian Ocean,"Gaafu Alif Atoll, Maldives","Bondu Giri sits in the pristine Gaafu Alif Atoll, offering dramatic underwater cliffs and vibrant coral gardens. Strong currents attract pelagic action—gray reef sharks, eagle rays, and schools of jacks patrol the drop-offs. The pinnacle rises from deep blue, covered in soft corals and sea fans. Visibility often exceeds 30 meters, with occasional manta sightings. Best for experienced divers due to swift drifts. The site's untouched beauty and thrilling marine encounters make it a Maldivian highlight."
09ade766-77c8-4852-83e3-1cfd6597af63,Thuraakunu Beru,"Asia, Maldives, Haa Alif Atoll, Uligan",7.097145069160894,72.90939331054689,Indian Ocean,"Uligan, Haa Alif Atoll",
09b55613-7f01-495e-9bf1-6033af63db87,Kuredu Garden,"Asia, Maldives, Lhaviyani Atoll",5.536455595980378,73.43776702880861,Indian Ocean,"Lhaviyani Atoll, Maldives",
0a599c62-99e4-4e91-a025-d7b5f7248cc1,Beyru Thila,"Asia, Maldives, Ari Atoll",4.140468860619488,72.93153762817384,Indian Ocean,"Ari Atoll, Maldives",
0a6f0f3d-4235-425f-ae13-f8f5847193a3,Bandos Rock,"Asia, Maldives, Kaafu Atoll, North Male Atoll",4.268376189598811,73.49452257156373,Indian Ocean,"North Male Atoll, Kaafu Atoll","Bandos Rock offers vibrant coral gardens teeming with reef fish, moray eels, and occasional reef sharks. The site features dramatic overhangs and swim-throughs, with strong currents attracting pelagic species. Visibility often exceeds 30 meters, making it ideal for photography. The sloping reef transitions to a sandy bottom at 25 meters, where turtles and stingrays are common. Best dived at slack tide for calmer conditions. Suitable for all experience levels, with shallow areas for beginners and deeper sections for advanced divers."
0a74963c-288a-4b44-90b9-73c8cd4416f3,Maaya Thila,"Asia, Maldives, Ari Atoll",4.098135232402218,72.86999702453615,Indian Ocean,"Ari Atoll, Maldives",
0aa585d3-df3b-4165-91e4-b7cfe912c2b5,Fesdu Wreck,"Asia, Maldives, Ari Atoll",3.997921061417609,72.7756690979004,Indian Ocean,"Ari Atoll, Maldives",
0ad7c407-ff36-4858-9eda-7463570937f4,Stingray Reef,"Asia, Maldives, Ari Atoll, Huvahandhoo",3.649111330468344,72.94372558593751,"Haa Alif Atoll, Huvahandhoo","Huvahandhoo, Ari Atoll",
0ae3c1d7-ffd1-4ec4-a255-ab5ed2d70eec,Iguraidhoo Corner,"Asia, Maldives, Noonu Atoll, Dheefram",5.877649074390598,73.31520080566408,Indian Ocean,"Dheefram, Noonu Atoll",
0b50cf9c-c68c-4923-9f67-fea9522fd7fd,Saaed Ge&#039; Hadhiya,"Asia, Maldives, Noonu Atoll, Velidhoo",5.658693606347689,73.28172683715822,Indian Ocean,"Velidhoo, Noonu Atoll",
0b7e4388-bb0b-44c7-bf3b-ee405d9b3b3c,Madi Kandu,"Asia, Maldives, Vaavu Atoll, Felidhu Atoll, Alimata",3.528498732286367,73.47518920898439,Indian Ocean,"Alimata, Felidhu Atoll",
0c06b9ad-4de6-47de-b843-8748aaa58b6b,Dhooni Giri,"Asia, Maldives, Ari Atoll",3.68251680889303,72.93909072875978,Indian Ocean,"Ari Atoll, Maldives",
0c0dd3c8-4e68-4d78-87f5-bccca02cb18a,Lhosfushi Kuda Kantu,"Asia, Maldives, Kaafu Atoll, North Male Atoll, Lhosfushi",3.895767912582946,73.47218513488771,Indian Ocean,"Lhosfushi, North Male Atoll",
0cbc7f23-bc78-4c60-b903-49f5fe0f40f1,Walu Kandu,"Asia, Maldives, Vaavu Atoll, Felidhu Atoll",3.607138585363505,73.49836349487306,Indian Ocean,"Felidhu Atoll, Vaavu Atoll",
0cd1087c-e119-473a-996e-7328798c71b0,Al Karim Wreck,"Asia, Maldives, Ari Atoll",3.615533290175603,72.93428421020509,Indian Ocean,"Ari Atoll, Maldives","A sunken cargo ship resting at 30 meters in the Ari Atoll, this wreck is encrusted with vibrant soft corals and sponges. Schools of batfish and trevally patrol the structure, while moray eels peek from crevices. Strong currents attract pelagics like gray reef sharks. The intact hull offers swim-throughs for advanced divers. Visibility often exceeds 30 meters. Best dived on slack tide when conditions ease."
0da1290b-e677-482f-a6d0-fc7fa0d93a27,Angas Thilas,"Asia, Maldives, Baa Atoll",5.17352420826459,73.10028076171876,Indian Ocean,"Baa Atoll, Maldives",
0df29dea-eadf-4bfb-917d-b87e0349f5a8,Hani Beru,"Asia, Maldives, Baa Atoll",5.168053398764265,73.15761566162111,Indian Ocean,"Baa Atoll, Maldives",
0eddb853-0f8c-45e9-b863-d581b92b6e89,Northern Tube,"Asia, Maldives, Meemu Atoll",3.099549850148662,73.57458114624025,Indian Ocean,"Meemu Atoll, Maldives",
0f0223ad-f548-495c-a68b-8e5cfb3b8ec0,Kuredu Caves,"Asia, Maldives, Lhaviyani Atoll, Kuredu",5.554651967239914,73.46677780151369,Indian Ocean,"Kuredu, Lhaviyani Atoll",
0f06005f-c423-49c0-a8af-51e5514aaffc,Molikolhu Outside,"Asia, Maldives, Seenu Atoll, Mulikolhu",-0.671352282484029,73.21065902709962,Indian Ocean,"Mulikolhu, Seenu Atoll",
0f7e3f43-40f1-4538-92ad-039f60f1cdeb,Long Reef,"Asia, Maldives, Kaafu Atoll, North Male Atoll",4.47528942014794,73.68796348571779,Indian Ocean,"North Male Atoll, Kaafu Atoll",
0f8e3a65-1f4a-4252-aa30-15d51b7a2f16,Kuramathi Faru,"Asia, Maldives, Ari Atoll, Kuramathi",4.255943760171808,72.97702789306642,Indian Ocean,"Kuramathi, Ari Atoll","This dive site in the Maldives' Ari Atoll features a stunning coral reef teeming with marine life. Expect vibrant hard and soft corals, schools of colorful reef fish, and frequent sightings of turtles, reef sharks, and rays. The gentle current makes it ideal for drift diving, while the clear waters offer excellent visibility. The reef slope drops to deeper waters, creating a dramatic underwater landscape. Perfect for all skill levels, this site combines easy conditions with rich biodiversity. Night dives here reveal nocturnal creatures like octopus and lobsters."
0fd9cd0c-b976-468c-abb1-5b61093ac3b7,Devana Kandu,"Asia, Maldives, Vaavu Atoll, Felidhu Atoll, Alimata",3.589920632069578,73.50565910339357,Indian Ocean,"Alimata, Felidhu Atoll",
1002bc8a-ea3c-4612-8302-b74cbd4026fc,Hasanbey,"Asia, Maldives, Gaafu Alif Atoll",0.4832210475199388,73.51604461669923,Indian Ocean,"Gaafu Alif Atoll, Maldives",
10cf092a-dc0f-44bf-a4a0-88ca12d5912e,Cocoa Out,"Asia, Maldives, Kaafu Atoll, North Male Atoll, Maafushi",3.921885375950299,73.49342823028566,Indian Ocean,"Maafushi, North Male Atoll",
1102b3df-0090-4ad1-b929-1990813464c7,Fushivaru Corner,"Asia, Maldives, Lhaviyani Atoll, Fushifaru",5.487502019076684,73.50437164306642,Indian Ocean,"Fushifaru, Lhaviyani Atoll",
11dd5088-4411-4a80-840e-ce08a4d64b60,Kihaadhoo Thila,"Asia, Maldives, Baa Atoll",5.195919841005262,73.15349578857423,Indian Ocean,"Baa Atoll, Maldives",
120edc04-dd55-4fd5-a7f8-d215f15c77e9,Aquarium,"Asia, Maldives, Baa Atoll",5.174379017977954,73.09255599975587,Indian Ocean,"Baa Atoll, Maldives",
12a608ad-2d4b-47a6-8825-55ba6851b125,Foteyo North Corner,"Asia, Maldives, Vaavu Atoll, Felidhu Atoll",3.496115673271945,73.71654510498048,Indian Ocean,"Felidhu Atoll, Vaavu Atoll",
12e3360e-d1e9-40a8-a529-ba48b8660e7b,Giraavaru Corner,"Asia, Maldives, Baa Atoll",5.273870928146757,73.11641693115236,Indian Ocean,"Baa Atoll, Maldives","This site offers thrilling drift dives along a steep wall, where strong currents attract pelagic action. Expect schools of barracuda, trevally, and occasional reef sharks. The coral-covered slope drops to over 30 meters, with overhangs and small caves hosting moray eels and lobsters. Visibility often exceeds 30 meters, with warm water year-round. Best dived during the northeast monsoon for calmer conditions."
147ec7af-ba6a-4df6-ad57-27f6d2f219f7,Feydhoo Reef,"Asia, Maldives, Kaafu Atoll, North Male Atoll, Feydhoofinolhu",4.218623870146256,73.49244117736818,Indian Ocean,"Feydhoofinolhu, North Male Atoll",
1491c581-eedc-4f65-9e55-262686d609a8,Vaggiri,"Asia, Maldives, Kaafu Atoll, South Male Atoll",3.906300626814225,73.44635009765626,Indian Ocean,"South Male Atoll, Kaafu Atoll",
14c5e355-55d4-4df1-a8c9-ee020a337750,Seventh Heaven,"Asia, Maldives, Ari Atoll, Kuda Rah",3.572381114549261,72.91256904602052,Indian Ocean,"Kuda Rah, Ari Atoll",
14d529a6-3077-45d0-a9ab-07da98f60730,Aquarium,"Asia, Maldives, Lhaviyani Atoll",5.532440358742654,73.43871116638185,Indian Ocean,"Lhaviyani Atoll, Maldives",
14dc989e-ea8c-4626-b557-556637a8afc6,Medhu Faru,"Asia, Maldives, Kaafu Atoll, North Male Atoll",4.511484208853263,73.62599372863771,Indian Ocean,"North Male Atoll, Kaafu Atoll","This site in North Male Atoll features a stunning thila rising from the depths, covered in vibrant soft and hard corals. Schools of snapper, trevally, and batfish swirl around the pinnacle, while reef sharks and eagle rays often glide past. Strong currents attract pelagics, making it ideal for drift diving. The top of the thila sits at 12 meters, with dramatic drop-offs plunging beyond 30 meters. Excellent visibility and warm water year-round create perfect conditions for advanced divers."
14fde94b-4f67-470b-a026-5a11c5cb6193,Kuda Hafza Thila,"Asia, Maldives, Gaafu Alif Atoll",0.6071549267274474,73.1601905822754,Indian Ocean,"Gaafu Alif Atoll, Maldives",
1554ba7d-2b75-4314-bd38-616bd3bda50b,House Reef,"Asia, Maldives, Noonu Atoll, Loafaru",5.776892241032215,73.26885223388673,Indian Ocean,"Loafaru, Noonu Atoll",
155b90d6-66d3-4da9-a09b-ae59a866e6dd,Tin Thila,"Asia, Maldives, Ari Atoll, Vihamaafaru",4.117868376775406,72.75575637817384,Indian Ocean,"Vihamaafaru, Ari Atoll",
1575b1a5-2f6c-493b-80e9-5ae3c2c48211,Kalifushifaru Corner,"Asia, Maldives, Lhaviyani Atoll, Huruvalhi",5.517062602527827,73.4440326690674,Indian Ocean,"Huruvalhi, Lhaviyani Atoll",
157b702a-e7f1-46f1-915a-93541db4af43,Kurali Inside,"Asia, Maldives, Meemu Atoll, Kureli",2.773993457593761,73.37631225585939,Indian Ocean,"Kureli, Meemu Atoll",
158dd9eb-45ec-4518-81f6-4246e582ee88,Middle Point,"Asia, Maldives, Kaafu Atoll, South Male Atoll",3.891828814827845,73.47145557403566,Indian Ocean,"South Male Atoll, Kaafu Atoll",
15cdb07c-302d-4997-90fc-7af663415ae3,Nasfaru,"Asia, Maldives, Haa Alif Atoll",6.981976758043988,72.94029235839845,Indian Ocean,"Haa Alif Atoll, Maldives",
15f19552-3cc9-4fdd-84c8-d0ab36737be4,Dekunu Kanda,"Asia, Maldives, Vaavu Atoll, Felidhu Atoll, Alimata",3.585123532469416,73.50660324096681,Indian Ocean,"Alimata, Felidhu Atoll",
16507026-0715-4e0f-babf-84294c3c74ac,Minaavaru Kurolhi,"Asia, Maldives, Noonu Atoll, Orivaru",5.810878344633169,73.28636169433595,Indian Ocean,"Orivaru, Noonu Atoll",
1666fc4b-6066-4fc7-9055-0e7ca411bc79,Randi Wreck,"Asia, Maldives, Ari Atoll, Dhigurah",3.522159280149004,72.89703369140626,Indian Ocean,"Dhigurah, Ari Atoll",
16cef2e1-67e9-4a10-a3d4-289548421601,Foteyo East Point,"Asia, Maldives, Vaavu Atoll, Felidhu Atoll",3.485835102741718,73.68959426879884,Indian Ocean,"Felidhu Atoll, Vaavu Atoll",
17c6f8b5-b391-4c18-b528-0d019ac46f2a,Koen&#039;s Dream,"Asia, Maldives, Noonu Atoll",5.86193903170284,73.26404571533205,Indian Ocean,"Noonu Atoll, Maldives",
182a2a43-cb97-464c-857a-2bbccfa6c247,Rahadhoo Kandu,"Asia, Maldives, Kaafu Atoll, Gaafu Dhaalu, Thinadhoo",0.5160071235562094,72.98355102539064,Indian Ocean,"Thinadhoo, Gaafu Dhaalu","A thrilling channel dive in the Maldives, this site offers strong currents that attract pelagic action. Expect gray reef sharks, eagle rays, and schools of barracuda patrolling the steep drop-offs. The vibrant coral walls are draped in soft corals and sea fans. Best for advanced divers due to the drift conditions, but the adrenaline and marine life make it unforgettable. Visibility often exceeds 30 meters."
184f12cc-0c21-4a08-b7a6-80ad7c540333,Aquarium,"Asia, Maldives, Kaafu Atoll, North Male Atoll, Lhohifushi",4.34795178297876,73.62573623657228,Indian Ocean,"Lhohifushi, North Male Atoll",
185b8991-f628-4de6-849b-cfbe17b3fa2b,Kuda Kandu,"Asia, Maldives, Kaafu Atoll, North Male Atoll",4.523099530633833,73.65749359130861,Indian Ocean,"North Male Atoll, Kaafu Atoll",
192bbc4c-7dd9-4249-a5ca-7d1477e55f35,Hulangu Nagu,"Asia, Maldives, Baa Atoll, Madhirivaadhoo",5.270708628399418,73.15830230712892,Indian Ocean,"Madhirivaadhoo, Baa Atoll",
194efb93-b657-40aa-b830-4c008e928812,Eterecolhu,"Asia, Maldives, Ari Atoll, Vihamaafaru",4.141838566207523,72.76313781738283,Indian Ocean,"Vihamaafaru, Ari Atoll",
198e2fcd-58e9-4669-ba23-f129758ccb4e,Vilingili Kandu,"Asia, Maldives, Gaafu Alif Atoll, Vilingili",0.7432729140976405,73.44532012939455,Indian Ocean,"Vilingili, Gaafu Alif Atoll","A thrilling channel dive in the Maldives, where strong currents attract pelagic action. Expect sharks, eagle rays, and large schools of fish sweeping through the steep walls. The dramatic topography features overhangs and swim-throughs, with visibility often exceeding 30 meters. Best suited for experienced divers due to the fast-moving water. The vibrant coral formations add color to this adrenaline-filled dive."
19a12935-1d09-43f4-a1f3-4d2a46a44ddc,Huvahandhoo Corner,"Asia, Maldives, Haa Alif Atoll, Huvahandhoo",6.955438011242486,72.91093826293947,Indian Ocean,"Huvahandhoo, Haa Alif Atoll",
1a0c4c71-b621-4d82-aa93-7b59c70724c1,Maradhoo Inside,"Asia, Maldives, Seenu Atoll, Hithadhoo",-0.6667177412833734,73.13100814819337,Indian Ocean,"Hithadhoo, Seenu Atoll","A gentle drift dive along a sloping reef in the Maldives, teeming with colorful soft corals and schools of tropical fish. The current carries you past overhangs and small caves, home to moray eels and lobsters. Visibility is excellent, often exceeding 30 meters, with occasional sightings of reef sharks and turtles. Ideal for all skill levels, with depths ranging from 5 to 25 meters. The warm water and vibrant marine life make it a must-dive spot in Seenu Atoll."
1a5212ab-1298-4ada-bd1a-0d401c1a8338,Thundufushi Thila,"Asia, Maldives, Ari Atoll",3.806705581041557,72.7094078063965,Indian Ocean,"Ari Atoll, Maldives",
1ae88f48-c8c1-4d9a-a1a0-17993c5ea8bd,Maa Thila,"Asia, Maldives, Ari Atoll, Kudafolhudhoo",4.170773041407474,72.76639938354494,Indian Ocean,"Kudafolhudhoo, Ari Atoll",
1b54b2a7-03e7-45f4-96f5-2fd82d420c90,Thin Gaa Thila,"Asia, Maldives, Baa Atoll",5.151726170955886,73.13873291015626,Indian Ocean,"Baa Atoll, Maldives",
1b6315a2-57a4-4d77-9cb1-2ab2f21887ff,Coral Garden,"Asia, Maldives, Ari Atoll, Vilamendhoo",3.625940903013116,72.95814514160158,Indian Ocean,"Vilamendhoo, Ari Atoll",
1c10bb9c-04e2-4d17-a464-63e23ac764aa,Ukulhas Thila,"Asia, Maldives, Ari Atoll",4.256714105873285,72.81600952148439,Indian Ocean,"Ari Atoll, Maldives",
1c3fef92-4c92-4496-b918-087966e45fb5,Fish Pan (Meemu),"Asia, Maldives, Meemu Atoll",3.057210674513512,73.37081909179689,Indian Ocean,"Meemu Atoll, Maldives",
1cbcce02-4035-438d-9438-b205b35c1047,Short Cut,"Asia, Maldives, Kaafu Atoll, North Male Atoll, Meeru",4.465620059619368,73.72135162353517,Indian Ocean,"Meeru, North Male Atoll",
1cc82c21-c6b4-4ab3-8442-f480b7b0dae6,Rasdhoo Channel,"Asia, Maldives, Ari Atoll, Kuramathi",4.257056481493171,72.99252033233644,Indian Ocean,"Kuramathi, Ari Atoll",
1d3e4bd8-5fe1-442c-a36c-2c804f704cbf,Maagiri Rock,"Asia, Maldives, Kaafu Atoll, North Male Atoll, Kanduoiy Giri",4.264759892655956,73.5290050506592,Indian Ocean,"Kanduoiy Giri, North Male Atoll",
1dd3c1bb-96ba-4932-b5f7-799397ad3bfc,Dhigurah Ethere Thila,"Asia, Maldives, Noonu Atoll",3.545790336962189,72.93037891387941,Indian Ocean,"Noonu Atoll, Maldives",
1df64cb0-6d9e-4932-a879-a5b9aacbfead,Coral Garden 1,"Asia, Maldives, Kaafu Atoll, Gaafu Dhaalu, Lonudhoo",0.3021226233465567,73.39382171630861,Indian Ocean,"Lonudhoo, Gaafu Dhaalu",
1dfe73e5-5312-4d1a-9807-9ece8b84e904,Maldives Victory Wreck,"Asia, Maldives, Kaafu Atoll, North Male Atoll, Hulhumale",4.171115454867424,73.5253143310547,Indian Ocean,"Hulhumale, North Male Atoll",
1ebf2fc1-a305-4fab-ba0d-1c563ad0a7ec,Turtle Point,"Asia, Maldives, Meemu Atoll",2.899324140159777,73.56702804565431,"Asia, Maldives, Meemu Atoll","Meemu Atoll, Maldives",
1efbc3b7-2657-4ce9-b9de-1d8c501d019d,Kottefaru Kammati,"Asia, Maldives, Raa Atoll, Kinolhas",5.509886179796434,73.04972648620607,Indian Ocean,"Kinolhas, Raa Atoll","This dive site in Raa Atoll features a stunning reef with dramatic overhangs and swim-throughs. Expect strong currents attracting pelagic life like sharks and eagle rays. The vibrant coral formations host schools of tropical fish, while the steep drop-off offers thrilling drift dives. Visibility is excellent, often exceeding 30 meters. Best suited for experienced divers due to the currents."
1f2eb345-7ab3-4167-9bd5-efd4c0917c91,Pinnades,"Asia, Maldives, Baa Atoll, Hirundhoo",5.21899847697925,73.15675735473634,Indian Ocean,"Hirundhoo, Baa Atoll",
1f2fc51f-cb2c-4716-86f0-4766aec239e8,Ismehela Outside,"Asia, Maldives, Seenu Atoll, Hulhumeedhoo",-0.573940215100121,73.21095943450929,Indian Ocean,"Hulhumeedhoo, Seenu Atoll",
203e4c4c-f622-40c1-b897-ff9f47822361,Triton Giri,"Asia, Maldives, Kaafu Atoll, South Male Atoll",3.906557520633059,73.43931198120119,Indian Ocean,"South Male Atoll, Kaafu Atoll",
20b140b4-d841-4cef-abd0-289198c291ea,Banana Reef,"Asia, Maldives, Ari Atoll",3.630437982625042,72.9317092895508,Indian Ocean,"Ari Atoll, Maldives",
213b5ffa-bf2d-4997-837b-21f7b96f9ddd,Vihamaafaru N/e,"Asia, Maldives, Ari Atoll, Vihamaafaru",4.148087817852591,72.74949073791505,Indian Ocean,"Vihamaafaru, Ari Atoll",
215631f7-3f67-49c5-97b6-ba87b56a7420,Banana Reef,"Asia, Maldives, Kaafu Atoll, South Male Atoll",3.896859724458142,73.45699310302736,Indian Ocean,"South Male Atoll, Kaafu Atoll",
227b0518-d2d4-42ec-b361-ddccde0d158a,Stairs,"Asia, Maldives, Kaafu Atoll, North Male Atoll, Meeru",4.449447127661223,73.72650146484376,Indian Ocean,"Meeru, North Male Atoll",
22bba346-3a5d-41b5-9e7b-e592fdf0e00f,Kuda Thila (Gaafu Dhalu),"Asia, Maldives, Gaafu Alif Atoll",0.4394488164139768,73.50831985473634,Indian Ocean,"Gaafu Alif Atoll, Maldives","A stunning thila rising from 30 meters to 12 meters, covered in vibrant soft corals. Strong currents attract schools of eagle rays, gray reef sharks, and occasional hammerheads. The plateau teems with anthias, fusiliers, and Napoleon wrasse. Best dived on slack tide for optimal visibility. Suitable for advanced divers due to currents."
2380365a-c47d-4c63-b9e5-284d6ea382c8,Maafushi Beyru,"Asia, Maldives, Gaafu Alif Atoll",0.6478362323631225,73.10251235961915,Indian Ocean,"Gaafu Alif Atoll, Maldives","This dive site in the Gaafu Alif Atoll offers pristine coral reefs teeming with colorful marine life. Expect strong currents that attract pelagics like sharks and rays. The steep drop-offs and overhangs create dramatic topography, perfect for drift diving. Visibility often exceeds 30 meters in these clear Indian Ocean waters. Soft corals and reef fish thrive along the vibrant walls. The remote location ensures uncrowded dives with excellent biodiversity."
23d430cf-0892-44d7-994f-597acc464c35,Olhugiri,"Asia, Maldives, Thaa Atoll, Olugiri",2.495853357986262,73.25752258300783,Indian Ocean,"Olugiri, Thaa Atoll",
24d82c36-a01a-482f-af66-9c5349261d56,Hammerhead Point,"Asia, Maldives, Lhaviyani Atoll, Madivaru",4.263561589322075,73.00187587738039,"Raa Atoll, Rasdhu Atoll, Madivaru","Madivaru, Lhaviyani Atoll",
24e8870d-c6a9-4d5f-a370-babfc9d70b61,Emboodhoo House Reef,"Asia, Maldives, Kaafu Atoll, South Male Atoll",4.101260036146477,73.50746154785158,Indian Ocean,"South Male Atoll, Kaafu Atoll",
24ed5304-039e-4f86-8c2d-d259a6102761,Bushy Reef,"Asia, Maldives, Kaafu Atoll, North Male Atoll, Naladhu",3.973518478440892,73.51278305053712,Indian Ocean,"Naladhu, North Male Atoll",
24f7eb73-cf52-42d6-bf45-596dcda2af3d,Down Fall,"Asia, Maldives, Noonu Atoll, Felivaru",5.834616165610059,73.31296920776369,Indian Ocean,"Felivaru, Noonu Atoll",
24f85e8c-32d3-49dc-ad10-a5b4fe2836c2,Nilandhoo Thila,"Asia, Maldives, Gaafu Alif Atoll, Dhaandhoo",0.6059533644221824,73.43296051025392,Indian Ocean,"Dhaandhoo, Gaafu Alif Atoll","This stunning thila in the Maldives features dramatic overhangs and swim-throughs teeming with marine life. Schools of snapper, trevally, and batfish swirl around the reef, while gray reef sharks patrol the edges. The top sits at 12 meters, dropping to 30 meters, with strong currents attracting pelagics. Soft corals and gorgonians cover the walls, and eagle rays are often spotted gliding past. Best dived on slack tide for optimal visibility and manageable currents. A must for advanced divers seeking action-packed drift dives."
25227022-1f06-4c53-acad-f7e2c00eefdd,Prisaca Head,"Asia, Maldives, Kaafu Atoll, North Male Atoll",4.48072303131439,73.69465827941896,Indian Ocean,"North Male Atoll, Kaafu Atoll",
25be7166-1680-4cbe-99b5-c97c8e80fb09,West Saddle,"Asia, Maldives, Kaafu Atoll, North Male Atoll, Meeru",4.463138521754353,73.68839263916017,Indian Ocean,"Meeru, North Male Atoll","West Saddle offers thrilling drift dives along a vibrant reef wall in North Male Atoll. Strong currents attract large pelagics like gray reef sharks, eagle rays, and schools of tuna. The steep drop-off is covered in colorful soft corals and gorgonian fans. Depth ranges from 5 to 30 meters, suitable for advanced divers. Visibility often exceeds 30 meters, with clear blue water. The site is known for dramatic underwater topography and frequent shark sightings."
25c895f9-6b94-479d-92bd-60327432916f,Huddu Thila,"Asia, Maldives, Ari Atoll",3.58092604967551,72.92964935302736,Indian Ocean,"Ari Atoll, Maldives",
262db160-a0ed-4d42-b2ea-2dc65280446a,Bodu Giri,"Asia, Maldives, Laamu Atoll",1.975087842259293,73.45699310302736,Indian Ocean,"Laamu Atoll, Maldives",
2846b78f-3045-4697-9e1b-0625750a86dd,Keyolhu Faru,"Asia, Maldives, Gaafu Alif Atoll",0.4444268482575267,73.49956512451173,Indian Ocean,"Gaafu Alif Atoll, Maldives",
28997951-bf31-42e6-b6d3-e5e10b5a2e8b,Gosi Faru,"Asia, Maldives, Kaafu Atoll, Gaafu Dhaalu",0.5046779221256129,73.09616088867189,Indian Ocean,"Gaafu Dhaalu, Kaafu Atoll",
28a3673f-eb37-469f-9dd7-31d7a490011b,Vavathi Kurolhi,"Asia, Maldives, Noonu Atoll, Vavathi",5.800631493701012,73.22456359863283,Indian Ocean,"Vavathi, Noonu Atoll",
28cce2e1-d094-4156-a782-35956352b1a1,Lux Rock,"Asia, Maldives, Ari Atoll, Dhigurah",3.494380834890111,72.89842844009401,Indian Ocean,"Dhigurah, Ari Atoll",
29242d6c-f7b8-4d9c-99c0-2079e9327613,Maafusaru Kandu,"Asia, Maldives, Vaavu Atoll, Felidhu Atoll",3.468700568984083,73.53681564331056,Indian Ocean,"Felidhu Atoll, Vaavu Atoll",
29738293-1db2-489d-8d45-1c5f778f4a4a,Okobe Thila,"Asia, Maldives, Kaafu Atoll, North Male Atoll",4.293176251468611,73.52342605590822,Indian Ocean,"North Male Atoll, Kaafu Atoll","This vibrant thila in North Male Atoll teems with marine life, from swirling schools of fusiliers to patrolling gray reef sharks. The pinnacle rises from 30 meters to 12 meters, draped in soft corals and frequented by eagle rays. Strong currents attract pelagics, making it ideal for drift diving. Clear visibility and warm waters enhance the experience."
29c666b7-0cb4-4d44-9812-c8ec499eac33,Faseyha Feenun,"Asia, Maldives, Noonu Atoll, Loafaru",5.789872099864314,73.28052520751955,Indian Ocean,"Loafaru, Noonu Atoll",
29d38f47-ae13-447a-aa0e-bb825b2cebfb,Gaafaru,"Asia, Maldives, Kaafu Atoll, North Male Atoll",4.756352504164709,73.4973978996277,Indian Ocean,"North Male Atoll, Kaafu Atoll",
2a5a7cbd-b513-4f7b-9fcd-60ea139fa3a5,Madivaru Beyru,"Asia, Maldives, Lhaviyani Atoll, Madivaru",4.496882200624974,73.36390972137453,Indian Ocean,"Madivaru, Lhaviyani Atoll",
2a635afa-94af-46f4-9a3e-e7a431bdf1bb,Mantas And More,"Asia, Maldives, Meemu Atoll",2.880122513608169,73.58247756958009,Indian Ocean,"Meemu Atoll, Maldives",
2ad3de35-8fc1-4ff4-8ad9-448b5214ebd6,Baresdhoo Faru,"Asia, Maldives, Laamu Atoll",1.983665789788499,73.50231170654298,Indian Ocean,"Laamu Atoll, Maldives",
2afd0235-b854-483a-b4a7-8cead3af7d06,Salim&#039;s Lot,"Asia, Maldives, Noonu Atoll, Maafaru",5.795337214423778,73.45527648925783,Indian Ocean,"Maafaru, Noonu Atoll",
2b1bab33-b25f-4f0e-a84c-c3ae13d8577c,Velidhoo Caves,"Asia, Maldives, Noonu Atoll, Dhidhdhoo",5.686366569810108,73.2612991333008,Indian Ocean,"Dhidhdhoo, Noonu Atoll",
2b82c133-f8a3-429c-abb0-81345ec52488,Nurse Shark Place,"Asia, Maldives, Ari Atoll",3.687998614131074,72.98131942749025,Indian Ocean,"Ari Atoll, Maldives",
2bec2ebc-8dd7-492d-a941-4a1617401d0c,Hithadhoo West,"Asia, Maldives, Laamu Atoll, Hithadhoo",1.779842158307812,73.39210510253908,"Seenu Atoll, Hithadhoo","Hithadhoo, Laamu Atoll",
2bf9170b-d210-4d21-9541-15e9ce230c2d,Kandholhudhoo Thila,"Asia, Maldives, Ari Atoll, Kandholhudhoo",4.012048540903384,72.88038253784181,Indian Ocean,"Kandholhudhoo, Ari Atoll",
2c6a6543-2e7d-481a-89da-2fca0fb82b0e,Futtaru Faru,"Asia, Maldives, Ari Atoll",4.21408715546103,72.73464202880861,Indian Ocean,"Ari Atoll, Maldives",
2cdd9b32-3fc6-4b4c-87ad-cdb081c87c62,Fulidhoo Caves,"Asia, Maldives, Vaavu Atoll, Felidhu Atoll, Fulidhoo",3.684743796344929,73.40909957885744,Indian Ocean,"Fulidhoo, Felidhu Atoll",
2cfe4bab-db3e-49c6-8a4b-5030cccdde34,Lhohifaru Faru,"Asia, Maldives, Kaafu Atoll, South Male Atoll",3.858602650341713,73.35931777954103,Indian Ocean,"South Male Atoll, Kaafu Atoll",
2d263b95-54cc-4c2f-b1e4-c4b6ae0787da,Medhufushi Housereef,"Asia, Maldives, Meemu Atoll",2.871550254241133,73.57921600341798,Indian Ocean,"Meemu Atoll, Maldives",
2eafcd66-af2b-4bbe-af4e-395daf060164,Himmafushi Kandu,"Asia, Maldives, Kaafu Atoll, North Male Atoll, Himmafushi",4.307555211069115,73.58144760131837,Indian Ocean,"Himmafushi, North Male Atoll",
2ebe475a-4367-47e3-885e-1276f3982623,Gan Inside,"Asia, Maldives, Seenu Atoll, Hithadhoo",-0.6939241512722337,73.17383766174318,Indian Ocean,"Hithadhoo, Seenu Atoll","This dive site offers a sheltered lagoon with gentle currents, ideal for beginners. The sandy bottom slopes to 20 meters, dotted with coral bommies teeming with reef fish. Look for moray eels hiding in crevices and octopuses camouflaged among the rocks. Visibility often exceeds 30 meters, with sunlight illuminating the vibrant soft corals. The site's protection from strong currents makes it perfect for relaxed exploration and underwater photography."
2fe98446-caa1-4e7d-acd2-66ee4cfd268d,Hanimadhoo Housereef,"Asia, Maldives, Haa Dhaalu, Hanimaadhoo",6.764852074457001,73.16345214843751,Indian Ocean,"Hanimaadhoo, Haa Dhaalu",
3091f8ae-e2b7-4d8d-adb8-bb4eda80a5b4,Two Towers,"Asia, Maldives, Alif Alif Atoll, Thoddoo",4.444911797195963,72.96327352523805,Indian Ocean,"Thoddoo, Alif Alif Atoll",
30de0697-9889-45db-8208-ef7115a2b781,Aidhoo,"Asia, Maldives, Baa Atoll, Aidhoo",5.183610889254358,73.15658569335939,Indian Ocean,"Aidhoo, Baa Atoll",
30e25036-bacc-4636-91a2-0946e9e7cc31,Fesdu Lagoon,"Asia, Maldives, Ari Atoll",3.99346871435784,72.78862953186037,Indian Ocean,"Ari Atoll, Maldives",
30eb8a8b-1a4e-4cfd-bb3e-360988c7f5ad,All Rise,"Asia, Maldives, Noonu Atoll, Maalhendhoo",5.892675656827334,73.46076965332033,Indian Ocean,"Maalhendhoo, Noonu Atoll",
312c58c7-72c6-4f33-aed9-ca985607d691,Donagali Thila,"Asia, Maldives, Ari Atoll",4.096979479978385,72.79523849487306,Indian Ocean,"Ari Atoll, Maldives",
31508c33-1b3c-4ec2-ad66-4525fa39e578,Coral Reef,"Asia, Maldives, Kaafu Atoll, North Male Atoll",4.506435871084641,73.63054275512697,Indian Ocean,"North Male Atoll, Kaafu Atoll",
31586a2f-e41a-4d59-af8c-522bcb060a21,Rasdhoo Faru,"Asia, Maldives, Ari Atoll, Kuramathi",4.258896747840591,72.99470901489259,Indian Ocean,"Kuramathi, Ari Atoll",
31d83d13-ad90-4f24-8fe7-3339e019d793,Aa Thila,"Asia, Maldives, Ari Atoll",3.56310794957506,72.92346954345705,Indian Ocean,"Ari Atoll, Maldives","This dive site in Ari Atoll features a stunning thila (underwater pinnacle) rising from 12 meters to just below the surface. Strong currents attract large pelagics like gray reef sharks, eagle rays, and schools of snapper. The pinnacle is covered in vibrant soft corals and gorgonians, with overhangs sheltering lobsters and moray eels. Best dived at slack tide when visibility often exceeds 30 meters. Suitable for advanced divers due to currents."
31dea74f-51d4-49e9-9c96-a8d1031ae280,Viha Faru,"Asia, Maldives, Noonu Atoll",5.709597166168256,73.27365875244142,Indian Ocean,"Noonu Atoll, Maldives",
32221ed7-da45-4b5a-bd0a-7226eaa2800d,Rozzag Place,"Asia, Maldives, Kaafu Atoll, North Male Atoll",4.577964960961237,73.58779907226564,Indian Ocean,"North Male Atoll, Kaafu Atoll",
32769bbc-1cef-403b-8258-1a8fbacd8331,Rangali Madivaru,"Asia, Maldives, Ari Atoll, Mirihi",3.626497685512196,72.77257919311525,Indian Ocean,"Mirihi, Ari Atoll",
32a60c9e-84fc-4c0a-bb4b-933ad2aa0c70,As You Like It ,"Asia, Maldives, Meemu Atoll",2.973213054515828,73.48789215087892,Indian Ocean,"Meemu Atoll, Maldives",
32a8f55f-ec4b-401c-9e93-5ef6ba370c11,Dhigu Thila (North),"Asia, Maldives, Ari Atoll",4.103828358842236,72.94552803039552,Indian Ocean,"Ari Atoll, Maldives",
331378f9-ea5f-449f-9153-6c235654d858,Giraavaru Thila,"Asia, Maldives, Baa Atoll, Landaagiraavaru",5.292331599402051,73.11641693115236,Indian Ocean,"Landaagiraavaru, Baa Atoll",
338b8f6f-74b3-4afb-a24c-41b152396de2,Shallow Point,"Asia, Maldives, Kaafu Atoll, North Male Atoll, Meeru",4.471182096749808,73.71302604675294,Indian Ocean,"Meeru, North Male Atoll",
33a57bdb-7a2d-4bdb-9a8c-99c47f0b59b8,Maafuna,"Asia, Maldives, Noonu Atoll, Kuredhivaru",5.872184761951899,73.3550262451172,Indian Ocean,"Kuredhivaru, Noonu Atoll",
33eeac5f-c52c-4efc-bbc9-04a4a33156f8,Kurali Corner,"Asia, Maldives, Meemu Atoll, Kureli",2.77330761649324,73.3685874938965,Indian Ocean,"Kureli, Meemu Atoll",
34a9723b-a940-4392-877f-ffba02377d91,Dheeva Thila,"Asia, Maldives, Gaafu Alif Atoll",0.600460504783722,73.32824707031251,Indian Ocean,"Gaafu Alif Atoll, Maldives",
359931a8-c4bb-4f5d-a1d0-e76ec45d38be,Grouper Cave,"Asia, Maldives, Meemu Atoll",2.873093265680489,73.4894371032715,Indian Ocean,"Meemu Atoll, Maldives",
3672cd65-87ca-4a15-b2bb-4c290ddd3b33,Miski Thila,"Asia, Maldives, Laamu Atoll",1.893080456043935,73.41682434082033,Indian Ocean,"Laamu Atoll, Maldives",
36b0771d-cdab-4d89-87a6-45cdb8cb0aa7,Fihali Fara,"Asia, Maldives, Seenu Atoll, Hithadhoo",-0.623719293919992,73.13671588897706,Indian Ocean,"Hithadhoo, Seenu Atoll",
371a8d5d-5034-4594-a779-22e9b04a1c9a,Veligandhoo North Channel,"Asia, Maldives, Raa Atoll, Rasdhu Atoll",4.278026697419888,73.0118751525879,Indian Ocean,"Rasdhu Atoll, Raa Atoll","A thrilling drift dive through a deep channel with strong currents, attracting large pelagics like sharks, rays, and tuna. The steep walls are covered in vibrant soft corals and gorgonians. Excellent visibility often exceeds 30 meters. Best suited for experienced divers due to the challenging conditions. The adrenaline-pumping ride showcases the Maldives' rich marine biodiversity at its finest."
375ef38c-06f0-4275-973f-5edc747a0bc4,Felidhoo Kandu,"Asia, Maldives, Vaavu Atoll, Felidhu Atoll",3.448138718613907,73.54333877563478,Indian Ocean,"Felidhu Atoll, Vaavu Atoll",
377a2bcd-b9d2-454c-a900-037aeb2f981c,Nelivaru,"Asia, Maldives, Baa Atoll",5.124798151733732,73.0803680419922,Indian Ocean,"Baa Atoll, Maldives",
379f9401-15c7-4f96-a5b6-0952faaf79d8,Kiki Reef,"Asia, Maldives, Kaafu Atoll, North Male Atoll, Gulhi Falhu",4.169660196632067,73.46265792846681,Indian Ocean,"Gulhi Falhu, North Male Atoll",
37c8f35a-f768-4c22-b8cf-08c5857dadcb,Veligandu Kandu,"Asia, Maldives, Raa Atoll, Rasdhu Atoll",4.326127631481437,73.00792694091798,Indian Ocean,"Rasdhu Atoll, Raa Atoll",
39a60d2e-f72d-4419-ad0d-29a22ba04674,Kuda Thila,"Asia, Maldives, Ari Atoll",4.043898687911138,72.94578552246095,Indian Ocean,"Ari Atoll, Maldives","Located in the Maldives' Ari Atoll, this stunning thila rises from 30 meters to just 5 meters below the surface. Strong currents attract schools of eagle rays, gray reef sharks, and vibrant tropical fish. The coral-covered pinnacle teems with life, including moray eels and occasional whale sharks. Best dived at slack tide for optimal visibility. Suitable for advanced divers due to currents."
39affa03-36b0-4301-a44e-b13cb8f89373,Monika Thila,"Asia, Maldives, Ari Atoll",4.227440428537387,72.76828765869142,Indian Ocean,"Ari Atoll, Maldives",
39bd6e1c-f2ea-46c8-9725-efaa818eac80,Gulda Lamagu,"Asia, Maldives, Seenu Atoll, Hithadhoo",-0.5901184650582729,73.09547424316408,Indian Ocean,"Hithadhoo, Seenu Atoll",
3a546854-b438-401c-a2e2-4e1a9903f991,Nakolhu Giri,"Asia, Maldives, Lhaviyani Atoll, Huruvalhi",5.517233468677989,73.4480667114258,Indian Ocean,"Huruvalhi, Lhaviyani Atoll","This dive site features a stunning thila rising from the depths, covered in vibrant soft and hard corals. Schools of snapper, trevally, and fusiliers swirl around the pinnacle, while eagle rays and reef sharks patrol the blue. The current can be strong, making it ideal for drift diving. Visibility often exceeds 30 meters, revealing a thriving reef ecosystem. The top of the thila sits at 12 meters, with the base dropping to 30 meters, offering varied terrain for all levels. Expect encounters with turtles, moray eels, and occasional whale sharks passing by."
3a54cab8-4757-40d7-ba07-00282c609c3f,Chapati,"Asia, Maldives, Meemu Atoll",2.862806483412978,73.54076385498048,Indian Ocean,"Meemu Atoll, Maldives",
3a913489-b2d6-4add-a62f-c184126fd0b3,Divers Paradise,"Asia, Maldives, Meemu Atoll",3.142572944825523,73.48926544189455,Indian Ocean,"Meemu Atoll, Maldives","This dive site in Meemu Atoll offers crystal-clear waters with vibrant coral gardens teeming with reef sharks, turtles, and colorful tropical species. Strong currents attract pelagic life, making it ideal for drift diving. The steep drop-offs and overhangs create dramatic underwater landscapes. Visibility often exceeds 30 meters, with warm water year-round. Expect encounters with eagle rays and occasional manta sightings. The healthy reef system and abundant marine life make it a must-dive spot in the Maldives."
3bef99c7-838e-496d-b22e-e681a3d5fc86,British Loyalty Wreck,"Asia, Maldives, Seenu Atoll, Hithadhoo",-0.64938108576351,73.12088012695314,Indian Ocean,"Hithadhoo, Seenu Atoll",
3d30d23f-db4e-49f1-b1a9-446d55775516,Meradhoo Kandu,"Asia, Maldives, Kaafu Atoll, Gaafu Dhaalu",0.5839818929568642,73.02818298339845,Indian Ocean,"Gaafu Dhaalu, Kaafu Atoll",
3d4423d0-82df-4c25-8f60-38672b9987b0,Heaven And Hell,"Asia, Maldives, Haa Dhaalu, Finey",6.750191753533254,73.07006835937501,Indian Ocean,"Finey, Haa Dhaalu",
3dc11df1-c7fd-4e08-9a4a-65d9bb83de44,Miyaru Faru,"Asia, Maldives, Kaafu Atoll, North Male Atoll",4.528040798919557,73.65204334259035,Indian Ocean,"North Male Atoll, Kaafu Atoll",
3dc7bfd6-6cac-4d5b-b4ac-9a80d8b7e918,Iravandhoo Inside,"Asia, Maldives, Haa Alif Atoll, Ihavandhoo",6.954032225157333,72.9302501678467,Indian Ocean,"Ihavandhoo, Haa Alif Atoll",
3dcf2a62-2dfd-4d81-b727-8b13c48c4987,Thiladhoo,"Asia, Maldives, Baa Atoll",5.254384068418068,73.14817428588869,Indian Ocean,"Baa Atoll, Maldives",
3df15c08-ac55-4f00-ae9c-42239a76d81d,Mattey Muli,"Asia, Maldives, Haa Alif Atoll, Gallandhoo",6.943978602094795,72.98080444335939,Indian Ocean,"Gallandhoo, Haa Alif Atoll",
3e035cf2-ae9f-49e6-a636-de727621752a,Iruveli House Reef,"Asia, Maldives, Haa Alif Atoll, Manafaru",6.994585330485481,72.95127868652345,Indian Ocean,"Manafaru, Haa Alif Atoll","This house reef offers vibrant coral gardens teeming with reef fish, turtles, and occasional reef sharks. Gentle currents make it ideal for all levels. The slope drops to 30 meters, with overhangs and swim-throughs. Expect excellent visibility and warm waters year-round. Night dives reveal octopus and crustaceans. A short swim from shore, it's perfect for easy access and repeat dives."
3ed45a85-1ad0-4fdf-98e7-6ea5676c145b,Mahibadhoo Manta Point,"Asia, Maldives, Alif Dhaal Atoll",3.728168933350646,72.95986175537111,"Asia, Maldives, Alif Dhaal Atoll","Alif Dhaal Atoll, Maldives",
3ee48fb1-209d-4f62-81c3-cee6dc22bb9a,Madivaru Kantu,"Asia, Maldives, Lhaviyani Atoll, Madivaru",5.469047269853005,73.37562561035158,Indian Ocean,"Madivaru, Lhaviyani Atoll","This dive site in the Maldives' Lhaviyani Atoll features a stunning coral-covered thila rising from the depths. Strong currents attract large schools of fish, including barracuda, trevally, and reef sharks. The pinnacle's steep walls are adorned with colorful soft corals and sponges. Eagle rays and turtles are common sightings. Visibility often exceeds 30 meters, making it ideal for drift diving. The site offers both thrilling drift dives and sheltered areas for calmer exploration. Night dives reveal octopus and lobsters. Suitable for experienced divers due to currents."
3f353482-bcc0-4951-9684-c18f490901f6,Bat Reef,"Asia, Maldives, Kaafu Atoll, North Male Atoll",4.639982426791123,73.48454475402833,Indian Ocean,"North Male Atoll, Kaafu Atoll",
3feb7899-3c34-411b-bd46-0285a7bdcbae,Guruwa Faru,"Asia, Maldives, Kaafu Atoll, North Male Atoll",4.549217280303638,73.62573623657228,Indian Ocean,"North Male Atoll, Kaafu Atoll",
4006b71e-fe43-4c81-9b22-422a940f8657,Rasfari Corner,"Asia, Maldives, Kaafu Atoll, North Male Atoll, Rasfari",4.448762551267166,73.3491897583008,Indian Ocean,"Rasfari, North Male Atoll","Dive into strong currents along a vibrant reef wall teeming with marine life. Expect schooling fish, eagle rays, and occasional reef sharks. The steep drop-off and healthy coral formations create a dramatic underwater landscape. Best suited for experienced divers due to the swift currents. Visibility is typically excellent, offering clear views of the thriving ecosystem."
40564efe-ab9e-4d34-b658-582beb6ff0e2,Kan&#039;doodhoo,"Asia, Maldives, Noonu Atoll, Raafushi",5.650493955135833,73.30490112304689,Indian Ocean,"Raafushi, Noonu Atoll",
40de4df8-2912-472d-aea3-1fdeada0efcc,Turtles Reef,"Asia, Maldives, Baa Atoll",5.211476644270958,73.19452285766603,Indian Ocean,"Baa Atoll, Maldives",
41c27c7d-4d27-43f6-a341-c90b643e8d58,Rayvilla Wreck,"Asia, Maldives, Meemu Atoll",2.982127394191681,73.41133117675783,Indian Ocean,"Meemu Atoll, Maldives",
4285907d-436a-412e-b916-028078d45f3b,Veymandhoo Kandu,"Asia, Maldives, Thaa Atoll, Veymandoo",2.181632065922384,73.10577392578126,Indian Ocean,"Veymandoo, Thaa Atoll","This channel dive in the Maldives offers thrilling currents that attract large pelagics like sharks, rays, and tuna. The steep walls are covered in vibrant soft corals and gorgonians, while overhangs and swim-throughs add excitement. Strong currents make this best for experienced divers, but the abundance of marine life and dramatic topography create unforgettable encounters. Visibility is excellent, often exceeding 30 meters."
42b9b668-2e7a-4bf1-b6b2-70a104af978d,Hithadhoo Corner,"Asia, Maldives, Laamu Atoll, Hithadhoo",1.799058856396681,73.41339111328126,"Seenu Atoll, Hithadhoo","Hithadhoo, Laamu Atoll",
4353e40c-8097-4f21-b966-77ee18c0ec7c,Boahura Express,"Asia, Maldives, Meemu Atoll",2.877465120096257,73.58247756958009,Indian Ocean,"Meemu Atoll, Maldives",
440b1054-ceca-418e-aacb-037d69bdfd38,Lankan Beyru,"Asia, Maldives, Kaafu Atoll, North Male Atoll, Himmafushi",4.281707125151844,73.55990409851076,Indian Ocean,"Himmafushi, North Male Atoll",
44bf42a5-ec6f-4af2-9e35-ab65350a2c1e,Saddle,"Asia, Maldives, Kaafu Atoll, North Male Atoll",4.579504982754406,73.37253570556642,Indian Ocean,"North Male Atoll, Kaafu Atoll",
44c50586-157e-4b71-95a1-19d59c633ce0,Becky&#039;s Caves,"Asia, Maldives, Haa Alif Atoll, Madulu",7.060689557199144,72.9430389404297,Indian Ocean,"Madulu, Haa Alif Atoll",
44f48eb4-5efe-463f-a7af-92a8a8ffdbc6,Velidhoo Manta Point,"Asia, Maldives, Ari Atoll, Velidhoo",4.177450076945328,72.81583786010744,Indian Ocean,"Velidhoo, Ari Atoll",
455c7122-e10a-4e3f-846b-4e3d4cb1034a,Manta Point,"Asia, Maldives, Kaafu Atoll, Gaafu Dhaalu",0.2228159056637065,73.34129333496095,Indian Ocean,"Gaafu Dhaalu, Kaafu Atoll",
45b794ba-9aa1-46b9-a933-59c961d55c72,Equator Village Hausriff,"Asia, Maldives, Seenu Atoll, Hithadhoo",-0.6870581948166491,73.15366744995119,Indian Ocean,"Hithadhoo, Seenu Atoll",
45f41977-752c-443c-acf3-8ec3a0113bbf,1000 Rocks,"Asia, Maldives, Meemu Atoll",2.949212551786794,73.48823547363283,Indian Ocean,"Meemu Atoll, Maldives",
460dea07-9a95-43b4-b320-d4f367466809,Baracuda Point,"Asia, Maldives, Ari Atoll",3.606624621323686,72.81549453735353,Indian Ocean,"Ari Atoll, Maldives",
462c28d6-bd8f-495d-a44b-e70e97e7b442,Gadhoo Corner,"Asia, Maldives, Laamu Atoll",1.815873301234385,73.42849731445314,Indian Ocean,"Laamu Atoll, Maldives",
46e38774-6fda-4a30-93c7-e3f4ebee2330,Kuda Faru,"Asia, Maldives, Kaafu Atoll, North Male Atoll",4.468443868358693,73.63414764404298,Indian Ocean,"North Male Atoll, Kaafu Atoll",
47fe0861-d868-4fc6-ab8b-5448781d7f63,Maagiri South,"Asia, Maldives, Lhaviyani Atoll",5.510740520384839,73.49905014038087,Indian Ocean,"Lhaviyani Atoll, Maldives",
4866f9c5-07cf-47b4-b297-e279293236f0,Coral Garden,"Asia, Maldives, Ari Atoll",4.152967336142479,72.9239845275879,Indian Ocean,"Ari Atoll, Maldives",
4883f607-6579-456e-949b-5d780b8ee9d1,Donkalo Thila,"Asia, Maldives, Ari Atoll",3.95331088064439,72.7174758911133,Indian Ocean,"Ari Atoll, Maldives",
48e6e2ac-c0da-4ecc-b1bf-4fc739cf2939,Coral Garden 2,"Asia, Maldives, Kaafu Atoll, Gaafu Dhaalu",0.3148253811102709,73.33923339843751,Indian Ocean,"Gaafu Dhaalu, Kaafu Atoll",
49aa37d8-60dc-47ad-b35f-090b2139fa8c,Madivaru Corner,"Asia, Maldives, Lhaviyani Atoll, Madivaru",4.262491674052261,72.99996614456178,"Raa Atoll, Rasdhu Atoll, Madivaru","Madivaru, Lhaviyani Atoll",
49e41f29-08f6-46e2-b250-c911529a3651,Ocean Side,"Asia, Maldives, Kaafu Atoll, North Male Atoll, Himmafushi",4.302163133022288,73.57775688171388,Indian Ocean,"Himmafushi, North Male Atoll",
49ec2945-b7f4-4ff9-aaa5-9103ce3681f0,Komandoo Kandu,"Asia, Maldives, Lhaviyani Atoll",5.502367929651169,73.4136486053467,Indian Ocean,"Lhaviyani Atoll, Maldives",
4b6a4c23-0fa4-47a9-9998-066d56052c6f,Dhigu Thila,"Asia, Maldives, Kaafu Atoll, North Male Atoll, Gulhi",3.980197152039314,73.51604461669923,Indian Ocean,"Gulhi, North Male Atoll",
4b8ec836-e5f5-42a5-9c84-2dbdc336086a,Bodu Giri (Gaafu Alifu/dhaalu),"Asia, Maldives, Kaafu Atoll, Gaafu Dhaalu",0.4463150663570766,73.24104309082033,Indian Ocean,"Gaafu Dhaalu, Kaafu Atoll",
