id,name,region,latitude,longitude,ocean,location,description
02ae7273-dc0e-4dc2-91a7-54140472217a,Mayhem,"Asia, Indonesia, West Papua, Raja Ampat Islands, Waigeo Island, Gam Island, Janggelo Island",-0.5120161571494138,130.4471111297608,"Pacific Ocean, Halmahera Sea","Janggelo Island, Gam Island",
02df6eb0-0dc8-4478-a134-05acf5adfb50,Southeastside Lagoon,"Asia, Indonesia, West Papua, Raja Ampat Islands, Waigeo Island, Pulau Wajang",0.155850036112812,130.0662039246131,"Pacific Ocean, Halmahera Sea","Pulau Wajang, Waigeo Island",
0765e400-1d32-44fb-b38a-0c7cc1fd78bc,White Wall,"Asia, Indonesia, West Papua, Raja Ampat Islands, Waigeo Island",-0.2018733616186114,130.3129577636719,"Pacific Ocean, Halmahera Sea","Waigeo Island, Raja Ampat Islands",
0aecf177-78f8-4731-9f74-2c0e8153276c,Yeben Shallows,"Asia, Indonesia, West Papua, Raja Ampat Islands, Waigeo Island",-0.4957518707149342,130.3253173828125,"Pacific Ocean, Halmahera Sea","Waigeo Island, Raja Ampat Islands",
12df38b8-4e16-4e7d-9bbc-7bccc3efd157,Harto&#039;s Reef,"Asia, Indonesia, West Papua, Raja Ampat Islands, Fam Islands, Groot Fam Island",-0.5891314644060588,130.2902984619141,"Pacific Ocean, Halmahera Sea","Groot Fam Island, Fam Islands",
14138278-bdde-478f-b83f-0869998cca05,Five Rocks,"Asia, Indonesia, West Papua, Raja Ampat Islands, Waigeo Island, Gam Island",-0.4566144292225512,130.708122253418,"Pacific Ocean, Halmahera Sea","Gam Island, Waigeo Island","This dive site features dramatic underwater rock formations surrounded by vibrant coral gardens. Strong currents attract schooling fish, barracuda, and reef sharks. The site offers excellent visibility and diverse marine life, including pygmy seahorses and colorful nudibranchs. Depths range from shallow reefs to deeper drop-offs, suitable for various skill levels. The area is known for its rich biodiversity and pristine conditions."
19d402c2-5f09-4187-af6b-f3b4dcdf202f,Batu Rufus,"Asia, Indonesia, West Papua, Raja Ampat Islands, Fam Islands, Groot Fam Island",-0.565933599911723,130.2840328216553,"Pacific Ocean, Halmahera Sea","Groot Fam Island, Fam Islands",
1a212459-f1bf-43d0-929b-a10e4a5639f9,Quoy Rocks,"Asia, Indonesia, West Papua, Raja Ampat Islands, Waigeo Island, Pulau Quoy",0.1237677565274894,130.1449012756348,"Pacific Ocean, Halmahera Sea","Pulau Quoy, Waigeo Island",
1c8597c0-c6b5-42a6-a365-b0c205ed2f0a,Weka&#039;s Wow,"Asia, Indonesia, West Papua, Raja Ampat Islands, Waigeo Island, Kawe Island",0.02197265571143263,130.1490211486817,"Maluku, Halmahera Island","Kawe Island, Waigeo Island",
1dff8522-fac2-4b8b-9457-fa4c7a5ad96c,Ridge Rock,"Asia, Indonesia, West Papua, Raja Ampat Islands, Waigeo Island, Pulau Wajang",0.1629493424070766,130.0129795074463,"Pacific Ocean, Halmahera Sea","Pulau Wajang, Waigeo Island",
21267658-6d7a-4507-b9fa-896c1fe6a06f,Pulau Yum,"Asia, Indonesia, West Papua, Raja Ampat Islands, Batanta Island",-0.7857553217843226,130.7578182220459,"Pacific Ocean, Halmahera Sea","Batanta Island, Raja Ampat Islands",
21b960e9-ae2f-4973-bcfe-e5f5289cbe0a,Quoy Southside,"Asia, Indonesia, West Papua, Raja Ampat Islands, Waigeo Island, Pulau Quoy",0.1357164051530227,130.1259187180734,"Pacific Ocean, Halmahera Sea","Pulau Quoy, Waigeo Island","A vibrant reef slopes to 30 meters with healthy hard corals and frequent sightings of wobbegong sharks. Strong currents attract schooling barracuda and trevally, while pygmy seahorses hide in the soft corals. The site offers excellent visibility, often exceeding 20 meters, making it ideal for drift diving. The steep wall transitions to a sandy bottom where occasional reef sharks patrol. Best dived during slack tide for optimal conditions."
2480427f-94e2-424a-80b7-56ae0d0ba146,Red Patch Wall,"Asia, Indonesia, West Papua, Raja Ampat Islands, Waigeo Island",-0.2454750180646782,130.2927017211914,"Pacific Ocean, Halmahera Sea","Waigeo Island, Raja Ampat Islands",
3342771e-da3b-4c40-b709-4d2d8891f2d7,Neptune&#039;s Fan Sea,"Asia, Indonesia, West Papua, Raja Ampat Islands, Misool Island",-2.243384088905482,130.466423034668,"Pacific Ocean, Halmahera Sea","Misool Island, Raja Ampat Islands",
38ac1419-3fc3-4bf3-950f-1e9ac22c31b8,Edi&#039;s Cave,"Asia, Indonesia, West Papua, Raja Ampat Islands, Waigeo Island, Uranie Island",0.1023530415698091,130.2763938903809,"Maluku, Halmahera Island","Uranie Island, Waigeo Island",
38b43dc8-0ca8-4165-8d77-9d4a13a2d5be,Two Hump Rock,"Asia, Indonesia, West Papua, Raja Ampat Islands, Waigeo Island, Pulau Wajang",0.1709744776998467,130.0078296661377,"Pacific Ocean, Halmahera Sea","Pulau Wajang, Waigeo Island",
3c915329-e7ab-4a75-8076-7eb24821b4ef,Pet Rock,"Asia, Indonesia, West Papua, Raja Ampat Islands, Misool Island",-1.990871231347072,130.6574821472168,"Pacific Ocean, Halmahera Sea","Misool Island, Raja Ampat Islands",
41808588-4112-42c9-94f5-706fcecae02b,Cendana Fuel Dock,"Asia, Indonesia, West Papua, Raja Ampat Islands, Waigeo Island",-0.1896854750302708,130.2571678161621,"Pacific Ocean, Halmahera Sea","Waigeo Island, Raja Ampat Islands",
44549fff-a7d8-4286-83e7-03aa9d9173b4,White Arrow,"Asia, Indonesia, West Papua, Raja Ampat Islands, Waigeo Island",-0.2125162973844699,130.2779388427735,"Pacific Ocean, Halmahera Sea","Waigeo Island, Raja Ampat Islands",
462290a6-364d-40e6-9de2-9f3864ee7b9a,Manta Ridge,"Asia, Indonesia, West Papua, Raja Ampat Islands, Mansuar Island",-0.5651000909319861,130.5335426330567,"Pacific Ocean, Halmahera Sea","Mansuar Island, Raja Ampat Islands",
470ca589-ae65-47ef-b725-de2dd5b584e6,Warna Berwarna,"Asia, Indonesia, West Papua, Raja Ampat Islands, Misool Island, Daram Island",-2.093459523014201,130.8699989318848,"Pacific Ocean, Halmahera Sea","Daram Island, Misool Island","This vibrant dive spot near Daram Island dazzles with colorful soft corals covering dramatic underwater ridges. Schools of batfish and barracuda patrol the steep walls while pygmy seahorses hide in the coral. Strong currents bring nutrient-rich waters, attracting manta rays and reef sharks. The site's pinnacles rise from 30 meters to just below the surface, offering thrilling drift dives. Visibility often exceeds 20 meters, revealing the full spectrum of Raja Ampat's marine biodiversity. Night dives showcase bioluminescent plankton and hunting octopuses."
4d7a8828-0710-41a3-b9f4-8199061558ea,Chanel No. 5,"Asia, Indonesia, West Papua, Raja Ampat Islands, Waigeo Island",-0.1830765469884625,130.2138233184815,"Pacific Ocean, Halmahera Sea","Waigeo Island, Raja Ampat Islands",
4d8ed2be-57f3-4977-978d-d109dc631ac0,Penemu,"Asia, Indonesia, West Papua, Raja Ampat Islands, Fam Islands, Groot Fam Island",-0.608871443843036,130.2873802185059,"Pacific Ocean, Halmahera Sea","Groot Fam Island, Fam Islands",
4eb93b98-52e5-4b82-81b9-08995aa639c7,Orange Peel,"Asia, Indonesia, West Papua, Raja Ampat Islands, Misool Island",-2.26533973916268,130.3764724731446,"Pacific Ocean, Halmahera Sea","Misool Island, Raja Ampat Islands",
4f80ceaa-2823-4775-ae95-9a773babbc21,Saunek Jerry,"Asia, Indonesia, West Papua, Raja Ampat Islands, Waigeo Island",-0.4511214375092931,130.8344650268555,"Pacific Ocean, Halmahera Sea","Waigeo Island, Raja Ampat Islands",
504236c7-5c6a-4427-833d-0364c2bba3d0,Far Out Rock,"Asia, Indonesia, West Papua, Raja Ampat Islands, Waigeo Island, Pulau Wajang",0.1781842220589326,129.9961137771607,"Pacific Ocean, Halmahera Sea","Pulau Wajang, Waigeo Island",
5237251a-a983-4847-8692-fa57e50e6c3f,Barracuda Reef,"Asia, Indonesia, West Papua, Raja Ampat Islands, Fam Islands, Groot Fam Island",-0.5424418476692586,130.2717590332032,"Pacific Ocean, Halmahera Sea","Groot Fam Island, Fam Islands","This dive site off Groot Fam Island features a stunning reef teeming with barracuda schools. Strong currents attract pelagic action, while vibrant soft corals and sea fans cover the slopes. Expect clear visibility and dramatic underwater topography with overhangs and swim-throughs. Sharks, rays, and turtles frequent the area, making it a thrilling drift dive. Best suited for experienced divers due to the currents."
54a363d6-39c1-4745-988b-69243cf3bdc7,Melissa&#039;s Garden,"Asia, Indonesia, West Papua, Raja Ampat Islands, Fam Islands, Groot Fam Island",-0.5951392917455673,130.3266906738282,"Pacific Ocean, Halmahera Sea","Groot Fam Island, Fam Islands",
5bd158df-6e72-4e65-86c0-4ddaf9d714a4,Galaxy,"Asia, Indonesia, West Papua, Raja Ampat Islands, Fam Islands, Groot Fam Island",-0.5620103356121294,130.2770805358887,"Pacific Ocean, Halmahera Sea","Groot Fam Island, Fam Islands",
5e06f1ca-debc-4289-8da4-328f809d9184,Citrus Ridge,"Asia, Indonesia, West Papua, Raja Ampat Islands, Waigeo Island, Gam Island, Janggelo Island",-0.5115655640115644,130.4564666748047,"Pacific Ocean, Halmahera Sea","Janggelo Island, Gam Island",
60d23830-44a5-4698-94e3-c738904e08cc,My Reef,"Asia, Indonesia, West Papua, Raja Ampat Islands, Fam Islands, Groot Fam Island",-0.6013048840244533,130.2965211868286,"Pacific Ocean, Halmahera Sea","Groot Fam Island, Fam Islands",
675747ab-94ee-4a46-8574-be32468d09e8,Four Kings,"Asia, Indonesia, West Papua, Raja Ampat Islands, Misool Island",-2.224172624450193,130.3750991821289,"Pacific Ocean, Halmahera Sea","Misool Island, Raja Ampat Islands",
6a999d43-866c-47d0-a585-e71d3d1d42c7,Blue Magic,"Asia, Indonesia, West Papua, Raja Ampat Islands, Waigeo Island",-0.499184968847119,130.8190155029297,"Pacific Ocean, Halmahera Sea","Waigeo Island, Raja Ampat Islands",
6ab959dd-c39e-4a9c-a712-1f1486e041d4,Friwen Bonda,"Asia, Indonesia, West Papua, Raja Ampat Islands, Waigeo Island, Gam Island",-0.4746279970679619,130.6966209385428,"Pacific Ocean, Halmahera Sea","Gam Island, Waigeo Island",
6bb19207-eea4-4baa-86ab-3deffb2a0af8,Nudi Rock,"Asia, Indonesia, West Papua, Raja Ampat Islands, Misool Island, Warakaraket",-2.238581246364812,130.5804061889649,"Pacific Ocean, Halmahera Sea","Warakaraket, Misool Island",
75bce646-b428-4e08-9c97-e4ac1f196065,Mike&#039;s Point,"Asia, Indonesia, West Papua, Raja Ampat Islands, Waigeo Island, Gam Island",-0.5221866794975424,130.6665802001953,"Pacific Ocean, Halmahera Sea","Gam Island, Waigeo Island",
7af8d222-07c8-45ee-bf64-a2eb4dcf45e4,Nudibranch Mangroves And Reef,"Asia, Indonesia, West Papua, Raja Ampat Islands, Waigeo Island, Gam Island, Janggelo Island",-0.5383221578577079,130.5795478820801,"Pacific Ocean, Halmahera Sea","Janggelo Island, Gam Island",
7ca7c6d2-ce9f-47a3-b6f0-d5d8d3e981cd,Yangello,"Asia, Indonesia, West Papua, Raja Ampat Islands, Waigeo Island, Gam Island, Janggelo Island",-0.5033046842388789,130.4468536376953,"Pacific Ocean, Halmahera Sea","Janggelo Island, Gam Island",
7fa0131e-e298-4e8a-92e2-37fcac81b53d,Caves &amp; Wall,"Asia, Indonesia, West Papua, Raja Ampat Islands, Misool Island",-1.961363034174221,130.554313659668,"Pacific Ocean, Halmahera Sea","Misool Island, Raja Ampat Islands",
8094d0be-ae31-440a-8487-29fbacd0ee26,Passage,"Asia, Indonesia, West Papua, Raja Ampat Islands, Waigeo Island, Gam Island",-0.4071773587719575,130.5893325805664,"Pacific Ocean, Halmahera Sea","Gam Island, Waigeo Island",
8416383c-5e45-44ad-94cd-dffc6dedc01d,Whale Rock,"Asia, Indonesia, West Papua, Raja Ampat Islands, Misool Island",-2.207705455705408,130.5831527709961,"Pacific Ocean, Halmahera Sea","Misool Island, Raja Ampat Islands",
85fc181a-6f77-4f40-acc5-53dad5661a70,Ikan Campur,"Asia, Indonesia, West Papua, Raja Ampat Islands, Waigeo Island, Pulau Quoy",0.1201628757795576,130.1411247253418,"Pacific Ocean, Halmahera Sea","Pulau Quoy, Waigeo Island",
87693d81-760c-4ec5-8043-d5594c9321ca,The Candy Store,"Asia, Indonesia, West Papua, Raja Ampat Islands, Misool Island, Daram Island",-2.109584839528138,130.8885383605957,"Pacific Ocean, Halmahera Sea","Daram Island, Misool Island","This site dazzles with vibrant soft corals covering every surface, creating a kaleidoscope of colors. Schools of fusiliers and batfish swirl around healthy hard coral bommies. Gentle currents bring in reef sharks and occasional manta rays. The shallow reef slopes to a sandy bottom at 20 meters, perfect for relaxed exploration. Crystal-clear visibility highlights the thriving marine life. Ideal for photographers, the coral formations provide endless macro opportunities. Dive during slack tide for the calmest conditions."
8ba3c6f3-fcbe-4542-8eab-030dfc02ca7a,Ransiwor,"Asia, Indonesia, West Papua, Raja Ampat Islands, Mansuar Island, Kri Island",-0.5523621072734736,130.6842585808994,"Pacific Ocean, Halmahera Sea","Kri Island, Mansuar Island",
8e416532-6870-4a86-9fd7-bf1698b28771,Equator Islands,"Asia, Indonesia, West Papua, Raja Ampat Islands, Waigeo Island, Kawe Island",0.00343322753700862,130.1663589477539,"Maluku, Halmahera Island","Kawe Island, Waigeo Island",
8eaf5728-1841-47a5-a1f5-2728656f4d6b,Sawandarak Jetty,"Asia, Indonesia, West Papua, Raja Ampat Islands, Arborek Island",-0.5901826656192535,130.6048464775086,"Pacific Ocean, Halmahera Sea","Arborek Island, Raja Ampat Islands",
8f1983b2-eac2-41b4-baa0-e36f5071179f,Farondi Cave,"Asia, Indonesia, West Papua, Raja Ampat Islands, Misool Island, Daram Island",-2.132571703532991,130.8633041381836,"Pacific Ocean, Halmahera Sea","Daram Island, Misool Island",
95b85005-1c95-45ce-9cff-18abc236153a,Yellist Kecil,"Asia, Indonesia, West Papua, Raja Ampat Islands, Misool Island, Kanim Island",-2.180945917958322,130.6305313110352,"Pacific Ocean, Halmahera Sea","Kanim Island, Misool Island","This dive site near Kanim Island offers stunning coral gardens and steep walls covered in soft corals. Schools of barracuda and trevally patrol the blue, while reef sharks often cruise by. The current can be strong, making it ideal for drift diving. Visibility is excellent, often exceeding 30 meters. The vibrant marine life and dramatic drop-offs create an unforgettable underwater experience."
9ac03377-ff26-4362-b9ba-7cb490daca2b,Reflection Reef 1,"Asia, Indonesia, West Papua, Raja Ampat Islands, Batanta Island",-0.9181774036372855,130.4746627807617,"Pacific Ocean, Halmahera Sea","Batanta Island, Raja Ampat Islands",
9c8f6788-f12e-4137-89ca-d02d2d20a82c,Happy Ending,"Asia, Indonesia, West Papua, Raja Ampat Islands, Batanta Island",-0.9066775497436963,130.547103881836,"Pacific Ocean, Halmahera Sea","Batanta Island, Raja Ampat Islands",
9d6bdeff-d85b-44a0-b7c1-1f836bbad01f,Andamo,"Asia, Indonesia, West Papua, Raja Ampat Islands, Misool Island, Daram Island",-2.100321380179621,130.8447647094727,"Pacific Ocean, Halmahera Sea","Daram Island, Misool Island",
9fa8b228-ced1-4907-9efa-3e00a7551c8b,Keruo Channel,"Asia, Indonesia, West Papua, Raja Ampat Islands, Fam Islands, Groot Fam Island",-0.5867283316528126,130.2973365783692,"Pacific Ocean, Halmahera Sea","Groot Fam Island, Fam Islands",
a5106dcc-0c7b-4204-ba7d-e78ddc91df88,Reflection Reef 2,"Asia, Indonesia, West Papua, Raja Ampat Islands, Batanta Island",-0.910625264922633,130.4914855957032,"Pacific Ocean, Halmahera Sea","Batanta Island, Raja Ampat Islands",
ac1364e3-dce9-469c-acdd-b6e0b27eba86,Boo Point East,"Asia, Indonesia, West Papua, Raja Ampat Islands, Misool Island, Warakaraket",-2.239953488698097,130.6167984008789,"Pacific Ocean, Halmahera Sea","Warakaraket, Misool Island",
ac259ab8-ea82-4b46-89c9-6affd241a4b8,Cape Kri,"Asia, Indonesia, West Papua, Raja Ampat Islands, Mansuar Island, Kri Island",-0.556860739784772,130.6938743591309,"Pacific Ocean, Halmahera Sea","Kri Island, Mansuar Island","Cape Kri offers thrilling drift dives with strong currents, attracting large schools of fish like barracuda, trevally, and batfish. The vibrant coral reefs teem with life, including reef sharks, wobbegongs, and occasional manta rays. Visibility often exceeds 30 meters, showcasing the dramatic underwater topography of pinnacles and slopes. This site is best for experienced divers due to the currents. The rich biodiversity makes it a must-dive spot in Raja Ampat."
ae38ff1f-b0e7-4355-86c1-895683aa7a0d,Macro Rock,"Asia, Indonesia, West Papua, Raja Ampat Islands, Misool Island",-2.024496206965569,130.6159400939942,"Pacific Ocean, Halmahera Sea","Misool Island, Raja Ampat Islands","This dive site near Misool Island offers stunning underwater topography with dramatic rock formations covered in soft corals and sea fans. Schools of batfish and barracuda patrol the area, while critters like pygmy seahorses and nudibranchs hide among the vibrant reef. Strong currents bring pelagics, making it ideal for drift diving. Visibility often exceeds 30 meters, revealing a thriving ecosystem in Raja Ampat's nutrient-rich waters."
b0ba4dd3-d02b-42f3-96e4-7d66c23c0a0b,Farm Village,"Asia, Indonesia, West Papua, Raja Ampat Islands, Fam Islands",-0.7195855745039547,130.2442932128907,"Pacific Ocean, Halmahera Sea","Fam Islands, Raja Ampat Islands",
b3c16e27-ede5-43c8-8d7f-f2e57c57bd1f,Eagle Rock,"Asia, Indonesia, West Papua, Raja Ampat Islands, Waigeo Island",-0.1922603813812084,130.1433563232422,"Pacific Ocean, Halmahera Sea","Waigeo Island, Raja Ampat Islands",
b46888d1-3309-40e0-b6f8-876de80ec061,Lalosi,"Asia, Indonesia, West Papua, Raja Ampat Islands, Waigeo Island, Gam Island, Janggelo Island",-0.5383221578577079,130.4605865478516,"Pacific Ocean, Halmahera Sea","Janggelo Island, Gam Island",
b73e1cb2-7653-4ca9-a0a2-c039da170cf3,Sardine Reef,"Asia, Indonesia, West Papua, Raja Ampat Islands, Mansuar Island, Kri Island",-0.5390087730201523,130.7098388671875,"Pacific Ocean, Halmahera Sea","Kri Island, Mansuar Island",
b754e2c9-bb36-4a67-b09b-d107939f0b53,Razorback Rock,"Asia, Indonesia, West Papua, Raja Ampat Islands, Misool Island",-2.025182423734126,130.6451225280762,"Pacific Ocean, Halmahera Sea","Misool Island, Raja Ampat Islands",
b7764299-0d67-4b6a-a475-142169f611c2,The Bommie Bowl,"Asia, Indonesia, West Papua, Raja Ampat Islands, Waigeo Island, Pulau Wajang",0.1495168896288514,130.0606155395508,"Pacific Ocean, Halmahera Sea","Pulau Wajang, Waigeo Island",
b88fa7f3-142b-43db-a321-8786e9a5254b,Boo Rocks,"Asia, Indonesia, West Papua, Raja Ampat Islands, Misool Island",-2.212508398830294,130.6195449829102,"Pacific Ocean, Halmahera Sea","Misool Island, Raja Ampat Islands",
bdd669ca-93d2-4e3a-9cea-0faf5adb2b3d,Y Reef,"Asia, Indonesia, West Papua, Raja Ampat Islands, Waigeo Island, Coquille Island",0.09389873116108828,130.2333927154541,"Pacific Ocean, Halmahera Sea","Coquille Island, Waigeo Island",
be54a273-743c-41a0-862b-26020441b9c7,Mangrove Ridge,"Asia, Indonesia, West Papua, Raja Ampat Islands, Waigeo Island, Gam Island, Janggelo Island",-0.5121663548549907,130.4597711563111,"Pacific Ocean, Halmahera Sea","Janggelo Island, Gam Island",
c8f16de4-4454-4dbd-afed-3c4dba8d7628,Karang Bayangan,"Asia, Indonesia, West Papua, Raja Ampat Islands, Misool Island",-2.193296533337936,130.5477905273438,"Pacific Ocean, Halmahera Sea","Misool Island, Raja Ampat Islands",
ca22aac4-72f2-4f8a-8b8d-05291610cfd7,Otdima Reef,"Asia, Indonesia, West Papua, Raja Ampat Islands, Waigeo Island, Gam Island",-0.5445016915246877,130.631046295166,"Pacific Ocean, Halmahera Sea","Gam Island, Waigeo Island",
cff0f776-d8d4-4def-be95-4957233b6298,Snorkeller&#039;s Paradise,"Asia, Indonesia, West Papua, Raja Ampat Islands, Fam Islands",-0.7367503258434163,130.1646423339844,"Pacific Ocean, Halmahera Sea","Fam Islands, Raja Ampat Islands",
d0463470-0ff9-4a2c-971d-837d7cf1a502,Black Rock,"Asia, Indonesia, West Papua, Raja Ampat Islands, Waigeo Island, Kawe Island",-0.0698661631056506,130.0848197937012,"Maluku, Halmahera Island","Kawe Island, Waigeo Island",
d1fc1061-298c-409a-a523-67d10ebb32dd,3 Rocks,"Asia, Indonesia, West Papua, Raja Ampat Islands, Misool Island",-1.932540571655062,130.5858993530274,"Pacific Ocean, Halmahera Sea","Misool Island, Raja Ampat Islands",
d216969b-d388-4750-a274-1354d820a68a,Wesmansor,"Asia, Indonesia, West Papua, Raja Ampat Islands, Arborek Island",-0.610884615153177,130.5481136844821,"Pacific Ocean, Halmahera Sea","Arborek Island, Raja Ampat Islands",
d254a075-2e67-4685-bdef-0a84c030c9f9,Cave Lagoon,"Asia, Indonesia, West Papua, Raja Ampat Islands, Waigeo Island, Gam Island, Janggelo Island",-0.5201268281884834,130.5948257446289,"Pacific Ocean, Halmahera Sea","Janggelo Island, Gam Island",
d2d1fc0b-b168-4620-bba8-f5007a2d7233,Mioskon,"Asia, Indonesia, West Papua, Raja Ampat Islands, Friwin Island",-0.4976855462390594,130.7207268749765,"Pacific Ocean, Halmahera Sea","Friwin Island, Raja Ampat Islands",
d511676b-c021-49a7-acce-51e891d7909e,Jendela Cave,"Asia, Indonesia, West Papua, Raja Ampat Islands, Waigeo Island, Uranie Island",0.1041554831008863,130.2724027633667,"Maluku, Halmahera Island","Uranie Island, Waigeo Island",
d51d097c-1f2e-42b2-8c66-ddb95e53d589,Diversity,"Asia, Indonesia, West Papua, Raja Ampat Islands, Batanta Island",-0.9142296967454875,130.4300308227539,"Pacific Ocean, Halmahera Sea","Batanta Island, Raja Ampat Islands","This dive site off Batanta Island in Raja Ampat offers stunning biodiversity in crystal-clear waters. Vibrant coral gardens teem with reef fish, while occasional reef sharks patrol the area. The sloping reef transitions to a sandy bottom where pygmy seahorses hide among soft corals. Gentle currents make it ideal for all skill levels, with visibility often exceeding 30 meters. The site's proximity to nutrient-rich waters ensures frequent encounters with larger pelagics. Night dives reveal a different world of crustaceans and nocturnal hunters."
d72e6b01-91cd-4b12-803a-ecfb25ea824e,Algae Path 1,"Asia, Indonesia, West Papua, Raja Ampat Islands, Batanta Island",-0.9159460915806948,130.5723381042481,"Pacific Ocean, Halmahera Sea","Batanta Island, Raja Ampat Islands",
d7a9923a-71f2-434f-874a-07ba6bb7932c,Yanbuba Jetty,"Asia, Indonesia, West Papua, Raja Ampat Islands, Arborek Island",-0.5700755053495616,130.6593961705221,"Pacific Ocean, Halmahera Sea","Arborek Island, Raja Ampat Islands",
d7e7af2e-1a77-4c6e-abcd-86ce17586fec,Mangrove Slope,"Asia, Indonesia, West Papua, Raja Ampat Islands, Waigeo Island, Gam Island, Janggelo Island",-0.5156423579130218,130.4608869552613,"Pacific Ocean, Halmahera Sea","Janggelo Island, Gam Island",
d9d4878f-72a4-48fb-a299-d67f3743af9d,Manta Sandy,"Asia, Indonesia, West Papua, Raja Ampat Islands, Arborek Island",-0.5911912916555192,130.5673599243164,"Pacific Ocean, Halmahera Sea","Arborek Island, Raja Ampat Islands",
de0a54e8-70ef-4940-8168-97f32fa6d22f,Figure Eight Rock,"Asia, Indonesia, West Papua, Raja Ampat Islands, Waigeo Island, Pulau Wajang",0.1739356230385785,130.0069284439087,"Pacific Ocean, Halmahera Sea","Pulau Wajang, Waigeo Island","This dive site features a striking underwater pinnacle shaped like a figure eight, surrounded by vibrant coral gardens. Schools of barracuda and trevally patrol the strong currents, while reef sharks often cruise by. The steep walls drop to over 30 meters, covered in soft corals and sea fans. Expect excellent visibility and occasional manta ray sightings. The site is best for experienced divers due to the currents."
e0fb114b-bca1-4767-a1a6-21978246b0fa,Magic Rock,"Asia, Indonesia, West Papua, Raja Ampat Islands, Waigeo Island, Coquille Island",0.0968169705273169,130.2372550964356,"Pacific Ocean, Halmahera Sea","Coquille Island, Waigeo Island",
e19c2631-4338-4810-8bb0-6ef569bc9e2f,Arborec Jetty,"Asia, Indonesia, West Papua, Raja Ampat Islands, Mansuar Island",-0.5633596247832792,130.5187540051702,"Pacific Ocean, Halmahera Sea","Mansuar Island, Raja Ampat Islands",
e54a3af2-01dc-4af6-a4ad-a9b3ac32a20f,Barracuda Rock,"Asia, Indonesia, West Papua, Raja Ampat Islands, Misool Island",-2.187121238357555,130.433464050293,"Pacific Ocean, Halmahera Sea","Misool Island, Raja Ampat Islands",
e5b9cec8-a77d-475e-b753-196e98248e61,Tank Rock,"Asia, Indonesia, West Papua, Raja Ampat Islands, Misool Island, Yellu",-2.235836757844846,130.5522537231446,"Pacific Ocean, Halmahera Sea","Yellu, Misool Island",
eee18aea-78fd-4f33-b80e-059a7f71dd87,Salawati,"Asia, Indonesia, West Papua, Raja Ampat Islands, Salawati Island",-1.0106897682409,130.6246948242188,"Pacific Ocean, Halmahera Sea","Salawati Island, Raja Ampat Islands",
ef1bc0a4-61fc-4d53-adcd-21febb4f82ac,Wruzwarez Slope,"Asia, Indonesia, West Papua, Raja Ampat Islands, Batanta Island",-0.7818933022222411,130.7626247406006,"Pacific Ocean, Halmahera Sea","Batanta Island, Raja Ampat Islands",
f0916b00-c4d3-4c88-80c4-bede0048ff4d,Andy&#039;s Ultimate,"Asia, Indonesia, West Papua, Raja Ampat Islands, Misool Island, Daram Island",-2.126396161711785,130.9108543395996,"Pacific Ocean, Halmahera Sea","Daram Island, Misool Island",
f095050f-625f-4828-9f59-14c325bfd5b8,Algae Path 2,"Asia, Indonesia, West Papua, Raja Ampat Islands, Batanta Island",-0.9133714990201016,130.6066703796387,"Pacific Ocean, Halmahera Sea","Batanta Island, Raja Ampat Islands",
f10a40c4-2014-445c-9e52-4c9d9e0ab3e6,Changgo,"Asia, Indonesia, West Papua, Raja Ampat Islands, Waigeo Island, Kawe Island",-0.07553098398281143,130.1704788208008,"Maluku, Halmahera Island","Kawe Island, Waigeo Island",
f24316fd-9eb2-4103-b277-6b0cb8070815,Inner Rock,"Asia, Indonesia, West Papua, Raja Ampat Islands, Waigeo Island, Pulau Wajang",0.1674285373119897,130.0189759903284,"Pacific Ocean, Halmahera Sea","Pulau Wajang, Waigeo Island","A vibrant reef slopes down to 30 meters, teeming with schooling fish, reef sharks, and occasional manta rays. Strong currents attract pelagics, making it ideal for drift diving. The coral-covered pinnacle rises from the depths, surrounded by clear blue water. Best dived at slack tide for optimal conditions. Expect stunning visibility and rich biodiversity typical of Raja Ampat."
f56cb855-b8bf-4353-9e6d-7c40c3baa070,Pulau Dayang,"Asia, Indonesia, West Papua, Raja Ampat Islands, Batanta Island",-0.7864419026665325,130.5058193206787,"Pacific Ocean, Halmahera Sea","Batanta Island, Raja Ampat Islands",
f6b8c5ca-6ae4-4c6f-a984-4d87f72e7424,Cathedral Rock,"Asia, Indonesia, West Papua, Raja Ampat Islands, Waigeo Island, Pulau Wajang",0.1568983024435391,130.0777816772461,"Pacific Ocean, Halmahera Sea","Pulau Wajang, Waigeo Island",
f6f0b320-1f6c-4d8f-95c2-b199b9f36803,No Contest,"Asia, Indonesia, West Papua, Raja Ampat Islands, Misool Island",-2.051944650054414,130.6822013854981,"Pacific Ocean, Halmahera Sea","Misool Island, Raja Ampat Islands",
fa749b84-0f92-4f6f-8393-a0c2fb329fdb,Arborek Tip,"Asia, Indonesia, West Papua, Raja Ampat Islands, Mansuar Island",-0.563894136289815,130.5202660338809,"Pacific Ocean, Halmahera Sea","Mansuar Island, Raja Ampat Islands",
faeb92f9-4094-4bcf-880c-6180effcbc95,Plateau,"Asia, Indonesia, West Papua, Raja Ampat Islands, Misool Island",-2.0238099899065,130.6949043273926,"Pacific Ocean, Halmahera Sea","Misool Island, Raja Ampat Islands",
fb3adfa0-8d67-45d1-aec3-463aa1c4a140,Channel Island,"Asia, Indonesia, West Papua, Raja Ampat Islands, Waigeo Island",-0.1953502684892947,130.2601718902588,"Pacific Ocean, Halmahera Sea","Waigeo Island, Raja Ampat Islands",
