id,name,region,latitude,longitude,ocean,location,description
001f2d2a-0de5-4407-a873-89360d9e045f,Shaab Abu Ali,"Africa, Egypt, Red Sea Governorate, Qesm Safaga",27.02090154952977,33.91477346420289,"Indian Ocean, Red Sea","Qesm Safaga, Red Sea Governorate",
014d2566-a00d-4b73-8df6-1826950a79eb,Wadi Gimal East,"Africa, Egypt, Red Sea Governorate, Qesm Marsa Alam, Jazirat Wadi Jimal",24.66893633335641,35.16882419586182,"Indian Ocean, Red Sea","Jazirat Wadi Jimal, Qesm Marsa Alam",
01c7b888-e26e-4841-a4d7-65995f517738,Hornkorab Garden,"Indian Ocean, Red Sea",24.55122196112171,35.15414714813233,"Indian Ocean, Red Sea",Indian Ocean,"This vibrant reef in the Red Sea dazzles with colorful soft corals and abundant marine life. Schools of anthias swirl around towering pinnacles while moray eels peek from crevices. The sloping reef transitions to a sandy plateau at 18 meters, perfect for spotting garden eels. Strong currents bring nutrient-rich waters, attracting barracuda and reef sharks. Excellent visibility and warm waters make it ideal for all skill levels. The coral formations create swim-throughs and overhangs teeming with life. Night dives reveal octopus and crustaceans. A photographer's paradise with endless macro opportunities."
0328f4f1-3a7c-49a9-9d99-0e99a5a61101,Ras Disha,"Africa, Egypt, Red Sea Governorate, Qesm Safaga",27.04653233685865,33.90880823135377,"Indian Ocean, Red Sea","Qesm Safaga, Red Sea Governorate",
03631a6d-9ef1-421c-965e-b21ea97b136e,Salem Express Wreck,"Africa, Egypt, Red Sea Governorate, Qesm Al Qoseir",26.60633258984547,34.07873153686524,"Indian Ocean, Red Sea","Qesm Al Qoseir, Red Sea Governorate",
04f5d37e-6f7a-480a-9504-de420c144cc2,P-Ghalib Fischmarket,"Africa, Egypt, Red Sea Governorate, Qesm Al Qoseir",25.5337215941957,34.64074230272672,"Indian Ocean, Red Sea","Qesm Al Qoseir, Red Sea Governorate",
0561d6ba-6eb0-41d0-92e1-1ca950c3b163,Hamrawein,"Africa, Egypt, Red Sea Governorate, Qesm Al Qoseir",26.35003667450789,34.16473388671876,"Indian Ocean, Red Sea","Qesm Al Qoseir, Red Sea Governorate",
061a8b55-14c9-4378-a2de-c16f5979b554,Blind Reef,"Africa, Egypt, Red Sea Governorate, Qesm Hurghada, Shadwan",27.52714929684864,33.8899040222168,"Indian Ocean, Red Sea","Shadwan, Qesm Hurghada",
06f261c8-9990-4948-9812-7f475fc1dfd7,El Fanadir,"Africa, Egypt, Red Sea Governorate, Qesm Hurghada",27.29708340888697,33.83074522018433,"Indian Ocean, Red Sea","Qesm Hurghada, Red Sea Governorate",
09a7648d-8703-420a-948d-3b26cd3e40f7,Siyul Ketira,"Africa, Egypt, Red Sea Governorate, Qesm Hurghada, Shadwan",27.5612430623208,33.86381149291993,"Indian Ocean, Red Sea","Shadwan, Qesm Hurghada",
0b4fbdb5-2a6f-41a5-b480-1d74a1981678,Carlsson&#039;s Corner,"Africa, Egypt, Red Sea Governorate, Qesm Hurghada",27.15898239265598,33.97976875305176,"Indian Ocean, Red Sea","Qesm Hurghada, Red Sea Governorate",
0b98e928-c593-4f6d-9068-62fd00909ca3,Umm Gamar East,"Africa, Egypt, Red Sea Governorate, Qesm Hurghada",27.35766546920179,33.9100742340088,"Indian Ocean, Red Sea","Qesm Hurghada, Red Sea Governorate",
0c631d29-a396-48ac-98c3-914da9f4e00a,The Nursery,"Africa, Egypt, Red Sea Governorate, Qesm Shlatin",23.18076358312944,35.80307006835938,"Indian Ocean, Red Sea","Qesm Shlatin, Red Sea Governorate","A shallow reef teeming with juvenile marine life, perfect for macro enthusiasts. Vibrant coral gardens host tiny lionfish, nudibranchs, and colorful reef fish. Gentle currents make it ideal for beginners and underwater photographers. The sandy patches reveal garden eels and occasional stingrays. Clear waters offer excellent visibility year-round."
0c67c352-f18d-46db-8bcb-fa1641e41fc8,Shaab El Erg,"Africa, Egypt, Red Sea Governorate, Qesm Hurghada",27.40240400412041,33.87205123901368,"Indian Ocean, Red Sea","Qesm Hurghada, Red Sea Governorate",
0ce411e4-6fba-4e63-b8cb-085fcf94d6d5,Habili Radir,"Africa, Egypt, Red Sea Governorate, Qesm Marsa Alam",24.83901018715257,35.0899887084961,"Indian Ocean, Red Sea","Qesm Marsa Alam, Red Sea Governorate",
0eab7174-3ef3-449b-a525-ba5ec7683308,Ras Abdella,"Africa, Egypt, Red Sea Governorate, Qesm Safaga",27.03206437142954,33.91846418380738,"Indian Ocean, Red Sea","Qesm Safaga, Red Sea Governorate",
0fa8fa71-af63-4305-a5e8-8f64bb3bee32,Serib Kebir North,"Africa, Egypt, Red Sea Governorate, Qesm Al Qoseir",26.02508771297967,34.3266736670628,"Indian Ocean, Red Sea","Qesm Al Qoseir, Red Sea Governorate","This site offers stunning coral garden slopes with vibrant soft corals and hard coral formations. Schools of anthias and butterflyfish dart between the reef, while larger pelagics like barracuda patrol the blue. The wall drops to around 30 meters, with occasional overhangs and swim-throughs. Visibility is excellent, often exceeding 30 meters. Currents can be moderate, making it ideal for drift diving. The reef top sits at 5 meters, perfect for safety stops. Night dives reveal octopus and crustaceans. Suitable for all experience levels."
1017244d-4c22-4acd-bab3-d7654663fcdf,Abu Kafan,"Africa, Egypt, Red Sea Governorate, Qesm Safaga",26.65574351558512,34.11314964294434,"Indian Ocean, Red Sea","Qesm Safaga, Red Sea Governorate",
102e7759-834b-42ea-8846-fab0ac820b5d,Ras Abu Fatma,"Africa, Egypt, Red Sea Governorate, Qesm Shlatin",22.46560929966451,36.37470245361329,"Indian Ocean, Red Sea","Qesm Shlatin, Red Sea Governorate",
12638498-c6a2-4dca-b450-091d078aca57,Ras Homkorab,"Indian Ocean, Red Sea",24.56234654969088,35.16993999481202,"Indian Ocean, Red Sea",Indian Ocean,
1358939d-ce91-4a6a-98d3-6040c9ace724,Gotha Ashelaniat ,"Africa, Egypt, Red Sea Governorate, Qesm Marsa Alam",24.67170520734541,35.13259291648865,"Indian Ocean, Red Sea","Qesm Marsa Alam, Red Sea Governorate",
14b8df7e-ed24-452e-9bd1-4d16886e7603,Abu Ramada Plateau,"Africa, Egypt, Red Sea Governorate, Qesm Hurghada",27.17944694987707,33.98380279541016,"Indian Ocean, Red Sea","Qesm Hurghada, Red Sea Governorate",
14b97887-da45-4df3-bc98-c96c4b0f253f,Erg Gubar,"Africa, Egypt, Red Sea Governorate, Qesm Marsa Alam",24.65614411779333,35.13227105140687,"Indian Ocean, Red Sea","Qesm Marsa Alam, Red Sea Governorate",
14f3355e-485e-4ca7-8bf9-1a456a64538d,Quseir El-Qadim,"Africa, Egypt, Red Sea Governorate, Qesm Al Qoseir",26.15667063025148,34.27871704101563,"Indian Ocean, Red Sea","Qesm Al Qoseir, Red Sea Governorate",
152b9884-615a-4295-832c-93b2c5156e5e,Ben El Gebel,"Africa, Egypt, Red Sea Governorate, Qesm Hurghada",27.22425732559112,33.95075798034669,"Indian Ocean, Red Sea","Qesm Hurghada, Red Sea Governorate",
159367b9-a769-470b-83fd-9466467de237,El Fanadir South,"Africa, Egypt, Red Sea Governorate, Qesm Hurghada",27.27147451198179,33.83625984191895,Red Sea Governorate,"Qesm Hurghada, Red Sea Governorate",
16657084-43a7-46e2-bfc5-68c72cddd667,Sheikh Malek,"Africa, Egypt, Red Sea Governorate, Qesm Al Qoseir",25.60190226111573,34.71954345703126,"Indian Ocean, Red Sea","Qesm Al Qoseir, Red Sea Governorate",
16e06a3d-6ab6-4b23-8186-cbba1b93892b,Disha Malag,"Africa, Egypt, Red Sea Governorate, Qesm Safaga",27.04120023896701,33.90393733978272,"Indian Ocean, Red Sea","Qesm Safaga, Red Sea Governorate",
172d08c1-0151-449f-a124-25073141cb59,Shaab Eman,"Africa, Egypt, Red Sea Governorate, Qesm Marsa Alam",24.71510219497748,35.12856960296632,"Indian Ocean, Red Sea","Qesm Marsa Alam, Red Sea Governorate",
184d43ef-14d7-4e3d-ab1a-cd65b9e6a594,Habili Ashelaniat,"Africa, Egypt, Red Sea Governorate, Qesm Marsa Alam",24.66911182719404,35.13469576835633,"Indian Ocean, Red Sea","Qesm Marsa Alam, Red Sea Governorate",
1870405c-8466-436e-bf3a-f4b83eb7b364,Umm Gamar Nord,"Africa, Egypt, Red Sea Governorate, Qesm Hurghada",27.36993797516677,33.90844345092774,"Indian Ocean, Red Sea","Qesm Hurghada, Red Sea Governorate",
19c27f0f-5b9f-4997-9d22-f8802c9db949,Palm Royale House Reef,"Africa, Egypt, Red Sea Governorate, Qesm Safaga",26.83720672886894,33.95375652238727,"Indian Ocean, Red Sea","Qesm Safaga, Red Sea Governorate",
1bd3310f-ade8-4b7d-8971-698939016ebd,Tobia Island,"Africa, Egypt, Red Sea Governorate, Qesm Safaga",26.8216197142647,33.97307395935059,"Indian Ocean, Red Sea","Qesm Safaga, Red Sea Governorate",
1c4cfd17-166b-4473-a8e6-54881d50130c,Wadi Gimal House Reef 3,"Africa, Egypt, Red Sea Governorate, Qesm Marsa Alam",24.69084075318431,35.08914756879676,"Indian Ocean, Red Sea","Qesm Marsa Alam, Red Sea Governorate",
1c52564a-5ce5-461f-9d52-348d1b926c42,Orabi,"Africa, Egypt, Red Sea Governorate, Qesm Shlatin",23.74763991365267,35.72238922119141,"Indian Ocean, Red Sea","Qesm Shlatin, Red Sea Governorate","Orabi offers stunning coral gardens teeming with colorful reef fish, including anthias and butterflyfish. The site features dramatic drop-off walls covered in soft corals, with occasional sightings of reef sharks and turtles. Visibility often exceeds 30 meters, with mild currents ideal for drift diving. The vibrant marine life and pristine coral formations make it a must-visit for underwater photographers. Depths range from 10 to 40 meters, suitable for all experience levels. Warm water temperatures and clear conditions create perfect diving year-round."
1d2fa194-5e3d-4f8e-969a-d005e639b3bc,Abu Dabbab,"Africa, Egypt, Red Sea Governorate, Qesm Marsa Alam",25.24469595130604,34.90562438964844,"Indian Ocean, Red Sea","Qesm Marsa Alam, Red Sea Governorate",
1d55590a-ed3b-4beb-a9b5-858315f2bc2d,Um Magawish,"Africa, Egypt, Red Sea Governorate, Qesm Hurghada",27.1563095056371,33.87316703796387,"Indian Ocean, Red Sea","Qesm Hurghada, Red Sea Governorate",
1ed95e0c-9518-4091-a832-4353c7d9db87,Ss Hamada Wreck,"Africa, Egypt, Red Sea Governorate, Qesm Marsa Alam",24.43857797664965,35.21303558401997,"Africa, Egypt, Red Sea Governorate, Qesm Marsa Alam","Qesm Marsa Alam, Red Sea Governorate",
205b7f0a-ceed-4dca-9b7e-669b0b9e7e1a,Rosalie Moller,"Africa, Egypt, Red Sea Governorate, Qesm Hurghada, Jubal Island",27.6366987180244,33.77729415893555,"Indian Ocean, Red Sea","Jubal Island, Qesm Hurghada",
20f9e986-9c69-4abe-8152-c58f88a1e030,Coral Beach House Reef,"Africa, Egypt, Red Sea Governorate, Qesm Hurghada",27.08589410568423,33.87177228927613,"Africa, Egypt, Red Sea Governorate, Qesm Hurghada","Qesm Hurghada, Red Sea Governorate",
2187dd8a-21d6-4edb-8559-b15a17b82296,Shab El Fanadir,"Africa, Egypt, Red Sea Governorate, Qesm Hurghada",27.30890503744136,33.81729125976563,"Indian Ocean, Red Sea","Qesm Hurghada, Red Sea Governorate","A stunning reef wall plunges to 40 meters, teeming with colorful soft corals and vibrant anthias. Schools of barracuda and trevally patrol the blue, while eagle rays glide past. The shallow plateau offers easy diving with abundant marine life. Strong currents sometimes sweep the site, attracting pelagics. Visibility often exceeds 30 meters. Ideal for drift diving and photography."
22bb969f-6b35-46de-bce9-a952f8fdccc4,Green Hole,"Africa, Egypt, Red Sea Governorate, Qesm Al Qoseir",26.56949068021398,34.09727096557618,"Indian Ocean, Red Sea","Qesm Al Qoseir, Red Sea Governorate","A deep sinkhole plunging over 50 meters, surrounded by vibrant coral walls teeming with reef sharks, barracuda, and schools of anthias. Strong currents attract pelagics, while the dramatic drop-off creates thrilling drift dives. Excellent visibility and warm waters make it ideal for advanced divers. The site's unique topography offers caves and overhangs to explore. Located near Al Quseir, it's a hidden gem in the Red Sea."
24d835c8-f346-456c-bcba-99bbfebadd43,Wadi Gimal Garden,"Africa, Egypt, Red Sea Governorate, Qesm Marsa Alam",24.67720377486047,35.13638019561768,"Indian Ocean, Red Sea","Qesm Marsa Alam, Red Sea Governorate",
25686cc2-2a82-4dcb-b49e-ffb825f74378,Siyul Kebir,"Africa, Egypt, Red Sea Governorate, Qesm Hurghada, Shadwan",27.55652535960256,33.87702941894532,"Indian Ocean, Red Sea","Shadwan, Qesm Hurghada",
25b02144-607d-4c73-9db1-5ae93b36c55e,Serib Kebir South,"Africa, Egypt, Red Sea Governorate, Qesm Al Qoseir",26.02273529728987,34.32554372472502,"Indian Ocean, Red Sea","Qesm Al Qoseir, Red Sea Governorate",
28bea83c-5d00-40c4-ae68-bf4772b5e52c,Ras El Arab,"Africa, Egypt, Red Sea Governorate, Qesm Safaga",26.96790125155597,33.92602801322938,"Indian Ocean, Red Sea","Qesm Safaga, Red Sea Governorate",
2a390a59-fc3a-404c-bcff-0fc59e21be43,Ras Um Hesiwa,"Africa, Egypt, Red Sea Governorate, Qesm Safaga",26.89237290126467,33.99813652038575,"Indian Ocean, Red Sea","Qesm Safaga, Red Sea Governorate",
2ac1f0ad-0e8c-47e0-b8c6-5920d98aeec4,Marsa Moren,"Africa, Egypt, Red Sea Governorate, Qesm Al Qoseir",25.39731208772515,34.71130371093751,"Indian Ocean, Red Sea","Qesm Al Qoseir, Red Sea Governorate",
2bd7905e-971a-450f-a9d5-4892104166a8,Sug Bohar,"Africa, Egypt, Red Sea Governorate, Qesm Al Qoseir",25.98397148826213,34.39304351806641,"Indian Ocean, Red Sea","Qesm Al Qoseir, Red Sea Governorate",
2caae270-b803-468e-9753-9802acab4f17,Dahara,"Africa, Egypt, Red Sea Governorate, Qesm Marsa Alam",24.71533610003582,35.13809680938721,"Indian Ocean, Red Sea","Qesm Marsa Alam, Red Sea Governorate",
2d5e161c-75b0-42e1-9063-ff0f2f1139f7,House Reef,"Africa, Egypt, Red Sea Governorate, Qesm Safaga",26.99542066397194,33.90164136886597,"Indian Ocean, Red Sea","Qesm Safaga, Red Sea Governorate",
2d686be5-aae0-4b3c-855b-6cbeadfa6e3c,Abu Makadi Middle,"Africa, Egypt, Red Sea Governorate, Qesm Safaga",26.99478691923475,33.90582561492921,"Indian Ocean, Red Sea","Qesm Safaga, Red Sea Governorate",
2e467d1c-2c66-493d-8a4c-dd4f89affbe8,Abu Galawa Kebir,"Indian Ocean, Red Sea",24.2228584895903,35.59990882873536,"Indian Ocean, Red Sea",Indian Ocean,
2e6b14d2-4703-437f-afe4-34a1109a8018,Wadi Gimal South,"Africa, Egypt, Red Sea Governorate, Qesm Marsa Alam, Jazirat Wadi Jimal",24.64202435786401,35.18049716949464,"Indian Ocean, Red Sea","Jazirat Wadi Jimal, Qesm Marsa Alam",
30429447-a218-435e-8f10-7bd2d28af09d,Gotha Eschta,"Africa, Egypt, Red Sea Governorate, Qesm Marsa Alam",24.66957980955407,35.13176143169404,"Indian Ocean, Red Sea","Qesm Marsa Alam, Red Sea Governorate",
30e23aba-60f5-4edf-98b0-6af688e3adf8,Eldorado,"Africa, Egypt, Red Sea Governorate, Qesm Safaga",27.02831806858913,33.91571760177613,"Indian Ocean, Red Sea","Qesm Safaga, Red Sea Governorate",
32acf6b8-b0de-4adc-b033-ce18c76221f0,Habili Etnin Arug,"Africa, Egypt, Red Sea Governorate, Qesm Marsa Alam",24.73708734894124,35.12775421142579,"Indian Ocean, Red Sea","Qesm Marsa Alam, Red Sea Governorate",
34154208-dbc7-4155-a5c5-821274529dfe,Abu Nuhas,"Africa, Egypt, Red Sea Governorate, Qesm Hurghada, Shadwan",27.57767734621878,33.9338493347168,"Indian Ocean, Red Sea","Shadwan, Qesm Hurghada",
342550db-c301-4c25-84b3-cafe0cb5a46e,Daedalus Reef,"Africa, Egypt, Red Sea Governorate, Qesm Marsa Alam",24.93205446766739,35.86418151855469,"Indian Ocean, Red Sea","Qesm Marsa Alam, Red Sea Governorate",
342ed778-f886-4346-9874-0961561b6b38,Shaab Eschta,"Africa, Egypt, Red Sea Governorate, Qesm Marsa Alam",24.66955056070802,35.12558698654176,"Indian Ocean, Red Sea","Qesm Marsa Alam, Red Sea Governorate","This stunning reef in the Red Sea features dramatic drop-offs and vibrant coral gardens teeming with life. Schools of anthias and butterflyfish dart among the hard and soft corals, while larger pelagics like barracuda and reef sharks patrol the blue. The site offers excellent visibility, often exceeding 30 meters, with gentle currents ideal for drift diving. The shallow plateau is perfect for beginners, while deeper sections challenge advanced divers. Night dives reveal nocturnal creatures like moray eels and crustaceans. The reef's healthy ecosystem and diverse topography make it a must-dive spot near Marsa Alam."
38ea72ad-59ad-4c76-a1a0-1f1705e523d5,Shaab Iris,"Africa, Egypt, Red Sea Governorate, Qesm Hurghada",27.3455235696241,33.84870529174805,Red Sea Governorate,"Qesm Hurghada, Red Sea Governorate",
3902fed6-d8cf-45b3-931b-fa4b241a1194,Big Giftun,"Africa, Egypt, Red Sea Governorate, Qesm Hurghada",27.17875976816588,33.95359039306641,"Indian Ocean, Red Sea","Qesm Hurghada, Red Sea Governorate",
3a2a99e3-9179-403e-b5fc-72f228757c23,Mangrove Bay,"Africa, Egypt, Red Sea Governorate, Qesm Al Qoseir",25.93581714204013,34.48265075683594,"Indian Ocean, Red Sea","Qesm Al Qoseir, Red Sea Governorate",
3a82f7a4-d6f5-4dbf-b3d1-6d15370144d6,Shab Shirap,"Africa, Egypt, Red Sea Governorate",27.34196077603722,33.83299827575684,"Indian Ocean, Red Sea","Red Sea Governorate, Egypt",
3aa0201e-2513-4e72-bef7-0baa43bed1f4,Elphinstone Reef,"Africa, Egypt, Red Sea Governorate, Qesm Marsa Alam",25.35147250259257,34.97703552246094,"Indian Ocean, Red Sea","Qesm Marsa Alam, Red Sea Governorate",
3feccbf1-c312-492e-be0b-a6458fd3a9c3,Dorla El Fanus East,"Africa, Egypt, Red Sea Governorate, Qesm Hurghada",27.26439577649536,33.88784408569337,"Indian Ocean, Red Sea","Qesm Hurghada, Red Sea Governorate",
41a50dc1-0dbc-4451-8dff-4b921bb235cd,Shaab Quais,"Africa, Egypt, Red Sea Governorate, Qesm Marsa Alam",24.66881933732752,35.12175679206849,"Indian Ocean, Red Sea","Qesm Marsa Alam, Red Sea Governorate","This stunning reef in the Red Sea features a horseshoe-shaped lagoon with vibrant coral gardens. Expect steep drop-offs, swim-throughs, and abundant marine life, including reef sharks, turtles, and schools of tropical fish. The outer edges offer dramatic walls plunging into the deep blue. Visibility is excellent, and currents are mild, making it ideal for all skill levels. A must-dive for its pristine coral and diverse ecosystem."
41b7fb96-8f35-4f43-8059-e43d8e999728,Abu Hashish Lagoon,"Africa, Egypt, Red Sea Governorate, Qesm Safaga",27.01761365763693,33.91966581344605,"Indian Ocean, Red Sea","Qesm Safaga, Red Sea Governorate",
43081229-da0e-48ad-8653-312c487fa1fd,Banana Reef,"Africa, Egypt, Red Sea Governorate, Qesm Hurghada",27.22250189189407,33.95178794860841,"Indian Ocean, Red Sea","Qesm Hurghada, Red Sea Governorate",
434ecd2d-35ab-4bdf-8cce-ee97d66216b8,Sharm El Rashed North,"Africa, Egypt, Red Sea Governorate, Qesm Safaga",26.94625037233068,33.93638134002686,"Indian Ocean, Red Sea","Qesm Safaga, Red Sea Governorate",
4538a4b1-f553-4ef0-8a43-64a703c18267,Sachwa Abu Galawa,"Africa, Egypt, Red Sea Governorate, Qesm Hurghada",27.30486294482018,33.81840705871583,"Indian Ocean, Red Sea","Qesm Hurghada, Red Sea Governorate",
460b9d3a-c146-4a84-85c0-c3b0d50fde2b,Lahami Bay Housereef,"Indian Ocean, Red Sea",24.20548050861631,35.43434143066407,"Indian Ocean, Red Sea",Indian Ocean,
462c947d-6408-4ff9-b3f1-7cd07594dfcf,Serib Soraya,"Africa, Egypt, Red Sea Governorate, Qesm Al Qoseir",26.10858718364705,34.30755615234376,"Indian Ocean, Red Sea","Qesm Al Qoseir, Red Sea Governorate",
46ca3ca1-25c8-4258-a30d-05ed87b9ffcb,El Fanadir Foc,"Africa, Egypt, Red Sea Governorate, Qesm Hurghada",27.3016596725248,33.83057355880738,"Indian Ocean, Red Sea","Qesm Hurghada, Red Sea Governorate",
471d6602-5f07-45a3-88f8-c79453b8b82f,Wadi Gimal North,"Africa, Egypt, Red Sea Governorate, Qesm Marsa Alam, Jazirat Wadi Jimal",24.67790570219976,35.1458215713501,"Indian Ocean, Red Sea","Jazirat Wadi Jimal, Qesm Marsa Alam",
48530803-7780-444e-898d-deb6f6642396,Torfa El Mesheich,"Africa, Egypt, Red Sea Governorate, Qesm Marsa Alam",24.66378840428942,35.11406421661378,"Indian Ocean, Red Sea","Qesm Marsa Alam, Red Sea Governorate",
4876e300-0eb2-4482-9aa5-cc8f02096163,Farus,"Africa, Egypt, Red Sea Governorate, Qesm Hurghada",27.35042329025475,33.82055282592774,"Indian Ocean, Red Sea","Qesm Hurghada, Red Sea Governorate",
48cb1fc2-995f-4fe4-a5b7-7d9721dfe8f3,Abu Saaf,"Africa, Egypt, Red Sea Governorate, Qesm Al Qoseir",26.45950861170241,34.15512084960938,"Indian Ocean, Red Sea","Qesm Al Qoseir, Red Sea Governorate",
48dbaa0c-e7a4-458a-a1c4-3841d8279a3a,Shaab Sabrina,"Africa, Egypt, Red Sea Governorate, Qesm Hurghada",27.21990685227,33.96260261535645,"Indian Ocean, Red Sea","Qesm Hurghada, Red Sea Governorate",
49d3356c-b66b-408d-ae79-f085d86a3eee,Erg Somaya,"Africa, Egypt, Red Sea Governorate, Qesm Hurghada",27.22563112396671,33.95496368408204,"Indian Ocean, Red Sea","Qesm Hurghada, Red Sea Governorate",
4a0a0659-c13e-4423-8db8-60f313c11106,Beit Goha,"Africa, Egypt, Red Sea Governorate, Qesm Al Qoseir",25.86169509134365,34.51904296875001,"Indian Ocean, Red Sea","Qesm Al Qoseir, Red Sea Governorate",
4a3307fa-4d0a-4f68-9330-f09fd7bf06f9,Shaab Tag,"Africa, Egypt, Red Sea Governorate, Qesm Safaga",26.9897009342309,33.90816450119019,"Indian Ocean, Red Sea","Qesm Safaga, Red Sea Governorate",
4a7a356b-c3e6-4e6e-8088-edcb598949fb,Umm Gamar West,"Africa, Egypt, Red Sea Governorate, Qesm Hurghada",27.3617056369059,33.90307903289796,"Indian Ocean, Red Sea","Qesm Hurghada, Red Sea Governorate",
4b8af9ef-f574-4e57-a772-b17acef2b418,Utopia Housereef South,"Africa, Egypt, Red Sea Governorate, Qesm Al Qoseir",25.94154807885583,34.39458678541504,"Indian Ocean, Red Sea","Qesm Al Qoseir, Red Sea Governorate",
4bcc021e-cead-4f95-8fb6-c21ab221327a,Casus Soraya,"Africa, Egypt, Red Sea Governorate, Qesm Al Qoseir",26.54430855862742,34.11598205566407,"Indian Ocean, Red Sea","Qesm Al Qoseir, Red Sea Governorate",
4cf4781b-e7f2-48eb-97a1-dfa1655e7f13,Mersa Shouna,"Africa, Egypt, Red Sea Governorate, Qesm Hurghada",27.14175023531847,34.21417236328126,"Indian Ocean, Red Sea","Qesm Hurghada, Red Sea Governorate",
4da4dbfa-4a1e-4ccb-9fdc-076f604fd0e7,Ras Qubbat,"Africa, Egypt, Red Sea Governorate, Qesm Shlatin",22.31831903309799,36.56335830688477,"Indian Ocean, Red Sea","Qesm Shlatin, Red Sea Governorate",
4e991e53-7597-43ef-94d6-f0a8d1125af4,Horseshoe Reef,"Africa, Egypt, Red Sea Governorate, Qesm Shlatin",23.70489450232491,35.71114540100098,"Indian Ocean, Red Sea","Qesm Shlatin, Red Sea Governorate",
4f70e477-aac8-45f1-af5b-fed4c9f0f4e1,Ras Abu Dalaf,"Africa, Egypt, Red Sea Governorate, Qesm Marsa Alam",24.70800686602391,35.09131908416749,"Indian Ocean, Red Sea","Qesm Marsa Alam, Red Sea Governorate",
4fdac993-7e49-4ccb-9c40-e376367dc87b,Habili Aija,"Africa, Egypt, Red Sea Governorate, Qesm Marsa Alam",24.73817870925531,35.133376121521,"Indian Ocean, Red Sea","Qesm Marsa Alam, Red Sea Governorate",
50434400-8b40-4028-bf59-6fda97ee58b8,Carnatic Wreck,"Africa, Egypt, Red Sea Governorate, Qesm Hurghada, Shadwan",27.57967440048224,33.92724037170411,"Indian Ocean, Red Sea","Shadwan, Qesm Hurghada",
50e240a2-ed05-4824-a0a4-73a5215daaca,Abu Kefan,"Africa, Egypt, Red Sea Governorate, Qesm Safaga",26.72679971144327,34.11615371704102,"Indian Ocean, Red Sea","Qesm Safaga, Red Sea Governorate",
5161b597-713e-4bee-a7d4-08400154ca02,Shona Marsal,"Africa, Egypt, Red Sea Governorate, Qesm Al Qoseir",25.4696970368472,34.68279032036662,"Indian Ocean, Red Sea","Qesm Al Qoseir, Red Sea Governorate",
555e7b8c-779b-4ec8-939e-31c599e70a8e,Erg Camel,"Africa, Egypt, Red Sea Governorate, Qesm Hurghada",27.16799336891093,33.98560523986817,"Indian Ocean, Red Sea","Qesm Hurghada, Red Sea Governorate",
56488dab-183b-4277-a141-27f954f183c0,Rocky Island,"Africa, Egypt, Red Sea Governorate, Qesm Shlatin",23.56524590044569,36.25848770141602,"Indian Ocean, Red Sea","Qesm Shlatin, Red Sea Governorate","A stunning dive site off Egypt's Red Sea coast, known for dramatic underwater cliffs and vibrant coral gardens. Schools of barracuda and trevally patrol the blue, while reef sharks often cruise the drop-offs. Strong currents attract pelagic life, making it ideal for drift diving. The site features steep walls covered in soft corals and gorgonians, with depths ranging from 12 to 40 meters. Visibility often exceeds 30 meters, offering breathtaking views of the thriving marine ecosystem."
57743c5f-5316-4f2d-bee5-8d67ada0668a,Umm Gamar Foc,"Africa, Egypt, Red Sea Governorate, Qesm Hurghada",27.36890896636623,33.90681266784669,"Indian Ocean, Red Sea","Qesm Hurghada, Red Sea Governorate",
57d7b446-87f4-49e2-a1f9-7ee54a818a11,Siyal Island,"Africa, Egypt, Red Sea Governorate, Qesm Shlatin",22.89768321064807,36.28646850585938,"Indian Ocean, Red Sea","Qesm Shlatin, Red Sea Governorate",
593eaa92-bcc3-4dbc-ba36-dc27fa4b5c82,Habili Quais,"Africa, Egypt, Red Sea Governorate, Qesm Marsa Alam",24.67002829100165,35.12022793293,"Indian Ocean, Red Sea","Qesm Marsa Alam, Red Sea Governorate",
5a1d5776-8487-4467-9aed-be5832142cc2,El Malek,"Africa, Egypt, Red Sea Governorate, Qesm Hurghada",27.07074337126648,33.89419555664063,"Africa, Egypt, Red Sea Governorate, Qesm Hurghada","Qesm Hurghada, Red Sea Governorate",
5c0fd0ac-f2e9-4af7-8f25-61fedfcef029,El Aruk,"Africa, Egypt, Red Sea Governorate, Qesm Hurghada",27.16501524534842,33.9465093612671,"Indian Ocean, Red Sea","Qesm Hurghada, Red Sea Governorate",
5c34c163-ddb1-40f1-8746-7e199b0dbb2a,Umm Halhala South,"Africa, Egypt, Red Sea Governorate, Qesm Marsa Alam",25.34080683879085,34.79400157928468,"Indian Ocean, Red Sea","Qesm Marsa Alam, Red Sea Governorate",
5c8b834d-89c3-4ff4-9c0a-b35666eb57a2,The Barge,"Africa, Egypt, Red Sea Governorate, Qesm Hurghada, Jubal Island",27.67708643520531,33.80441665649415,"Indian Ocean, Red Sea","Jubal Island, Qesm Hurghada",
5d764495-fb52-4452-9b69-a27032c821e2,Utopia Housereef Northcave,"Africa, Egypt, Red Sea Governorate, Qesm Al Qoseir",25.94797334308408,34.38655964067662,"Indian Ocean, Red Sea","Qesm Al Qoseir, Red Sea Governorate",
5ebac39d-cadb-4c71-aa89-0fbd8a16a6f6,Shaab Gubar,"Africa, Egypt, Red Sea Governorate, Qesm Marsa Alam",24.65793822708154,35.13923406600953,"Indian Ocean, Red Sea","Qesm Marsa Alam, Red Sea Governorate",
5f8fb68b-af02-432d-a502-b4845e4635ef,Yellowfish Reef,"Africa, Egypt, Red Sea Governorate, Qesm Hurghada, Shadwan",27.55759066503282,33.93247604370118,"Indian Ocean, Red Sea","Shadwan, Qesm Hurghada",
60a1a0aa-77b7-4e6f-83dc-72b33ed55e11,Furry Shoal Garen,"Indian Ocean, Red Sea",24.18888310755451,35.64604282379151,"Indian Ocean, Red Sea",Indian Ocean,
60d7e5e2-49b3-4aef-9c22-6b16fc9ff413,Bir Abu Ramad,"Africa, Egypt, Red Sea Governorate, Qesm Shlatin",22.35261603551215,36.51615142822266,"Indian Ocean, Red Sea","Qesm Shlatin, Red Sea Governorate",
610a40df-b988-4949-84c6-0514686c889c,Golden Dolphin,"Africa, Egypt, Red Sea Governorate, Qesm Hurghada",27.33761490945199,34.05761718750001,"Indian Ocean, Red Sea","Qesm Hurghada, Red Sea Governorate",
61c1882a-3059-49a4-b0ee-64872d282105,Arug Kebir,"Africa, Egypt, Red Sea Governorate, Qesm Marsa Alam",24.72975939594471,35.12865543365479,"Indian Ocean, Red Sea","Qesm Marsa Alam, Red Sea Governorate","Arug Kebir offers stunning coral garden dives with vibrant hard and soft corals. The site features dramatic drop-offs and swim-throughs teeming with reef fish, moray eels, and occasional reef sharks. Strong currents attract pelagics like barracuda and tuna. Visibility often exceeds 30 meters, with depths ranging from 10 to 40 meters. The sloping reef transitions into a steep wall, creating diverse terrain. Ideal for drift diving, this site suits intermediate to advanced divers. Water temperatures stay warm year-round, averaging 25-30°C. Night dives reveal nocturnal species like lionfish and octopus."
61e9117a-3a18-4169-9e7d-9c294f2028c3,Bet Goha,"Africa, Egypt, Red Sea Governorate, Qesm Al Qoseir",26.2047342671076,34.27047729492188,"Indian Ocean, Red Sea","Qesm Al Qoseir, Red Sea Governorate",
6256d07d-8cc4-4be4-bfb0-8b0ed074d617,Ulysses,"Africa, Egypt, Red Sea Governorate, Qesm Hurghada, Jubal Island",27.68808831325894,33.79866600036622,"Indian Ocean, Red Sea","Jubal Island, Qesm Hurghada",
63ba763d-7e22-4fec-8098-98977a2bc4b4,Sharm Fugani,"Africa, Egypt, Red Sea Governorate, Qesm Al Qoseir",25.84420442305222,34.44136137527376,"Indian Ocean, Red Sea","Qesm Al Qoseir, Red Sea Governorate",
63fecbb3-5174-4c72-bf2c-c57b6ccab840,El Kaf,"Africa, Egypt, Red Sea Governorate, Qesm Al Qoseir",25.78752652911788,34.56779479980469,"Indian Ocean, Red Sea","Qesm Al Qoseir, Red Sea Governorate",
655e0b72-5005-443d-af63-51cb1c6122cd,Shab Abu Ramada,"Africa, Egypt, Red Sea Governorate, Qesm Hurghada",27.13782665122083,33.95427703857423,"Indian Ocean, Red Sea","Qesm Hurghada, Red Sea Governorate",
661c8334-9e14-4c0b-83b8-b1ba047b3e82,Shabrur Umm Gamar,"Africa, Egypt, Red Sea Governorate, Qesm Hurghada",27.33212515018013,33.91797065734864,"Indian Ocean, Red Sea","Qesm Hurghada, Red Sea Governorate",
66290463-99c0-44f6-bd49-354a09404326,Paradise Reef,"Africa, Egypt, Red Sea Governorate, Qesm Shlatin",23.58785575183995,35.84945350885392,"Indian Ocean, Red Sea","Qesm Shlatin, Red Sea Governorate",
67057b68-edaa-4bb1-a5ed-d95d7160049c,Shab Samir Anoor,"Africa, Egypt, Red Sea Governorate, Qesm Hurghada",27.30623574750315,33.81866455078126,"Indian Ocean, Red Sea","Qesm Hurghada, Red Sea Governorate",
689ea9d0-bfc4-434e-8bb6-0d5bbcc7b676,Shab Walter,"Africa, Egypt, Red Sea Governorate",27.36612678356219,33.8265609741211,"Indian Ocean, Red Sea","Red Sea Governorate, Egypt",
68f52945-64e6-472b-976d-dfad08fcad83,Shaab Nos,"Africa, Egypt, Red Sea Governorate, Qesm Marsa Alam",24.67046702129235,35.12343049049378,"Indian Ocean, Red Sea","Qesm Marsa Alam, Red Sea Governorate",
6c06d1f5-9376-47fa-9144-300861924b37,Umm Dom/stoney Beach,"Africa, Egypt, Red Sea Governorate, Qesm Hurghada",27.25279832006261,33.93590927124024,"Indian Ocean, Red Sea","Qesm Hurghada, Red Sea Governorate","Just off the coast of Hurghada, this site features a stunning mix of hard and soft corals teeming with colorful reef fish. The gentle slope makes it ideal for beginners, while deeper sections reveal larger marine life. Expect excellent visibility and calm conditions, perfect for relaxed exploration. The vibrant coral gardens attract anthias, butterflyfish, and occasional turtles. A great spot for photography and easy diving."
6dd62c88-86f6-4167-916d-c10da40b1277,Ashelaniat,"Africa, Egypt, Red Sea Governorate, Qesm Marsa Alam",24.67346009565657,35.13377845287324,"Indian Ocean, Red Sea","Qesm Marsa Alam, Red Sea Governorate",
6e3ff907-c209-446a-8004-0146e15666ef,Tobia Soraya,"Africa, Egypt, Red Sea Governorate, Qesm Safaga",26.80813790255084,33.97528409957886,"Indian Ocean, Red Sea","Qesm Safaga, Red Sea Governorate",
6e7657c4-a1e1-44fc-96d3-766a55302c94,Kilo 10,"Africa, Egypt, Red Sea Governorate, Qesm Al Qoseir",26.04938040062954,34.34051513671876,"Indian Ocean, Red Sea","Qesm Al Qoseir, Red Sea Governorate","Explore a vibrant reef system teeming with colorful corals and schools of tropical fish. The site features dramatic drop-offs and swim-throughs, perfect for adventurous divers. Expect strong currents that attract pelagic species like barracuda and trevally. Visibility is excellent, often exceeding 30 meters. The reef slopes gently, making it suitable for all experience levels. Night dives reveal nocturnal creatures like octopus and moray eels. The warm Red Sea waters ensure comfortable diving year-round."
6f459c93-6344-40eb-9bf4-472dd80ad26a,The Brothers Island,"Africa, Egypt, Red Sea Governorate, Qesm Al Qoseir",26.31065061657428,34.86047744750977,"Indian Ocean, Red Sea","Qesm Al Qoseir, Red Sea Governorate",
6f882b63-2eab-444e-9e06-14ef132c5c77,Shab Quais / El Aruk,"Africa, Egypt, Red Sea Governorate, Qesm Hurghada",27.16638977378703,33.90277862548829,"Indian Ocean, Red Sea","Qesm Hurghada, Red Sea Governorate",
706da6db-5761-4e59-b77d-89ac5e8001b1,Aschra Arug,"Africa, Egypt, Red Sea Governorate, Qesm Marsa Alam",24.73053898593351,35.131573677063,"Indian Ocean, Red Sea","Qesm Marsa Alam, Red Sea Governorate",
70c2fa21-7dc2-468e-9dd2-8a4c8d25a3e5,Shab Pinky,"Africa, Egypt, Red Sea Governorate, Qesm Hurghada",27.26805787986158,33.91565322875977,"Indian Ocean, Red Sea","Qesm Hurghada, Red Sea Governorate",
71af83af-8dca-4373-b1ea-b2d1f32b682c,El Mina / El Minya,"Africa, Egypt, Red Sea Governorate, Qesm Hurghada",27.22341777379673,33.84508967399598,"Indian Ocean, Red Sea","Qesm Hurghada, Red Sea Governorate",
71d2e1af-5bf2-49ee-9e43-fb1017ac20ab,Shab Umm Gamar,"Africa, Egypt, Red Sea Governorate, Qesm Hurghada",27.33860608700849,33.91393661499024,"Indian Ocean, Red Sea","Qesm Hurghada, Red Sea Governorate",
720af1ca-d0d6-4200-9bce-7449eb280750,Habili Nos,"Africa, Egypt, Red Sea Governorate, Qesm Marsa Alam",24.67271914582577,35.13069927692414,"Indian Ocean, Red Sea","Qesm Marsa Alam, Red Sea Governorate",
729ff083-4413-4930-90ad-1c70ebbfcbe0,Cleopatra&#039;s Palace,"Africa, Egypt, Red Sea Governorate, Qesm Safaga",26.99801812106609,33.90988111495972,"Indian Ocean, Red Sea","Qesm Safaga, Red Sea Governorate",
732ec821-7924-4581-b82c-e21980827ef4,Sharm El Bahair,"Africa, Egypt, Red Sea Governorate, Qesm Al Qoseir",25.72073513441211,34.66941833496094,"Indian Ocean, Red Sea","Qesm Al Qoseir, Red Sea Governorate",
763e5972-1aec-41a8-ac30-38d19dbf8295,Shab Heluwa,"Africa, Egypt, Red Sea Governorate, Qesm Hurghada",27.40590915536104,33.85291099548341,"Indian Ocean, Red Sea","Qesm Hurghada, Red Sea Governorate",
77196438-9957-4b03-968a-94e88501c72d,Shaab Talata,"Africa, Egypt, Red Sea Governorate, Qesm Hurghada",27.13370196075597,33.87153625488282,"Africa, Egypt, Red Sea Governorate, Qesm Hurghada","Qesm Hurghada, Red Sea Governorate",
7a0bf68d-2373-4460-9a59-3ec7cd74fed7,Zabargad,"Africa, Egypt, Red Sea Governorate, Qesm Shlatin",23.63320166314145,36.18930816650391,"Indian Ocean, Red Sea","Qesm Shlatin, Red Sea Governorate",
7b486a55-7a13-4b86-93c8-418a650e9e53,White Rock,"Africa, Egypt, Red Sea Governorate, Qesm Shlatin",23.7212399910099,35.65423965454102,"Indian Ocean, Red Sea","Qesm Shlatin, Red Sea Governorate",
7c5b1b48-9f47-4536-b060-c4801c5c1d29,Sha&#039;ab Marsa Alam,"Africa, Egypt, Red Sea Governorate, Qesm Marsa Alam",25.03459428825369,34.9251937866211,"Indian Ocean, Red Sea","Qesm Marsa Alam, Red Sea Governorate",
7c95107c-4b7f-49ff-97fb-1acdae659a56,Habili St John&#039;s Wood,"Africa, Egypt, Red Sea Governorate, Qesm Shlatin",23.38890068314427,35.81542968750001,"Indian Ocean, Red Sea","Qesm Shlatin, Red Sea Governorate","This remote reef in the Red Sea offers dramatic walls and pinnacles teeming with life. Schools of barracuda and trevally patrol the blue, while colorful soft corals cover the steep drop-offs. Strong currents attract pelagics, making it ideal for drift diving. The site remains uncrowded, with pristine coral formations and excellent visibility year-round. Depths range from 15 to 40 meters, suited for experienced divers."
7cc934b5-a1f7-4bd3-954c-651fe3ee9ef4,Turtle Bay,"Africa, Egypt, Red Sea Governorate, Qesm Hurghada",27.27782289900625,33.89488220214844,"Indian Ocean, Red Sea","Qesm Hurghada, Red Sea Governorate",
7eb0e860-6deb-48ad-b35f-128bb43549dc,Gamul Kebir,"Africa, Egypt, Red Sea Governorate, Qesm Safaga",26.7837746551621,33.98873805999757,"Indian Ocean, Red Sea","Qesm Safaga, Red Sea Governorate",
7f8d0b5c-4ce6-404e-bfe2-394667614d42,Habili Wadi Gimal,"Africa, Egypt, Red Sea Governorate, Qesm Marsa Alam",24.70161292658972,35.31761169433594,"Indian Ocean, Red Sea","Qesm Marsa Alam, Red Sea Governorate",
7fb67e3f-71e1-4900-9a2e-1034b13034a3,Shab Abu Gate,"Africa, Egypt, Red Sea Governorate, Qesm Hurghada",27.38861091679486,33.87866020202637,"Indian Ocean, Red Sea","Qesm Hurghada, Red Sea Governorate",
808d8c7c-409f-440a-a669-cdfa8b09e627,Shab Rahma,"Africa, Egypt, Red Sea Governorate, Qesm Al Qoseir",26.32625109213138,34.1796834988479,"Indian Ocean, Red Sea","Qesm Al Qoseir, Red Sea Governorate",
80ce8837-7d33-4145-a842-bbe486618624,Shaab Saiman,"Africa, Egypt, Red Sea Governorate, Qesm Safaga",26.90431387734913,33.99916648864747,"Indian Ocean, Red Sea","Qesm Safaga, Red Sea Governorate",
82dfb897-1d0f-47aa-9e49-e0826198d3f7,Giftun Ham Ham / Pierre&#039;s Hill,"Africa, Egypt, Red Sea Governorate, Qesm Hurghada",27.19280797523274,33.9884376525879,"Indian Ocean, Red Sea","Qesm Hurghada, Red Sea Governorate",
84ec8d09-d2aa-4f5c-be94-3d813daa123c,Shab Itar,"Africa, Egypt, Red Sea Governorate, Qesm Hurghada",27.31577626210913,33.93951414967888,"Indian Ocean, Red Sea","Qesm Hurghada, Red Sea Governorate",
8520ac63-45b1-4f70-acda-aaf7e95e6bff,Shab Manta,"Africa, Egypt, Red Sea Governorate, Qesm Hurghada",27.26012317010544,33.92698287963868,"Indian Ocean, Red Sea","Qesm Hurghada, Red Sea Governorate",
867a6e7f-2860-49c6-ba37-7c57a4a722d3,Habili Radir Soraya,"Africa, Egypt, Red Sea Governorate, Qesm Marsa Alam",24.82444378137923,35.08728504180909,"Indian Ocean, Red Sea","Qesm Marsa Alam, Red Sea Governorate",
867ecb78-cc44-4569-81cb-cd70f96120d6,El Makluf,"Africa, Egypt, Red Sea Governorate, Qesm Al Qoseir",26.49638584298338,34.14070129394532,"Indian Ocean, Red Sea","Qesm Al Qoseir, Red Sea Governorate",
86d9a057-0fae-4411-b79b-b81123c8cf32,Abu Hashish South Ergs,"Africa, Egypt, Red Sea Governorate, Qesm Safaga",27.01050230658613,33.92438650131226,"Indian Ocean, Red Sea","Qesm Safaga, Red Sea Governorate",
87f478b2-3162-4ef6-9530-0b56c98ac7c9,Shaab Disha,"Africa, Egypt, Red Sea Governorate, Qesm Safaga",27.03970949962529,33.90273571014405,"Indian Ocean, Red Sea","Qesm Safaga, Red Sea Governorate",
8817c9bc-3f0d-47fd-8a97-6f549b006061,Cave Reef,"Africa, Egypt, Red Sea Governorate, Qesm Shlatin",23.61361764386634,35.85697174072266,"Indian Ocean, Red Sea","Qesm Shlatin, Red Sea Governorate",
8aaed497-6b16-44c7-b60a-ad5c78f3e6ff,Umm Hal Hal,"Africa, Egypt, Red Sea Governorate, Qesm Marsa Alam",24.73279976927202,35.12745380401612,"Indian Ocean, Red Sea","Qesm Marsa Alam, Red Sea Governorate",
8b11c4d2-bc9a-40de-95bb-455808d0960e,El Mohgar,"Africa, Egypt, Red Sea Governorate, Qesm Al Qoseir",26.01482928993101,34.37381744384766,"Indian Ocean, Red Sea","Qesm Al Qoseir, Red Sea Governorate",
8c917943-cbe8-44ff-b545-305f967000ff,Shaab Sabina,"Africa, Egypt, Red Sea Governorate, Qesm Hurghada",27.22105173014523,33.95170211791993,"Indian Ocean, Red Sea","Qesm Hurghada, Red Sea Governorate",
8dee75b1-de8a-4cb3-ba74-02596ba8a8f6,Shab Dorfa,"Africa, Egypt, Red Sea Governorate, Qesm Hurghada",27.2299126884793,33.95254325761926,"Indian Ocean, Red Sea","Qesm Hurghada, Red Sea Governorate",
8ef7aaeb-7709-4c14-919a-76a9526d817d,Emperor Frazer,"Africa, Egypt, Red Sea Governorate, Qesm Hurghada, Jubal Island",27.67767551029684,33.8057041168213,"Indian Ocean, Red Sea","Jubal Island, Qesm Hurghada",
91769a66-8b8f-4645-920e-614917cd3fc5,Umm Halhala,"Africa, Egypt, Red Sea Governorate, Qesm Marsa Alam",25.3450344325856,34.79211330413819,"Indian Ocean, Red Sea","Qesm Marsa Alam, Red Sea Governorate",
921f3b4d-e1b2-47cb-97ee-c35f82d9dcea,Sharm Trombi,"Africa, Egypt, Red Sea Governorate, Qesm Al Qoseir",25.37487827448892,34.74288940429688,"Indian Ocean, Red Sea","Qesm Al Qoseir, Red Sea Governorate","This site features dramatic drop-off walls covered in vibrant soft and hard corals. Schools of barracuda, trevally, and reef sharks patrol the blue. Strong currents attract pelagics, making it ideal for drift diving. Visibility often exceeds 30 meters. The steep slope plunges to over 100 meters, offering thrilling deep dives. Night dives reveal octopus and lobster activity. Suitable for experienced divers due to occasional surge."
928331d8-c821-4852-9aa8-09cd66ac0523,Dahara Malafat,"Africa, Egypt, Red Sea Governorate, Qesm Marsa Alam",24.72048190011734,35.13698101043702,"Indian Ocean, Red Sea","Qesm Marsa Alam, Red Sea Governorate","This dive site near Marsa Alam features stunning coral gardens and dramatic drop-offs teeming with marine life. Schools of barracuda, reef sharks, and turtles patrol the vibrant reefs. The clear waters offer excellent visibility, often exceeding 30 meters. Hard and soft corals create a colorful backdrop for macro life like nudibranchs and shrimp. Currents can be strong, making it ideal for drift diving. The site's depth variations cater to all experience levels, with shallow reefs and deeper walls. Night dives reveal octopus and other nocturnal creatures. The remote location ensures pristine conditions."
93d1f40f-ea34-4d26-a27c-9692ff83b51d,The Cave,"Africa, Egypt, Red Sea Governorate, Qesm Al Qoseir",25.63576011290843,34.58890914916993,"Indian Ocean, Red Sea","Qesm Al Qoseir, Red Sea Governorate",
95bf4281-763d-4585-a840-c9da6bca9b74,Marsa Shouni,"Africa, Egypt, Red Sea Governorate, Qesm Al Qoseir",25.42515801154596,34.70443725585938,"Indian Ocean, Red Sea","Qesm Al Qoseir, Red Sea Governorate",
96012a27-c108-473a-b5f2-588310e6928d,Shaab Claudia,"Indian Ocean, Red Sea",24.16805501148315,35.69638252258301,"Indian Ocean, Red Sea",Indian Ocean,
96c88fa8-74a0-4383-92b1-949f54c4b3fe,Erg Soraya,"Africa, Egypt, Red Sea Governorate, Qesm Hurghada",27.2071597505492,33.98097038269044,"Indian Ocean, Red Sea","Qesm Hurghada, Red Sea Governorate",
971d4a71-d28a-4f12-9811-b5384ca818a7,Dorla El Fanus West,"Africa, Egypt, Red Sea Governorate, Qesm Hurghada",27.26698977884137,33.87823104858399,"Indian Ocean, Red Sea","Qesm Hurghada, Red Sea Governorate",
989dd924-d77e-4000-a1c0-a12dee7f4d1d,El Arish El Tor Wreck,"Africa, Egypt, Red Sea Governorate, Qesm Safaga",26.6704705871007,33.95384788513184,"Indian Ocean, Red Sea","Qesm Safaga, Red Sea Governorate",
98ffa586-aa56-45b3-accd-3531873a1b73,Abu Ramada Cave,"Africa, Egypt, Red Sea Governorate, Qesm Hurghada",27.1634116074497,33.98517608642579,"Indian Ocean, Red Sea","Qesm Hurghada, Red Sea Governorate",
9a5e00cd-5baa-4db4-9fc4-bbaf24a93ffe,Small Giftun Drift,"Africa, Egypt, Red Sea Governorate, Qesm Hurghada",27.18196657994435,33.99307250976563,"Indian Ocean, Red Sea","Qesm Hurghada, Red Sea Governorate",
9b366272-526e-487a-8b4a-bb1c463861fb,Shaab Maksour,"Indian Ocean, Red Sea",24.17463267220277,35.71972846984864,"Indian Ocean, Red Sea",Indian Ocean,
9b68772d-c4bf-4ba5-a676-2f5b07d30e2f,Giannis D,"Africa, Egypt, Red Sea Governorate, Qesm Hurghada, Shadwan",27.5772779310033,33.92329216003419,"Indian Ocean, Red Sea","Shadwan, Qesm Hurghada",
9c640fbf-88d6-4cc1-ab93-cd6e972ee7b4,Marsa Sharm,"Africa, Egypt, Red Sea Governorate, Qesm Marsa Alam",24.75992596340998,35.07050514221192,"Indian Ocean, Red Sea","Qesm Marsa Alam, Red Sea Governorate","Shallow reefs teem with colorful fish, perfect for beginners. Expect vibrant coral gardens and frequent turtle sightings. Gentle currents make for easy drift dives. The sandy bottom slopes to deeper areas where reef sharks sometimes patrol. Visibility often exceeds 30 meters. Night dives reveal octopus and crustaceans. Warm water year-round with minimal surge. Accessible from shore or boat."
9f15c28d-fc96-4605-88b1-4f7716af9115,Tobia Arbaa,"Africa, Egypt, Red Sea Governorate, Qesm Safaga",26.84141821747381,33.98672103881837,"Indian Ocean, Red Sea","Qesm Safaga, Red Sea Governorate",
9fd6cb49-9063-4eef-a16a-aceaf90461a1,Shaab Saiman,"Africa, Egypt, Red Sea Governorate, Qesm Safaga",27.00805528604293,33.9135503768921,"Indian Ocean, Red Sea","Qesm Safaga, Red Sea Governorate","Shaab Saiman is a stunning reef in the Red Sea near Safaga, known for its dramatic drop-offs and vibrant coral gardens. The site teems with anthias, barracuda, and occasional reef sharks. Strong currents attract pelagics, making it ideal for drift diving. The plateau at 12 meters offers excellent visibility and colorful soft corals. Perfect for intermediate divers seeking dynamic conditions and rich marine encounters."
a00e5578-ba56-4388-bb50-86bb6511affe,Ras Umm Gerifat,"Africa, Egypt, Red Sea Governorate, Qesm Al Qoseir",25.60321980405228,34.60817813873292,"Indian Ocean, Red Sea","Qesm Al Qoseir, Red Sea Governorate",
a1a5d412-de81-46e5-b1fb-2f8395b2c628,Umm Usk,"Africa, Egypt, Red Sea Governorate, Qesm Hurghada, Jubal Island",27.59471770718607,33.86861801147462,"Indian Ocean, Red Sea","Jubal Island, Qesm Hurghada",
a1bfe9e3-bd54-4088-8489-25cc259ebf65,Hassan&#039;s Paradise,"Africa, Egypt, Red Sea Governorate, Qesm Safaga",27.01784304856551,33.90361547470093,"Indian Ocean, Red Sea","Qesm Safaga, Red Sea Governorate",
a1d5ba34-7601-44bc-9dfb-f2363f34e42a,Sharm El Arab South,"Africa, Egypt, Red Sea Governorate, Qesm Safaga",26.9586446710571,33.93024444580079,"Indian Ocean, Red Sea","Qesm Safaga, Red Sea Governorate",
a2e898f4-d3ca-4a2e-b3b0-53d85101b9af,El Fanadir North,"Africa, Egypt, Red Sea Governorate",27.29901955245499,33.83093833923341,Qesm Hurghada,"Red Sea Governorate, Egypt",
a49c84e0-1d2d-464b-ac5e-414dbaccd16d,Gorgonia Beach Northside,"Africa, Egypt, Red Sea Governorate, Qesm Marsa Alam",24.70477094989782,35.09127616882325,"Indian Ocean, Red Sea","Qesm Marsa Alam, Red Sea Governorate",
a4c3e836-5d86-4df5-8ee0-acd80386c826,Shab Abu Galawa,"Africa, Egypt, Red Sea Governorate, Qesm Hurghada",27.30982783463552,33.81434726557928,"Indian Ocean, Red Sea","Qesm Hurghada, Red Sea Governorate",
a5328505-76fa-4ccb-a8cf-4c566d746360,Sharm El Rashed South,"Africa, Egypt, Red Sea Governorate, Qesm Safaga",26.93263037366474,33.94170284271241,"Indian Ocean, Red Sea","Qesm Safaga, Red Sea Governorate","This site offers vibrant coral gardens and dramatic drop-offs teeming with life. Expect strong currents that attract pelagics like barracuda and reef sharks. The steep walls are covered in soft corals, with overhangs and swim-throughs to explore. Visibility often exceeds 30 meters, making it ideal for photography. The site suits advanced divers due to occasional surge and depth. Night dives reveal nocturnal creatures like octopus and lobster. Nearby pinnacles host schools of anthias and butterflyfish. The warm, clear waters make it a year-round destination."
a6a2d333-24a4-4390-864f-845790bea0b1,Alkerf,"Africa, Egypt, Red Sea Governorate, Qesm Hurghada, Shadwan",27.45222766131507,34.00817871093751,"Africa, Egypt, Red Sea Governorate, Qesm Hurghada, Shadwan","Shadwan, Qesm Hurghada",
aa73f336-8e5e-45f6-a3c3-4f37ea38763c,Habili Dahara,"Africa, Egypt, Red Sea Governorate, Qesm Marsa Alam",24.75065071823862,35.18671989440919,"Indian Ocean, Red Sea","Qesm Marsa Alam, Red Sea Governorate",
ab367d02-e573-4fb4-a916-a475a0ef07c6,Shaab Abu Nugar,"Africa, Egypt, Red Sea Governorate, Qesm Hurghada",27.3565064247452,33.83883476257325,Red Sea Governorate,"Qesm Hurghada, Red Sea Governorate","This horseshoe-shaped reef sits in the Red Sea near Hurghada. Strong currents sweep the outer walls, attracting pelagic species like barracuda and reef sharks. Inside, sheltered lagoons host vibrant soft corals and small reef fish. The site drops to 30 meters, offering dramatic wall dives with swim-throughs. Ideal for drift diving, it's best suited for intermediate to advanced divers. Visibility often exceeds 30 meters, showcasing the rich marine ecosystem. The reef top peaks near the surface, allowing deep or shallow exploration. Night dives reveal nocturnal creatures among the coral formations."
ab45c66f-8326-4d16-82c8-c9d967dcbbe7,Gota Abu Ramada,"Africa, Egypt, Red Sea Governorate, Qesm Hurghada",27.13790303294237,33.95207762718201,"Indian Ocean, Red Sea","Qesm Hurghada, Red Sea Governorate",
abbc58e4-db0b-44cf-8064-02ac3a122218,Masa Mubarak,"Africa, Egypt, Red Sea Governorate, Qesm Al Qoseir",25.51225078248233,34.65349674224854,"Indian Ocean, Red Sea","Qesm Al Qoseir, Red Sea Governorate",
ac0a81f1-5657-4053-85ac-5c09c5c79753,Utopia House Reef,"Africa, Egypt, Red Sea Governorate, Qesm Al Qoseir",25.94254501538747,34.38917557345397,"Indian Ocean, Red Sea","Qesm Al Qoseir, Red Sea Governorate",
ac75e6c4-e8f2-4b59-a750-c6fa779686fd,Small Wreck House Reef,"Africa, Egypt, Red Sea Governorate, Qesm Safaga",26.99532227269987,33.90217781066895,"Indian Ocean, Red Sea","Qesm Safaga, Red Sea Governorate",
ad3947cf-1093-4d34-a182-e65eaaaea948,El Fanadir Dacht,"Africa, Egypt, Red Sea Governorate, Qesm Hurghada",27.29508123422632,33.8304877281189,"Indian Ocean, Red Sea","Qesm Hurghada, Red Sea Governorate","El Fanadir Dacht offers a stunning wall dive with vibrant coral gardens teeming with anthias, lionfish, and occasional reef sharks. The site features dramatic drop-offs and swim-throughs, with excellent visibility year-round. Gentle currents attract schools of barracuda and trevally. Ideal for all skill levels, with depths ranging from 10 to 40 meters. The hard and soft coral formations create a colorful underwater landscape, perfect for photographers. Warm water temperatures make it comfortable for extended dives."
aea1e451-5f55-46a8-9c1f-40e194a2a690,Dolphin Reef / Shaab Sataya,"Indian Ocean, Red Sea",24.15207928188554,35.69638252258301,"Indian Ocean, Red Sea",Indian Ocean,
aea2f7ef-8632-43a4-9c0d-c80aa9ac362f,Abu Hashish,"Africa, Egypt, Red Sea Governorate, Qesm Safaga",27.02334829035376,33.92436504364014,"Indian Ocean, Red Sea","Qesm Safaga, Red Sea Governorate",
aebf4434-5ed9-4e98-9477-d395df279fd1,Ras Henrik Gemil,"Africa, Egypt, Red Sea Governorate, Qesm Safaga",26.91472292887056,33.96539211273194,"Indian Ocean, Red Sea","Qesm Safaga, Red Sea Governorate",
aec4d573-bc92-4cd1-8529-e8dabe0b6bc0,Shaab Petra ,"Africa, Egypt, Red Sea Governorate, Qesm Hurghada",27.14279135455761,33.87831687927247,"Indian Ocean, Red Sea","Qesm Hurghada, Red Sea Governorate",
b07f83ce-712d-450f-8d16-9ef6fcdc055a,Giftun Soraya,"Africa, Egypt, Red Sea Governorate, Qesm Hurghada",27.18407386368076,33.97583770594793,"Indian Ocean, Red Sea","Qesm Hurghada, Red Sea Governorate",
b444117f-abfe-4c28-b6a1-445fee452847,St John&#039;s Wood,"Africa, Egypt, Red Sea Governorate, Qesm Shlatin",23.38133776841261,35.75225830078126,"Indian Ocean, Red Sea","Qesm Shlatin, Red Sea Governorate",
b4c1fcba-1231-4a98-b7f5-41b32ca8946b,Erg Hornkorab,"Indian Ocean, Red Sea",24.55502785248419,35.16337394714356,"Indian Ocean, Red Sea",Indian Ocean,"This dive site in the Red Sea features dramatic underwater mountain peaks and steep drop-offs, creating a thrilling wall dive. Vibrant soft corals blanket the slopes, attracting schools of fusiliers and anthias. Look for reef sharks patrolling the blue, while eagle rays glide along the current. The site offers excellent visibility and moderate currents, ideal for drift diving. Depth ranges from 15-meter plateaus to over 40 meters along the walls. Occasional sightings of hammerheads add excitement for advanced divers. The topography provides shelter for moray eels and lionfish in crevices."
b575a57b-6a46-462d-b832-1be067e3625c,Shaab Ishta / Shab Estha,"Africa, Egypt, Red Sea Governorate, Qesm Hurghada",27.14901601712196,33.89568686485291,"Indian Ocean, Red Sea","Qesm Hurghada, Red Sea Governorate",
b64d8603-9811-4d6f-98dc-1446c49e1ffd,El Sayej,"Africa, Egypt, Red Sea Governorate, Qesm Hurghada",27.1556049159234,33.88988256454468,"Indian Ocean, Red Sea","Qesm Hurghada, Red Sea Governorate","This vibrant reef sits near Hurghada, teeming with colorful soft corals and schools of anthias. The sloping wall drops to 30 meters, offering encounters with turtles, reef sharks, and occasional eagle rays. Strong currents attract pelagics, making it ideal for drift diving. Visibility often exceeds 30 meters, with warm water year-round. The site's healthy coral formations and diverse marine life create an unforgettable underwater spectacle."
b79fbc76-0cdc-4cf0-a735-637f3782178d,Shab Tiffany,"Africa, Egypt, Red Sea Governorate, Qesm Hurghada",27.16104428919794,33.90047836408485,"Indian Ocean, Red Sea","Qesm Hurghada, Red Sea Governorate",
b7a5a369-c063-4dad-85f2-3e4c0a9843f8,Abu Galawa Small,"Indian Ocean, Red Sea",24.25447719945061,35.55390357971192,"Indian Ocean, Red Sea",Indian Ocean,
