[
  {
    "name": "Roche Grand Maman",
    "filename": "roche-grand-maman.md",
    "lat": -4.2900691,
    "lng": 55.6859107,
    "difficulty": "Advanced",
    "maxDepth": 25,
    "entryType": "boat",
    "siteType": "wall",
    "ref": "",
    "osmId": 9865500503
  },
  {
    "name": "Remire Reef",
    "filename": "remire-reef.md",
    "lat": -5.0998656,
    "lng": 53.34612,
    "difficulty": "Intermediate",
    "maxDepth": 20,
    "entryType": "boat",
    "siteType": "reef",
    "ref": "",
    "osmId": 52577559
  },
  {
    "name": "Shark Bank",
    "filename": "shark-bank.md",
    "lat": -4.56,
    "lng": 55.37,
    "difficulty": "Advanced",
    "maxDepth": 30,
    "entryType": "boat",
    "siteType": "pinnacle",
    "ref": "",
    "osmId": null
  },
  {
    "name": "Brissare Rocks",
    "filename": "brissare-rocks.md",
    "lat": -4.58,
    "lng": 55.4,
    "difficulty": "Intermediate",
    "maxDepth": 12,
    "entryType": "boat",
    "siteType": "pinnacle",
    "ref": "",
    "osmId": null
  },
  {
    "name": "Aldabra Atoll Channel",
    "filename": "aldabra-atoll-channel.md",
    "lat": -9.41,
    "lng": 46.35,
    "difficulty": "Advanced",
    "maxDepth": 20,
    "entryType": "boat",
    "siteType": "drift",
    "ref": "",
    "osmId": null
  },
  {
    "name": "Trompeuse Rocks",
    "filename": "trompeuse-rocks.md",
    "lat": -4.62,
    "lng": 55.45,
    "difficulty": "Intermediate",
    "maxDepth": 18,
    "entryType": "boat",
    "siteType": "drift",
    "ref": "",
    "osmId": null
  },
  {
    "name": "Conception Island",
    "filename": "conception-island.md",
    "lat": -4.63,
    "lng": 55.55,
    "difficulty": "Advanced",
    "maxDepth": 25,
    "entryType": "boat",
    "siteType": "wall",
    "ref": "",
    "osmId": null
  },
  {
    "name": "Marianne Island",
    "filename": "marianne-island.md",
    "lat": -4.34,
    "lng": 55.94,
    "difficulty": "Beginner",
    "maxDepth": 15,
    "entryType": "boat",
    "siteType": "pinnacle",
    "ref": "",
    "osmId": null
  },
  {
    "name": "Ennerdale Wreck",
    "filename": "ennerdale-wreck.md",
    "lat": -4.6,
    "lng": 55.42,
    "difficulty": "Advanced",
    "maxDepth": 30,
    "entryType": "boat",
    "siteType": "wreck",
    "ref": "",
    "osmId": null
  },
  {
    "name": "Ave Maria Rock",
    "filename": "ave-maria-rock.md",
    "lat": -4.57,
    "lng": 55.38,
    "difficulty": "Beginner",
    "maxDepth": 16,
    "entryType": "boat",
    "siteType": "wall",
    "ref": "",
    "osmId": null
  },
  {
    "name": "L'Ilot Island",
    "filename": "lilot-island.md",
    "lat": -4.55,
    "lng": 55.5,
    "difficulty": "Beginner",
    "maxDepth": 20,
    "entryType": "boat",
    "siteType": "reef",
    "ref": "",
    "osmId": null
  },
  {
    "name": "Whale Rock",
    "filename": "whale-rock.md",
    "lat": -4.54,
    "lng": 55.35,
    "difficulty": "Intermediate",
    "maxDepth": 20,
    "entryType": "boat",
    "siteType": "pinnacle",
    "ref": "",
    "osmId": null
  }
]
